{"league": "NFL", "team": "Buffalo Bills", "stadium": "Bills Stadium", "stadium latitude": 42.773999999999994, "stadium longitude": -78.78699999999999, "radius": "3000 meters", "city": "Orchard Park", "state": "New York", "businesses": [{"id": "RvibP9CrVHWJUyqXJmxiRA", "alias": "ichiban-japanese-restaurant-blasdell", "name": "Ichiban Japanese Restaurant", "image_url": "https://s3-media4.fl.yelpcdn.com/bphoto/TjuKjWr2Drsn2qqTGfa_bQ/o.jpg", "is_closed": false, "url": "https://www.yelp.com/biz/ichiban-japanese-restaurant-blasdell?adjust_creative=a2JdNtFqB-C38ga_06BHvw&utm_campaign=yelp_api_v3&utm_medium=api_v3_business_search&utm_source=a2JdNtFqB-C38ga_06BHvw", "review_count": 81, "categories": [{"alias": "japanese", "title": "Japanese"}, {"alias": "sushi", "title": "Sushi Bars"}], "rating": 4.5, "coordinates": {"latitude": 42.787257, "longitude": -78.810421}, "transactions": ["pickup", "delivery"], "price": "$$", "location": {"address1": "3701 Mckinley Pkwy", "address2": "", "address3": "", "city": "Blasdell", "zip_code": "14219", "country": "US", "state": "NY", "display_address": ["3701 Mckinley Pkwy", "Blasdell, NY 14219"]}, "phone": "+17168281881", "display_phone": "(716) 828-1881", "distance": 2413.840250864489}, {"id": "6NbXsXn4zGiP7j2LGfT_bQ", "alias": "black-iron-bystro-buffalo-2", "name": "Black Iron Bystro", "image_url": "https://s3-media1.fl.yelpcdn.com/bphoto/BH5SnrgObCFcPyWDEX-XRg/o.jpg", "is_closed": false, "url": "https://www.yelp.com/biz/black-iron-bystro-buffalo-2?adjust_creative=a2JdNtFqB-C38ga_06BHvw&utm_campaign=yelp_api_v3&utm_medium=api_v3_business_search&utm_source=a2JdNtFqB-C38ga_06BHvw", "review_count": 166, "categories": [{"alias": "newamerican", "title": "American (New)"}], "rating": 4.5, "coordinates": {"latitude": 42.799985, "longitude": -78.823495}, "transactions": ["pickup", "delivery"], "price": "$$", "location": {"address1": "3648 S Park Ave", "address2": "", "address3": "", "city": "Buffalo", "zip_code": "14219", "country": "US", "state": "NY", "display_address": ["3648 S Park Ave", "Buffalo, NY 14219"]}, "phone": "+17162409830", "display_phone": "(716) 240-9830", "distance": 4149.4507078405595}, {"id": "wljSQYullTCvF6LP7-EUqQ", "alias": "poppyseed-restaurant-buffalo", "name": "Poppyseed Restaurant", "image_url": "https://s3-media4.fl.yelpcdn.com/bphoto/FabuRQzsoJzds5V97lg3WQ/o.jpg", "is_closed": false, "url": "https://www.yelp.com/biz/poppyseed-restaurant-buffalo?adjust_creative=a2JdNtFqB-C38ga_06BHvw&utm_campaign=yelp_api_v3&utm_medium=api_v3_business_search&utm_source=a2JdNtFqB-C38ga_06BHvw", "review_count": 171, "categories": [{"alias": "newamerican", "title": "American (New)"}, {"alias": "vegetarian", "title": "Vegetarian"}, {"alias": "wraps", "title": "Wraps"}], "rating": 4.5, "coordinates": {"latitude": 42.786515, "longitude": -78.812613}, "transactions": ["pickup", "delivery"], "price": "$$", "location": {"address1": "3670 McKinley Pkwy", "address2": "", "address3": "", "city": "Buffalo", "zip_code": "14219", "country": "US", "state": "NY", "display_address": ["3670 McKinley Pkwy", "Buffalo, NY 14219"]}, "phone": "+17168240075", "display_phone": "(716) 824-0075", "distance": 2511.201900053805}, {"id": "to9TTmuTEA9CoQVG2fcp1A", "alias": "the-poked-yolk-buffalo-4", "name": "The Poked Yolk", "image_url": "https://s3-media3.fl.yelpcdn.com/bphoto/Ptk_2b_G5ZedcXwbDlcWTQ/o.jpg", "is_closed": false, "url": "https://www.yelp.com/biz/the-poked-yolk-buffalo-4?adjust_creative=a2JdNtFqB-C38ga_06BHvw&utm_campaign=yelp_api_v3&utm_medium=api_v3_business_search&utm_source=a2JdNtFqB-C38ga_06BHvw", "review_count": 71, "categories": [{"alias": "diners", "title": "Diners"}, {"alias": "breakfast_brunch", "title": "Breakfast & Brunch"}, {"alias": "burgers", "title": "Burgers"}], "rating": 4.5, "coordinates": {"latitude": 42.78304, "longitude": -78.79053}, "transactions": ["delivery"], "location": {"address1": "3698 Abbott Rd", "address2": "", "address3": null, "city": "Buffalo", "zip_code": "14219", "country": "US", "state": "NY", "display_address": ["3698 Abbott Rd", "Buffalo, NY 14219"]}, "phone": "+17168229655", "display_phone": "(716) 822-9655", "distance": 1045.9588332249316}, {"id": "deyULHklv0cfmq0SujJepQ", "alias": "dao-sushi-and-grill-steakhouse-orchard-park", "name": "Dao Sushi & Grill steakhouse", "image_url": "https://s3-media2.fl.yelpcdn.com/bphoto/4iD8ANXXTmowmMhvaVxYBg/o.jpg", "is_closed": false, "url": "https://www.yelp.com/biz/dao-sushi-and-grill-steakhouse-orchard-park?adjust_creative=a2JdNtFqB-C38ga_06BHvw&utm_campaign=yelp_api_v3&utm_medium=api_v3_business_search&utm_source=a2JdNtFqB-C38ga_06BHvw", "review_count": 104, "categories": [{"alias": "sushi", "title": "Sushi Bars"}, {"alias": "japanese", "title": "Japanese"}], "rating": 4.0, "coordinates": {"latitude": 42.7979399, "longitude": -78.75247}, "transactions": ["delivery"], "price": "$$", "location": {"address1": "3200 Orchard Park Rd", "address2": "", "address3": "", "city": "Orchard Park", "zip_code": "14127", "country": "US", "state": "NY", "display_address": ["3200 Orchard Park Rd", "Orchard Park, NY 14127"]}, "phone": "+17166776677", "display_phone": "(716) 677-6677", "distance": 3883.237718712771}, {"id": "bPUw2pBd9COwH-6-UhOckQ", "alias": "bws-smokin-barrels-bbq-blasdell", "name": "BW's Smokin' Barrels BBQ", "image_url": "https://s3-media3.fl.yelpcdn.com/bphoto/MWUcl8oKiFJHJd-AAb4eTA/o.jpg", "is_closed": false, "url": "https://www.yelp.com/biz/bws-smokin-barrels-bbq-blasdell?adjust_creative=a2JdNtFqB-C38ga_06BHvw&utm_campaign=yelp_api_v3&utm_medium=api_v3_business_search&utm_source=a2JdNtFqB-C38ga_06BHvw", "review_count": 96, "categories": [{"alias": "bbq", "title": "Barbeque"}], "rating": 4.0, "coordinates": {"latitude": 42.79631, "longitude": -78.79634}, "transactions": ["delivery"], "price": "$$", "location": {"address1": "5007 Lake Ave", "address2": "", "address3": "", "city": "Blasdell", "zip_code": "14219", "country": "US", "state": "NY", "display_address": ["5007 Lake Ave", "Blasdell, NY 14219"]}, "phone": "+17168247455", "display_phone": "(716) 824-7455", "distance": 2612.618372063608}, {"id": "fZu1e5rVfW5O0_gLeiToAA", "alias": "teds-hot-dogs-orchard-park", "name": "Ted's Hot Dogs", "image_url": "https://s3-media3.fl.yelpcdn.com/bphoto/QX5H1c8iVVytMSvAi7YkiQ/o.jpg", "is_closed": false, "url": "https://www.yelp.com/biz/teds-hot-dogs-orchard-park?adjust_creative=a2JdNtFqB-C38ga_06BHvw&utm_campaign=yelp_api_v3&utm_medium=api_v3_business_search&utm_source=a2JdNtFqB-C38ga_06BHvw", "review_count": 56, "categories": [{"alias": "hotdog", "title": "Hot Dogs"}], "rating": 4.0, "coordinates": {"latitude": 42.79803, "longitude": -78.75107}, "transactions": ["delivery"], "price": "$", "location": {"address1": "3193 Orchard Park Rd", "address2": "", "address3": "", "city": "Orchard Park", "zip_code": "14127", "country": "US", "state": "NY", "display_address": ["3193 Orchard Park Rd", "Orchard Park, NY 14127"]}, "phone": "+17166754662", "display_phone": "(716) 675-4662", "distance": 3968.216445896594}, {"id": "kgl0SiKO6RVTCTWPqKm9yw", "alias": "o-neills-stadium-inn-orchard-park-2", "name": "O'Neill's Stadium Inn", "image_url": "https://s3-media4.fl.yelpcdn.com/bphoto/9KOitF8qs6Mzbve_WVkXgQ/o.jpg", "is_closed": false, "url": "https://www.yelp.com/biz/o-neills-stadium-inn-orchard-park-2?adjust_creative=a2JdNtFqB-C38ga_06BHvw&utm_campaign=yelp_api_v3&utm_medium=api_v3_business_search&utm_source=a2JdNtFqB-C38ga_06BHvw", "review_count": 62, "categories": [{"alias": "wraps", "title": "Wraps"}, {"alias": "chicken_wings", "title": "Chicken Wings"}, {"alias": "sandwiches", "title": "Sandwiches"}], "rating": 4.0, "coordinates": {"latitude": 42.777653, "longitude": -78.78977}, "transactions": ["pickup", "delivery"], "price": "$$", "location": {"address1": "3864 Abbott Rd", "address2": null, "address3": "", "city": "Orchard Park", "zip_code": "14127", "country": "US", "state": "NY", "display_address": ["3864 Abbott Rd", "Orchard Park, NY 14127"]}, "phone": "+17166464674", "display_phone": "(716) 646-4674", "distance": 464.8742795770431}, {"id": "jX7101xGvLdQEC9dQa49sQ", "alias": "the-mansard-fine-drink-and-eatery-orchard-park", "name": "The Mansard Fine Drink And Eatery", "image_url": "https://s3-media3.fl.yelpcdn.com/bphoto/LfJ8tumdbJd1C39eUlgo3A/o.jpg", "is_closed": false, "url": "https://www.yelp.com/biz/the-mansard-fine-drink-and-eatery-orchard-park?adjust_creative=a2JdNtFqB-C38ga_06BHvw&utm_campaign=yelp_api_v3&utm_medium=api_v3_business_search&utm_source=a2JdNtFqB-C38ga_06BHvw", "review_count": 52, "categories": [{"alias": "newamerican", "title": "American (New)"}], "rating": 4.0, "coordinates": {"latitude": 42.7933398, "longitude": -78.7935995}, "transactions": ["delivery"], "price": "$$", "location": {"address1": "3365 Abbott Rd", "address2": "", "address3": "", "city": "Orchard Park", "zip_code": "14127", "country": "US", "state": "NY", "display_address": ["3365 Abbott Rd", "Orchard Park, NY 14127"]}, "phone": "+17168281115", "display_phone": "(716) 828-1115", "distance": 2184.044454124015}, {"id": "mSFPqtm1mCkYsehl1RoZLA", "alias": "taffys-hot-dog-stand-orchard-park-3", "name": "Taffy's Hot Dog Stand", "image_url": "https://s3-media4.fl.yelpcdn.com/bphoto/AimFHQJWq8e9GaMAhEyDDQ/o.jpg", "is_closed": false, "url": "https://www.yelp.com/biz/taffys-hot-dog-stand-orchard-park-3?adjust_creative=a2JdNtFqB-C38ga_06BHvw&utm_campaign=yelp_api_v3&utm_medium=api_v3_business_search&utm_source=a2JdNtFqB-C38ga_06BHvw", "review_count": 90, "categories": [{"alias": "hotdog", "title": "Hot Dogs"}, {"alias": "burgers", "title": "Burgers"}, {"alias": "sandwiches", "title": "Sandwiches"}], "rating": 3.5, "coordinates": {"latitude": 42.79611, "longitude": -78.75088}, "transactions": ["delivery"], "price": "$", "location": {"address1": "3261 Orchard Park Rd", "address2": "", "address3": "", "city": "Orchard Park", "zip_code": "14127", "country": "US", "state": "NY", "display_address": ["3261 Orchard Park Rd", "Orchard Park, NY 14127"]}, "phone": "+17166750264", "display_phone": "(716) 675-0264", "distance": 3805.600582600137}, {"id": "-bUYlgeOXYeacYPqfwjQsg", "alias": "el-canelo-restaurant-buffalo-3", "name": "El Canelo Restaurant", "image_url": "https://s3-media2.fl.yelpcdn.com/bphoto/3lXT93kNyceo9rxUHSaLVQ/o.jpg", "is_closed": false, "url": "https://www.yelp.com/biz/el-canelo-restaurant-buffalo-3?adjust_creative=a2JdNtFqB-C38ga_06BHvw&utm_campaign=yelp_api_v3&utm_medium=api_v3_business_search&utm_source=a2JdNtFqB-C38ga_06BHvw", "review_count": 115, "categories": [{"alias": "mexican", "title": "Mexican"}], "rating": 3.5, "coordinates": {"latitude": 42.786079, "longitude": -78.812188}, "transactions": ["delivery"], "price": "$$", "location": {"address1": "3670 McKinley Pkwy", "address2": "", "address3": "", "city": "Buffalo", "zip_code": "14219", "country": "US", "state": "NY", "display_address": ["3670 McKinley Pkwy", "Buffalo, NY 14219"]}, "phone": "+17168221220", "display_phone": "(716) 822-1220", "distance": 2455.5601929113122}, {"id": "rrBTdukmhum4Qm2MH_uJyw", "alias": "duffs-famous-wings-buffalo-5", "name": "Duff's Famous Wings", "image_url": "https://s3-media4.fl.yelpcdn.com/bphoto/CGXPAa8DrUii0ewC5MQOWQ/o.jpg", "is_closed": false, "url": "https://www.yelp.com/biz/duffs-famous-wings-buffalo-5?adjust_creative=a2JdNtFqB-C38ga_06BHvw&utm_campaign=yelp_api_v3&utm_medium=api_v3_business_search&utm_source=a2JdNtFqB-C38ga_06BHvw", "review_count": 189, "categories": [{"alias": "chicken_wings", "title": "Chicken Wings"}, {"alias": "sandwiches", "title": "Sandwiches"}, {"alias": "bars", "title": "Bars"}], "rating": 3.5, "coordinates": {"latitude": 42.8009271606899, "longitude": -78.7533026961581}, "transactions": ["delivery"], "price": "$$", "location": {"address1": "3090 Orchard Park Rd", "address2": "", "address3": "", "city": "Buffalo", "zip_code": "14224", "country": "US", "state": "NY", "display_address": ["3090 Orchard Park Rd", "Buffalo, NY 14224"]}, "phone": "+17166747212", "display_phone": "(716) 674-7212", "distance": 4065.2785702256606}, {"id": "VKh8grRwb46hp4YlE-o75g", "alias": "buffalos-best-grill-orchard-park-4", "name": "Buffalo's Best Grill", "image_url": "https://s3-media1.fl.yelpcdn.com/bphoto/W4L3_CQRkclH56MYu0PKaA/o.jpg", "is_closed": false, "url": "https://www.yelp.com/biz/buffalos-best-grill-orchard-park-4?adjust_creative=a2JdNtFqB-C38ga_06BHvw&utm_campaign=yelp_api_v3&utm_medium=api_v3_business_search&utm_source=a2JdNtFqB-C38ga_06BHvw", "review_count": 82, "categories": [{"alias": "tradamerican", "title": "American (Traditional)"}, {"alias": "pizza", "title": "Pizza"}, {"alias": "beerbar", "title": "Beer Bar"}], "rating": 3.5, "coordinates": {"latitude": 42.7822374155525, "longitude": -78.7754863091756}, "transactions": ["pickup", "delivery"], "price": "$$", "location": {"address1": "3700 Southwestern Blvd", "address2": "", "address3": "", "city": "Orchard Park", "zip_code": "14127", "country": "US", "state": "NY", "display_address": ["3700 Southwestern Blvd", "Orchard Park, NY 14127"]}, "phone": "+17162021270", "display_phone": "(716) 202-1270", "distance": 1312.2549104761956}, {"id": "uNTW_n8qsfFs_CbiX2LDng", "alias": "pie-o-mine-greens-orchard-park-2", "name": "Pie-O-Mine Greens", "image_url": "https://s3-media2.fl.yelpcdn.com/bphoto/Wi5eJ7lg7EJDZWi4gxu-7A/o.jpg", "is_closed": false, "url": "https://www.yelp.com/biz/pie-o-mine-greens-orchard-park-2?adjust_creative=a2JdNtFqB-C38ga_06BHvw&utm_campaign=yelp_api_v3&utm_medium=api_v3_business_search&utm_source=a2JdNtFqB-C38ga_06BHvw", "review_count": 32, "categories": [{"alias": "salad", "title": "Salad"}, {"alias": "pizza", "title": "Pizza"}], "rating": 4.0, "coordinates": {"latitude": 42.7971481, "longitude": -78.7499734}, "transactions": ["pickup", "delivery"], "price": "$", "location": {"address1": "3229 Southwestern Blvd", "address2": "", "address3": null, "city": "Orchard Park", "zip_code": "14127", "country": "US", "state": "NY", "display_address": ["3229 Southwestern Blvd", "Orchard Park, NY 14127"]}, "phone": "+17166751762", "display_phone": "(716) 675-1762", "distance": 3812.2359429800586}, {"id": "OUWUvLUojTCtlXfO10Rqcg", "alias": "fuji-grill-ii-buffalo", "name": "Fuji Grill II", "image_url": "https://s3-media2.fl.yelpcdn.com/bphoto/5GlfP5kacR8fqRxq-dtadQ/o.jpg", "is_closed": false, "url": "https://www.yelp.com/biz/fuji-grill-ii-buffalo?adjust_creative=a2JdNtFqB-C38ga_06BHvw&utm_campaign=yelp_api_v3&utm_medium=api_v3_business_search&utm_source=a2JdNtFqB-C38ga_06BHvw", "review_count": 76, "categories": [{"alias": "japanese", "title": "Japanese"}, {"alias": "sushi", "title": "Sushi Bars"}], "rating": 3.5, "coordinates": {"latitude": 42.7715641, "longitude": -78.811245}, "transactions": ["pickup", "delivery"], "price": "$$", "location": {"address1": "4141 Mckinley Pkwy", "address2": null, "address3": null, "city": "Buffalo", "zip_code": "14219", "country": "US", "state": "NY", "display_address": ["4141 Mckinley Pkwy", "Buffalo, NY 14219"]}, "phone": "+17166466688", "display_phone": "(716) 646-6688", "distance": 1962.6077126427774}, {"id": "GBxBWGvLxo_p5JhSeJ9VZA", "alias": "pita-gourmet-orchard-park", "name": "Pita Gourmet", "image_url": "https://s3-media2.fl.yelpcdn.com/bphoto/fUNfeJUyGYlhZFIspPA-MQ/o.jpg", "is_closed": false, "url": "https://www.yelp.com/biz/pita-gourmet-orchard-park?adjust_creative=a2JdNtFqB-C38ga_06BHvw&utm_campaign=yelp_api_v3&utm_medium=api_v3_business_search&utm_source=a2JdNtFqB-C38ga_06BHvw", "review_count": 15, "categories": [{"alias": "mediterranean", "title": "Mediterranean"}, {"alias": "greek", "title": "Greek"}, {"alias": "salad", "title": "Salad"}], "rating": 4.5, "coordinates": {"latitude": 42.79926836906349, "longitude": -78.75249149999999}, "transactions": ["delivery"], "location": {"address1": "3144 Orchard Park Rd", "address2": "", "address3": null, "city": "Orchard Park", "zip_code": "14127", "country": "US", "state": "NY", "display_address": ["3144 Orchard Park Rd", "Orchard Park, NY 14127"]}, "phone": "+17165991411", "display_phone": "(716) 599-1411", "distance": 3978.0173596475092}, {"id": "9oXxP4A0I8KwkJTHGdm_Ng", "alias": "corelife-eatery-hamburg-2", "name": "CoreLife Eatery", "image_url": "https://s3-media1.fl.yelpcdn.com/bphoto/tjEqF62bvHvMGudo2PCxKg/o.jpg", "is_closed": false, "url": "https://www.yelp.com/biz/corelife-eatery-hamburg-2?adjust_creative=a2JdNtFqB-C38ga_06BHvw&utm_campaign=yelp_api_v3&utm_medium=api_v3_business_search&utm_source=a2JdNtFqB-C38ga_06BHvw", "review_count": 38, "categories": [{"alias": "mediterranean", "title": "Mediterranean"}, {"alias": "steak", "title": "Steakhouses"}, {"alias": "korean", "title": "Korean"}], "rating": 3.5, "coordinates": {"latitude": 42.785913963941, "longitude": -78.81256379265976}, "transactions": ["delivery"], "location": {"address1": "3670 McKinley Pkwy", "address2": "Ste 25", "address3": "", "city": "Hamburg", "zip_code": "14219", "country": "US", "state": "NY", "display_address": ["3670 McKinley Pkwy", "Ste 25", "Hamburg, NY 14219"]}, "phone": "+17164635000", "display_phone": "(716) 463-5000", "distance": 2471.4090921487127}, {"id": "2_aILMk4akRW2TguIPB7Dw", "alias": "louies-texas-red-hots-orchard-park", "name": "Louies Texas Red Hots", "image_url": "https://s3-media4.fl.yelpcdn.com/bphoto/L2GmN7WaatXCrh5zQjdC-A/o.jpg", "is_closed": false, "url": "https://www.yelp.com/biz/louies-texas-red-hots-orchard-park?adjust_creative=a2JdNtFqB-C38ga_06BHvw&utm_campaign=yelp_api_v3&utm_medium=api_v3_business_search&utm_source=a2JdNtFqB-C38ga_06BHvw", "review_count": 31, "categories": [{"alias": "tradamerican", "title": "American (Traditional)"}, {"alias": "hotdog", "title": "Hot Dogs"}], "rating": 3.5, "coordinates": {"latitude": 42.77678, "longitude": -78.7920199}, "transactions": ["pickup", "delivery"], "price": "$", "location": {"address1": "3905 Southwestern Blvd", "address2": "", "address3": "", "city": "Orchard Park", "zip_code": "14127", "country": "US", "state": "NY", "display_address": ["3905 Southwestern Blvd", "Orchard Park, NY 14127"]}, "phone": "+17166486200", "display_phone": "(716) 648-6200", "distance": 509.4937281010139}, {"id": "ZSZQWj1Ya_oG0Rn4mDUX5A", "alias": "picassos-pizza-blasdell", "name": "Picasso's Pizza", "image_url": "https://s3-media4.fl.yelpcdn.com/bphoto/RBGx48ibafygCrkIme57Vw/o.jpg", "is_closed": false, "url": "https://www.yelp.com/biz/picassos-pizza-blasdell?adjust_creative=a2JdNtFqB-C38ga_06BHvw&utm_campaign=yelp_api_v3&utm_medium=api_v3_business_search&utm_source=a2JdNtFqB-C38ga_06BHvw", "review_count": 32, "categories": [{"alias": "chicken_wings", "title": "Chicken Wings"}, {"alias": "pizza", "title": "Pizza"}, {"alias": "salad", "title": "Salad"}], "rating": 3.5, "coordinates": {"latitude": 42.7720077548269, "longitude": -78.8115319877973}, "transactions": ["delivery"], "price": "$$", "location": {"address1": "4154 Mckinley Pkwy", "address2": "Ste 1000", "address3": null, "city": "Blasdell", "zip_code": "14219", "country": "US", "state": "NY", "display_address": ["4154 Mckinley Pkwy", "Ste 1000", "Blasdell, NY 14219"]}, "phone": "+17162021313", "display_phone": "(716) 202-1313", "distance": 2014.5798912245807}, {"id": "K-Ipg2lMKTjE4VoXM4uS-A", "alias": "outback-steakhouse-blasdell", "name": "Outback Steakhouse", "image_url": "https://s3-media1.fl.yelpcdn.com/bphoto/37QFJH2LzEEP8YrbbxcDtw/o.jpg", "is_closed": false, "url": "https://www.yelp.com/biz/outback-steakhouse-blasdell?adjust_creative=a2JdNtFqB-C38ga_06BHvw&utm_campaign=yelp_api_v3&utm_medium=api_v3_business_search&utm_source=a2JdNtFqB-C38ga_06BHvw", "review_count": 59, "categories": [{"alias": "steak", "title": "Steakhouses"}], "rating": 3.5, "coordinates": {"latitude": 42.7855297486753, "longitude": -78.8125597704993}, "transactions": [], "price": "$$", "location": {"address1": "3670 Mckinley Pkwy", "address2": "", "address3": "", "city": "Blasdell", "zip_code": "14219", "country": "US", "state": "NY", "display_address": ["3670 Mckinley Pkwy", "Blasdell, NY 14219"]}, "phone": "+17168232020", "display_phone": "(716) 823-2020", "distance": 2448.499504518786}, {"id": "np0i7OFIA0cb4s1ajbQlww", "alias": "five-guys-hamburg-2", "name": "Five Guys", "image_url": "https://s3-media1.fl.yelpcdn.com/bphoto/ejRAVYoVJC_rirEd2Y-Kfw/o.jpg", "is_closed": false, "url": "https://www.yelp.com/biz/five-guys-hamburg-2?adjust_creative=a2JdNtFqB-C38ga_06BHvw&utm_campaign=yelp_api_v3&utm_medium=api_v3_business_search&utm_source=a2JdNtFqB-C38ga_06BHvw", "review_count": 31, "categories": [{"alias": "hotdogs", "title": "Fast Food"}, {"alias": "burgers", "title": "Burgers"}], "rating": 3.5, "coordinates": {"latitude": 42.779611358919674, "longitude": -78.8117789163368}, "transactions": ["delivery"], "price": "$$", "location": {"address1": "3860 McKinley Pkwy", "address2": "", "address3": "", "city": "Hamburg", "zip_code": "14219", "country": "US", "state": "NY", "display_address": ["3860 McKinley Pkwy", "Hamburg, NY 14219"]}, "phone": "+17168251355", "display_phone": "(716) 825-1355", "distance": 2116.4581987590486}, {"id": "4NwCmnzqwMtw09m5NoIj-Q", "alias": "the-original-warehouse-buffalo", "name": "The Original Warehouse", "image_url": "https://s3-media3.fl.yelpcdn.com/bphoto/OZnM-TX6yEJZMHnURTARJQ/o.jpg", "is_closed": false, "url": "https://www.yelp.com/biz/the-original-warehouse-buffalo?adjust_creative=a2JdNtFqB-C38ga_06BHvw&utm_campaign=yelp_api_v3&utm_medium=api_v3_business_search&utm_source=a2JdNtFqB-C38ga_06BHvw", "review_count": 34, "categories": [{"alias": "chicken_wings", "title": "Chicken Wings"}, {"alias": "pizza", "title": "Pizza"}, {"alias": "pubs", "title": "Pubs"}], "rating": 3.5, "coordinates": {"latitude": 42.79, "longitude": -78.81741}, "transactions": ["delivery", "pickup"], "location": {"address1": "4360 Milestrip Rd", "address2": "", "address3": null, "city": "Buffalo", "zip_code": "14219", "country": "US", "state": "NY", "display_address": ["4360 Milestrip Rd", "Buffalo, NY 14219"]}, "phone": "+17168235500", "display_phone": "(716) 823-5500", "distance": 3181.288761118351}, {"id": "slzTZDSBDmZUq1Wy1PUHHw", "alias": "olive-garden-italian-restaurant-blasdell-3", "name": "Olive Garden Italian Restaurant", "image_url": "https://s3-media2.fl.yelpcdn.com/bphoto/Rxy7_icuANTKTGRKHTXm4g/o.jpg", "is_closed": false, "url": "https://www.yelp.com/biz/olive-garden-italian-restaurant-blasdell-3?adjust_creative=a2JdNtFqB-C38ga_06BHvw&utm_campaign=yelp_api_v3&utm_medium=api_v3_business_search&utm_source=a2JdNtFqB-C38ga_06BHvw", "review_count": 53, "categories": [{"alias": "italian", "title": "Italian"}, {"alias": "salad", "title": "Salad"}, {"alias": "soup", "title": "Soup"}], "rating": 3.5, "coordinates": {"latitude": 42.78788, "longitude": -78.810197}, "transactions": [], "price": "$$", "location": {"address1": "3701 McKinley Pkwy", "address2": "", "address3": "", "city": "Blasdell", "zip_code": "14219", "country": "US", "state": "NY", "display_address": ["3701 McKinley Pkwy", "Blasdell, NY 14219"]}, "phone": "+17168221275", "display_phone": "(716) 822-1275", "distance": 2442.5541506055424}, {"id": "8WFr7xsqH6fzL6MsosgWnw", "alias": "longhorn-steakhouse-orchard-park-2", "name": "LongHorn Steakhouse", "image_url": "https://s3-media3.fl.yelpcdn.com/bphoto/T5wHl0sDqvztQLEZLQMnyQ/o.jpg", "is_closed": false, "url": "https://www.yelp.com/biz/longhorn-steakhouse-orchard-park-2?adjust_creative=a2JdNtFqB-C38ga_06BHvw&utm_campaign=yelp_api_v3&utm_medium=api_v3_business_search&utm_source=a2JdNtFqB-C38ga_06BHvw", "review_count": 68, "categories": [{"alias": "steak", "title": "Steakhouses"}, {"alias": "tradamerican", "title": "American (Traditional)"}, {"alias": "bbq", "title": "Barbeque"}], "rating": 3.0, "coordinates": {"latitude": 42.789875741216, "longitude": -78.7834686061938}, "transactions": [], "price": "$$", "location": {"address1": "3494 Amelia Dr", "address2": "", "address3": "", "city": "Orchard Park", "zip_code": "14127", "country": "US", "state": "NY", "display_address": ["3494 Amelia Dr", "Orchard Park, NY 14127"]}, "phone": "+17168251378", "display_phone": "(716) 825-1378", "distance": 1788.6707075356692}, {"id": "hlqiWbo2TQfDYuEyqHcYKA", "alias": "red-robin-gourmet-burgers-and-brews-orchard-park", "name": "Red Robin Gourmet Burgers and Brews", "image_url": "https://s3-media1.fl.yelpcdn.com/bphoto/re3hf_rkRXvoDj_te-jIgA/o.jpg", "is_closed": false, "url": "https://www.yelp.com/biz/red-robin-gourmet-burgers-and-brews-orchard-park?adjust_creative=a2JdNtFqB-C38ga_06BHvw&utm_campaign=yelp_api_v3&utm_medium=api_v3_business_search&utm_source=a2JdNtFqB-C38ga_06BHvw", "review_count": 84, "categories": [{"alias": "tradamerican", "title": "American (Traditional)"}, {"alias": "burgers", "title": "Burgers"}], "rating": 3.0, "coordinates": {"latitude": 42.789715, "longitude": -78.786842}, "transactions": ["delivery", "pickup"], "price": "$$", "location": {"address1": "3460 Amelia Dr", "address2": "", "address3": "", "city": "Orchard Park", "zip_code": "14127", "country": "US", "state": "NY", "display_address": ["3460 Amelia Dr", "Orchard Park, NY 14127"]}, "phone": "+17168276577", "display_phone": "(716) 827-6577", "distance": 1745.824678147206}, {"id": "fmFtYqPNgTaVYQnuiiC9OQ", "alias": "firehouse-subs-blasdell", "name": "Firehouse Subs", "image_url": "https://s3-media1.fl.yelpcdn.com/bphoto/8Cjw5k_d_5womrcDVlwACA/o.jpg", "is_closed": false, "url": "https://www.yelp.com/biz/firehouse-subs-blasdell?adjust_creative=a2JdNtFqB-C38ga_06BHvw&utm_campaign=yelp_api_v3&utm_medium=api_v3_business_search&utm_source=a2JdNtFqB-C38ga_06BHvw", "review_count": 27, "categories": [{"alias": "delis", "title": "Delis"}, {"alias": "hotdogs", "title": "Fast Food"}, {"alias": "sandwiches", "title": "Sandwiches"}], "rating": 3.5, "coordinates": {"latitude": 42.789250263339795, "longitude": -78.81486821373204}, "transactions": ["delivery", "pickup"], "price": "$", "location": {"address1": "4405 Milestrip Rd", "address2": "", "address3": "", "city": "Blasdell", "zip_code": "14219", "country": "US", "state": "NY", "display_address": ["4405 Milestrip Rd", "Blasdell, NY 14219"]}, "phone": "+17166045639", "display_phone": "(716) 604-5639", "distance": 2836.947400710118}, {"id": "CYx9GlQt_RRHovd8iESQ4A", "alias": "prohibition-2020-orchard-park", "name": "Prohibition 2020", "image_url": "https://s3-media3.fl.yelpcdn.com/bphoto/qIVdWYdKSB9nNYJSHAZkAw/o.jpg", "is_closed": false, "url": "https://www.yelp.com/biz/prohibition-2020-orchard-park?adjust_creative=a2JdNtFqB-C38ga_06BHvw&utm_campaign=yelp_api_v3&utm_medium=api_v3_business_search&utm_source=a2JdNtFqB-C38ga_06BHvw", "review_count": 10, "categories": [{"alias": "tradamerican", "title": "American (Traditional)"}, {"alias": "sportsbars", "title": "Sports Bars"}], "rating": 4.5, "coordinates": {"latitude": 42.7778313196195, "longitude": -78.7888950482011}, "transactions": ["delivery", "pickup"], "location": {"address1": "3847 Southwestern blvd", "address2": "", "address3": null, "city": "Orchard Park", "zip_code": "14127", "country": "US", "state": "NY", "display_address": ["3847 Southwestern blvd", "Orchard Park, NY 14127"]}, "phone": "+17162024016", "display_phone": "(716) 202-4016", "distance": 453.2313812240554}, {"id": "vvHeuCWiX3CO02bfoBb7bw", "alias": "china-king-restaurant-buffalo-2", "name": "China King Restaurant", "image_url": "https://s3-media1.fl.yelpcdn.com/bphoto/x1ub4SM4WQyG7geJVTughw/o.jpg", "is_closed": false, "url": "https://www.yelp.com/biz/china-king-restaurant-buffalo-2?adjust_creative=a2JdNtFqB-C38ga_06BHvw&utm_campaign=yelp_api_v3&utm_medium=api_v3_business_search&utm_source=a2JdNtFqB-C38ga_06BHvw", "review_count": 22, "categories": [{"alias": "chinese", "title": "Chinese"}], "rating": 3.5, "coordinates": {"latitude": 42.795588, "longitude": -78.819807}, "transactions": [], "price": "$", "location": {"address1": "4271 Lake Ave", "address2": "Ste 9", "address3": "", "city": "Buffalo", "zip_code": "14219", "country": "US", "state": "NY", "display_address": ["4271 Lake Ave", "Ste 9", "Buffalo, NY 14219"]}, "phone": "+17168266668", "display_phone": "(716) 826-6668", "distance": 3595.8454108493374}, {"id": "-xNcbwU2rUcRf-W1sImdUQ", "alias": "red-lobster-buffalo", "name": "Red Lobster", "image_url": "https://s3-media2.fl.yelpcdn.com/bphoto/t6LMA2t0HJaeZ7ZF0-xL-A/o.jpg", "is_closed": false, "url": "https://www.yelp.com/biz/red-lobster-buffalo?adjust_creative=a2JdNtFqB-C38ga_06BHvw&utm_campaign=yelp_api_v3&utm_medium=api_v3_business_search&utm_source=a2JdNtFqB-C38ga_06BHvw", "review_count": 44, "categories": [{"alias": "seafood", "title": "Seafood"}, {"alias": "tradamerican", "title": "American (Traditional)"}], "rating": 3.0, "coordinates": {"latitude": 42.788019, "longitude": -78.808799}, "transactions": ["delivery", "pickup"], "price": "$$", "location": {"address1": "1000 McKinley Mall", "address2": "", "address3": "", "city": "Buffalo", "zip_code": "14219", "country": "US", "state": "NY", "display_address": ["1000 McKinley Mall", "Buffalo, NY 14219"]}, "phone": "+17168232901", "display_phone": "(716) 823-2901", "distance": 2365.3826624869707}, {"id": "_nY0JmXaSATxtL_seZYDbg", "alias": "dannys-south-orchard-park", "name": "Danny's South", "image_url": "https://s3-media2.fl.yelpcdn.com/bphoto/ZOtWdTdTJCc7KHchqWHdEA/o.jpg", "is_closed": false, "url": "https://www.yelp.com/biz/dannys-south-orchard-park?adjust_creative=a2JdNtFqB-C38ga_06BHvw&utm_campaign=yelp_api_v3&utm_medium=api_v3_business_search&utm_source=a2JdNtFqB-C38ga_06BHvw", "review_count": 73, "categories": [{"alias": "tradamerican", "title": "American (Traditional)"}, {"alias": "chicken_wings", "title": "Chicken Wings"}, {"alias": "breakfast_brunch", "title": "Breakfast & Brunch"}], "rating": 3.0, "coordinates": {"latitude": 42.7668392385318, "longitude": -78.7918880828886}, "transactions": ["delivery", "pickup"], "price": "$$", "location": {"address1": "4300 Abbott Rd", "address2": "", "address3": "", "city": "Orchard Park", "zip_code": "14127", "country": "US", "state": "NY", "display_address": ["4300 Abbott Rd", "Orchard Park, NY 14127"]}, "phone": "+17166491194", "display_phone": "(716) 649-1194", "distance": 890.6142760821651}, {"id": "AKMTTXl4OoQvEegT053seA", "alias": "blasdell-pizza-and-subs-buffalo", "name": "Blasdell Pizza & Subs", "image_url": "https://s3-media2.fl.yelpcdn.com/bphoto/sFekbIhbo3rVYMs1ZdvQkg/o.jpg", "is_closed": false, "url": "https://www.yelp.com/biz/blasdell-pizza-and-subs-buffalo?adjust_creative=a2JdNtFqB-C38ga_06BHvw&utm_campaign=yelp_api_v3&utm_medium=api_v3_business_search&utm_source=a2JdNtFqB-C38ga_06BHvw", "review_count": 50, "categories": [{"alias": "pizza", "title": "Pizza"}, {"alias": "tacos", "title": "Tacos"}, {"alias": "chicken_wings", "title": "Chicken Wings"}], "rating": 3.0, "coordinates": {"latitude": 42.79105, "longitude": -78.82344}, "transactions": ["delivery"], "price": "$", "location": {"address1": "3904 S Park Ave", "address2": "", "address3": "", "city": "Buffalo", "zip_code": "14219", "country": "US", "state": "NY", "display_address": ["3904 S Park Ave", "Buffalo, NY 14219"]}, "phone": "+17168221138", "display_phone": "(716) 822-1138", "distance": 3527.65117073001}, {"id": "MsBgzFBGHaFD_EzjCrEHGw", "alias": "mongolian-buffet-buffalo-2", "name": "Mongolian Buffet", "image_url": "https://s3-media1.fl.yelpcdn.com/bphoto/H4XYYjgFs_j12LKXhOUSEw/o.jpg", "is_closed": false, "url": "https://www.yelp.com/biz/mongolian-buffet-buffalo-2?adjust_creative=a2JdNtFqB-C38ga_06BHvw&utm_campaign=yelp_api_v3&utm_medium=api_v3_business_search&utm_source=a2JdNtFqB-C38ga_06BHvw", "review_count": 71, "categories": [{"alias": "buffets", "title": "Buffets"}, {"alias": "sushi", "title": "Sushi Bars"}, {"alias": "italian", "title": "Italian"}], "rating": 3.0, "coordinates": {"latitude": 42.789373, "longitude": -78.810211}, "transactions": ["delivery", "pickup"], "price": "$$", "location": {"address1": "3513 Mckinley Pkwy", "address2": null, "address3": null, "city": "Buffalo", "zip_code": "14219", "country": "US", "state": "NY", "display_address": ["3513 Mckinley Pkwy", "Buffalo, NY 14219"]}, "phone": "+17168280999", "display_phone": "(716) 828-0999", "distance": 2551.5325645443654}, {"id": "ctOQjC0JiEbNtM1AolfO-Q", "alias": "rachels-mediterranean-grill-buffalo-2", "name": "Rachel's Mediterranean Grill", "image_url": "https://s3-media1.fl.yelpcdn.com/bphoto/4ehXaTpd6FSaVY7ANej8dg/o.jpg", "is_closed": false, "url": "https://www.yelp.com/biz/rachels-mediterranean-grill-buffalo-2?adjust_creative=a2JdNtFqB-C38ga_06BHvw&utm_campaign=yelp_api_v3&utm_medium=api_v3_business_search&utm_source=a2JdNtFqB-C38ga_06BHvw", "review_count": 73, "categories": [{"alias": "mediterranean", "title": "Mediterranean"}, {"alias": "greek", "title": "Greek"}, {"alias": "wraps", "title": "Wraps"}], "rating": 2.5, "coordinates": {"latitude": 42.7790236860517, "longitude": -78.8117875570479}, "transactions": ["delivery"], "price": "$", "location": {"address1": "3860 Mckinley Pkwy", "address2": "", "address3": "", "city": "Buffalo", "zip_code": "14219", "country": "US", "state": "NY", "display_address": ["3860 Mckinley Pkwy", "Buffalo, NY 14219"]}, "phone": "+17164643857", "display_phone": "(716) 464-3857", "distance": 2098.8118758472624}, {"id": "mb2uC_wScBPxECwsfoFN2Q", "alias": "warehouse-food-drinks-games-buffalo", "name": "Warehouse Food Drinks Games", "image_url": "https://s3-media2.fl.yelpcdn.com/bphoto/3NanU1uBo1hMiuDd6WUL_g/o.jpg", "is_closed": false, "url": "https://www.yelp.com/biz/warehouse-food-drinks-games-buffalo?adjust_creative=a2JdNtFqB-C38ga_06BHvw&utm_campaign=yelp_api_v3&utm_medium=api_v3_business_search&utm_source=a2JdNtFqB-C38ga_06BHvw", "review_count": 57, "categories": [{"alias": "sportsbars", "title": "Sports Bars"}, {"alias": "tradamerican", "title": "American (Traditional)"}, {"alias": "pizza", "title": "Pizza"}], "rating": 3.0, "coordinates": {"latitude": 42.79, "longitude": -78.81741}, "transactions": [], "price": "$$", "location": {"address1": "4360 Milestrip Rd", "address2": null, "address3": null, "city": "Buffalo", "zip_code": "14219", "country": "US", "state": "NY", "display_address": ["4360 Milestrip Rd", "Buffalo, NY 14219"]}, "phone": "", "display_phone": "", "distance": 3181.288761118351}, {"id": "3H8cObh-hZNMS1QPHvxTew", "alias": "king-crab-blasdell-2", "name": "King Crab", "image_url": "https://s3-media3.fl.yelpcdn.com/bphoto/SPhBLA76odkO6VjNJWrEsg/o.jpg", "is_closed": false, "url": "https://www.yelp.com/biz/king-crab-blasdell-2?adjust_creative=a2JdNtFqB-C38ga_06BHvw&utm_campaign=yelp_api_v3&utm_medium=api_v3_business_search&utm_source=a2JdNtFqB-C38ga_06BHvw", "review_count": 36, "categories": [{"alias": "seafood", "title": "Seafood"}], "rating": 3.0, "coordinates": {"latitude": 42.788306885919006, "longitude": -78.81182126128844}, "transactions": ["delivery", "pickup"], "location": {"address1": "3540 Mckinley Pkwy", "address2": "Ste 12", "address3": null, "city": "Blasdell", "zip_code": "14219", "country": "US", "state": "NY", "display_address": ["3540 Mckinley Pkwy", "Ste 12", "Blasdell, NY 14219"]}, "phone": "+17167683695", "display_phone": "(716) 768-3695", "distance": 2575.7134091819566}, {"id": "RBVosUlMUP8vTT7U7__JLA", "alias": "chuck-e-cheese-buffalo", "name": "Chuck E. Cheese", "image_url": "https://s3-media1.fl.yelpcdn.com/bphoto/YuqG1Q2fqRi_bA30ZktVBw/o.jpg", "is_closed": false, "url": "https://www.yelp.com/biz/chuck-e-cheese-buffalo?adjust_creative=a2JdNtFqB-C38ga_06BHvw&utm_campaign=yelp_api_v3&utm_medium=api_v3_business_search&utm_source=a2JdNtFqB-C38ga_06BHvw", "review_count": 11, "categories": [{"alias": "pizza", "title": "Pizza"}, {"alias": "arcades", "title": "Arcades"}, {"alias": "kids_activities", "title": "Kids Activities"}], "rating": 3.5, "coordinates": {"latitude": 42.78994, "longitude": -78.81381}, "transactions": ["delivery", "pickup"], "price": "$$", "location": {"address1": "4408 Milestrip Rd", "address2": "", "address3": "", "city": "Buffalo", "zip_code": "14219", "country": "US", "state": "NY", "display_address": ["4408 Milestrip Rd", "Buffalo, NY 14219"]}, "phone": "+17168224658", "display_phone": "(716) 822-4658", "distance": 2848.6009144984487}, {"id": "4upRZd0-Wgfdoa_d92yF8A", "alias": "mighty-taco-orchard-park", "name": "Mighty Taco", "image_url": "https://s3-media1.fl.yelpcdn.com/bphoto/mnXfWa6RfZo0YcfT4o56nQ/o.jpg", "is_closed": false, "url": "https://www.yelp.com/biz/mighty-taco-orchard-park?adjust_creative=a2JdNtFqB-C38ga_06BHvw&utm_campaign=yelp_api_v3&utm_medium=api_v3_business_search&utm_source=a2JdNtFqB-C38ga_06BHvw", "review_count": 17, "categories": [{"alias": "mexican", "title": "Mexican"}], "rating": 3.5, "coordinates": {"latitude": 42.794858, "longitude": -78.755507}, "transactions": ["delivery"], "price": "$", "location": {"address1": "3340  Southwestern Blvd", "address2": "", "address3": "", "city": "Orchard Park", "zip_code": "14127", "country": "US", "state": "NY", "display_address": ["3340  Southwestern Blvd", "Orchard Park, NY 14127"]}, "phone": "+17166757260", "display_phone": "(716) 675-7260", "distance": 3461.8474993552186}, {"id": "w8TBDp_PXmJLnrAaAFg7PQ", "alias": "toni-s-deli-orchard-park", "name": "TONI’S DELI", "image_url": "https://s3-media1.fl.yelpcdn.com/bphoto/5GqszgADIsCKNROsMDZMQQ/o.jpg", "is_closed": false, "url": "https://www.yelp.com/biz/toni-s-deli-orchard-park?adjust_creative=a2JdNtFqB-C38ga_06BHvw&utm_campaign=yelp_api_v3&utm_medium=api_v3_business_search&utm_source=a2JdNtFqB-C38ga_06BHvw", "review_count": 6, "categories": [{"alias": "delis", "title": "Delis"}, {"alias": "breakfast_brunch", "title": "Breakfast & Brunch"}, {"alias": "pizza", "title": "Pizza"}], "rating": 4.5, "coordinates": {"latitude": 42.7969179665217, "longitude": -78.7823547202529}, "transactions": [], "location": {"address1": "5490 Lake Ave", "address2": "", "address3": null, "city": "Orchard Park", "zip_code": "14127", "country": "US", "state": "NY", "display_address": ["5490 Lake Ave", "Orchard Park, NY 14127"]}, "phone": "+17163221032", "display_phone": "(716) 322-1032", "distance": 2576.3999255292724}, {"id": "zsRpLySFdOSOiZ0C4nE9lA", "alias": "jersey-mikes-subs-hamburg", "name": "Jersey Mike's Subs", "image_url": "https://s3-media2.fl.yelpcdn.com/bphoto/Qk7SsXwi_AdABEq-uOILKg/o.jpg", "is_closed": false, "url": "https://www.yelp.com/biz/jersey-mikes-subs-hamburg?adjust_creative=a2JdNtFqB-C38ga_06BHvw&utm_campaign=yelp_api_v3&utm_medium=api_v3_business_search&utm_source=a2JdNtFqB-C38ga_06BHvw", "review_count": 22, "categories": [{"alias": "hotdogs", "title": "Fast Food"}, {"alias": "delis", "title": "Delis"}, {"alias": "sandwiches", "title": "Sandwiches"}], "rating": 3.0, "coordinates": {"latitude": 42.785892, "longitude": -78.812546}, "transactions": ["delivery", "pickup"], "location": {"address1": "3670 Mckinley Pkwy", "address2": "", "address3": "", "city": "Hamburg", "zip_code": "14219", "country": "US", "state": "NY", "display_address": ["3670 Mckinley Pkwy", "Hamburg, NY 14219"]}, "phone": "+17164122400", "display_phone": "(716) 412-2400", "distance": 2468.8747143115515}, {"id": "_aUXBcp560naDwRPWLQnuA", "alias": "chipotle-mexican-grill-buffalo-5", "name": "Chipotle Mexican Grill", "image_url": "https://s3-media2.fl.yelpcdn.com/bphoto/WOlVG5NT-hSNqpXlCmEZaA/o.jpg", "is_closed": false, "url": "https://www.yelp.com/biz/chipotle-mexican-grill-buffalo-5?adjust_creative=a2JdNtFqB-C38ga_06BHvw&utm_campaign=yelp_api_v3&utm_medium=api_v3_business_search&utm_source=a2JdNtFqB-C38ga_06BHvw", "review_count": 61, "categories": [{"alias": "mexican", "title": "Mexican"}, {"alias": "hotdogs", "title": "Fast Food"}], "rating": 2.5, "coordinates": {"latitude": 42.7893895765569, "longitude": -78.8149664859367}, "transactions": ["delivery"], "price": "$", "location": {"address1": "4405 Milestrip Rd", "address2": "Ste 5", "address3": "", "city": "Buffalo", "zip_code": "14219", "country": "US", "state": "NY", "display_address": ["4405 Milestrip Rd", "Ste 5", "Buffalo, NY 14219"]}, "phone": "+17168240394", "display_phone": "(716) 824-0394", "distance": 2852.6446893507277}, {"id": "JdhuBWsHWisXnOMsgTkkdA", "alias": "munchies-american-grill-blasdell", "name": "Munchies American Grill", "image_url": "https://s3-media2.fl.yelpcdn.com/bphoto/Wlm6biSAjoX5SYQSQYp6Nw/o.jpg", "is_closed": false, "url": "https://www.yelp.com/biz/munchies-american-grill-blasdell?adjust_creative=a2JdNtFqB-C38ga_06BHvw&utm_campaign=yelp_api_v3&utm_medium=api_v3_business_search&utm_source=a2JdNtFqB-C38ga_06BHvw", "review_count": 4, "categories": [{"alias": "tradamerican", "title": "American (Traditional)"}], "rating": 4.5, "coordinates": {"latitude": 42.78394, "longitude": -78.81059}, "transactions": ["delivery", "pickup"], "location": {"address1": "3701 McKinley Pkwy", "address2": "", "address3": null, "city": "Blasdell", "zip_code": "14219", "country": "US", "state": "NY", "display_address": ["3701 McKinley Pkwy", "Blasdell, NY 14219"]}, "phone": "+17168229500", "display_phone": "(716) 822-9500", "distance": 2129.6983404864786}, {"id": "p8hLPcjo4PFSuzvVm5Fd4g", "alias": "buffalos-best-pizza-and-wings-buffalo-2", "name": "Buffalo's Best ​Pizza & Wings", "image_url": "https://s3-media4.fl.yelpcdn.com/bphoto/a9UrCUJ8cYNszrajlbySeQ/o.jpg", "is_closed": false, "url": "https://www.yelp.com/biz/buffalos-best-pizza-and-wings-buffalo-2?adjust_creative=a2JdNtFqB-C38ga_06BHvw&utm_campaign=yelp_api_v3&utm_medium=api_v3_business_search&utm_source=a2JdNtFqB-C38ga_06BHvw", "review_count": 21, "categories": [{"alias": "pizza", "title": "Pizza"}, {"alias": "tradamerican", "title": "American (Traditional)"}, {"alias": "chicken_wings", "title": "Chicken Wings"}], "rating": 3.0, "coordinates": {"latitude": 42.79729, "longitude": -78.81047}, "transactions": ["delivery", "pickup"], "price": "$$", "location": {"address1": "4510 Lake Ave", "address2": "", "address3": "", "city": "Buffalo", "zip_code": "14219", "country": "US", "state": "NY", "display_address": ["4510 Lake Ave", "Buffalo, NY 14219"]}, "phone": "+17168236500", "display_phone": "(716) 823-6500", "distance": 3232.494345255882}, {"id": "G1mOor-ti8vGTLrN83_KzA", "alias": "moes-southwest-grill-orchard-park", "name": "Moe's Southwest Grill", "image_url": "https://s3-media1.fl.yelpcdn.com/bphoto/6mOuIZqSattt961gjxaAiw/o.jpg", "is_closed": false, "url": "https://www.yelp.com/biz/moes-southwest-grill-orchard-park?adjust_creative=a2JdNtFqB-C38ga_06BHvw&utm_campaign=yelp_api_v3&utm_medium=api_v3_business_search&utm_source=a2JdNtFqB-C38ga_06BHvw", "review_count": 49, "categories": [{"alias": "mexican", "title": "Mexican"}, {"alias": "tex-mex", "title": "Tex-Mex"}], "rating": 2.5, "coordinates": {"latitude": 42.7952557410044, "longitude": -78.7504136243869}, "transactions": ["delivery", "pickup"], "price": "$", "location": {"address1": "3231 Southwestern Blvd", "address2": "", "address3": "", "city": "Orchard Park", "zip_code": "14127", "country": "US", "state": "NY", "display_address": ["3231 Southwestern Blvd", "Orchard Park, NY 14127"]}, "phone": "+17166776600", "display_phone": "(716) 677-6600", "distance": 3807.983880304099}, {"id": "1ywsIVTK9CUbAtH5xfTNOQ", "alias": "wendys-orchard-park", "name": "Wendy's", "image_url": "https://s3-media4.fl.yelpcdn.com/bphoto/3yNou-cpi6kZjjXOvi6B5w/o.jpg", "is_closed": false, "url": "https://www.yelp.com/biz/wendys-orchard-park?adjust_creative=a2JdNtFqB-C38ga_06BHvw&utm_campaign=yelp_api_v3&utm_medium=api_v3_business_search&utm_source=a2JdNtFqB-C38ga_06BHvw", "review_count": 11, "categories": [{"alias": "hotdogs", "title": "Fast Food"}, {"alias": "burgers", "title": "Burgers"}], "rating": 3.0, "coordinates": {"latitude": 42.7957295095194, "longitude": -78.7510673919948}, "transactions": ["delivery"], "price": "$", "location": {"address1": "3275 Orchard Park Rd", "address2": null, "address3": null, "city": "Orchard Park", "zip_code": "14127", "country": "US", "state": "NY", "display_address": ["3275 Orchard Park Rd", "Orchard Park, NY 14127"]}, "phone": "+17166776837", "display_phone": "(716) 677-6837", "distance": 3799.5700946228253}, {"id": "2-jl5lPTrpHBqNz74vcnDg", "alias": "applebees-grill-bar-blasdell", "name": "Applebee's Grill + Bar", "image_url": "https://s3-media2.fl.yelpcdn.com/bphoto/4zoPJpRHqPr-JtHzjQOy8Q/o.jpg", "is_closed": false, "url": "https://www.yelp.com/biz/applebees-grill-bar-blasdell?adjust_creative=a2JdNtFqB-C38ga_06BHvw&utm_campaign=yelp_api_v3&utm_medium=api_v3_business_search&utm_source=a2JdNtFqB-C38ga_06BHvw", "review_count": 29, "categories": [{"alias": "tradamerican", "title": "American (Traditional)"}, {"alias": "sportsbars", "title": "Sports Bars"}, {"alias": "burgers", "title": "Burgers"}], "rating": 2.5, "coordinates": {"latitude": 42.789341, "longitude": -78.813898}, "transactions": ["delivery", "pickup"], "price": "$$", "location": {"address1": "4405 Milestrip Rd", "address2": "", "address3": "", "city": "Blasdell", "zip_code": "14219", "country": "US", "state": "NY", "display_address": ["4405 Milestrip Rd", "Blasdell, NY 14219"]}, "phone": "+17168245550", "display_phone": "(716) 824-5550", "distance": 2780.0511909745032}, {"id": "PWURZZY9YA_TBVYYZuAqxQ", "alias": "the-brick-oven-orchard-park-2", "name": "The Brick Oven", "image_url": "https://s3-media1.fl.yelpcdn.com/bphoto/ivB-MmF9-kQJGIEzUwhymQ/o.jpg", "is_closed": false, "url": "https://www.yelp.com/biz/the-brick-oven-orchard-park-2?adjust_creative=a2JdNtFqB-C38ga_06BHvw&utm_campaign=yelp_api_v3&utm_medium=api_v3_business_search&utm_source=a2JdNtFqB-C38ga_06BHvw", "review_count": 4, "categories": [{"alias": "pizza", "title": "Pizza"}, {"alias": "salad", "title": "Salad"}, {"alias": "sandwiches", "title": "Sandwiches"}], "rating": 4.5, "coordinates": {"latitude": 42.797384, "longitude": -78.750921}, "transactions": ["delivery", "pickup"], "price": "$$", "location": {"address1": "3205 Orchard Park Rd", "address2": null, "address3": "", "city": "Orchard Park", "zip_code": "14127", "country": "US", "state": "NY", "display_address": ["3205 Orchard Park Rd", "Orchard Park, NY 14127"]}, "phone": "+17166748312", "display_phone": "(716) 674-8312", "distance": 3928.0498543654203}, {"id": "QeroG7KJ0K48EyQ1t3-LmA", "alias": "t-g-i-fridays-buffalo-5", "name": "T.G.I. Friday's", "image_url": "https://s3-media2.fl.yelpcdn.com/bphoto/7w0rK8A3e31iR2mIOi5PUw/o.jpg", "is_closed": false, "url": "https://www.yelp.com/biz/t-g-i-fridays-buffalo-5?adjust_creative=a2JdNtFqB-C38ga_06BHvw&utm_campaign=yelp_api_v3&utm_medium=api_v3_business_search&utm_source=a2JdNtFqB-C38ga_06BHvw", "review_count": 40, "categories": [{"alias": "newamerican", "title": "American (New)"}], "rating": 2.0, "coordinates": {"latitude": 42.782866120989, "longitude": -78.8097596168518}, "transactions": [], "price": "$$", "location": {"address1": "1120 McKinley Mall", "address2": "", "address3": "", "city": "Buffalo", "zip_code": "14219", "country": "US", "state": "NY", "display_address": ["1120 McKinley Mall", "Buffalo, NY 14219"]}, "phone": "+17168258443", "display_phone": "(716) 825-8443", "distance": 2102.9427840692274}, {"id": "SQay9tO5pwIGWIZYMFm0vg", "alias": "matayos-pizza-blasdell", "name": "Matayo's Pizza", "image_url": "https://s3-media1.fl.yelpcdn.com/bphoto/c5llsmIm4EzYIgPTrS6MIw/o.jpg", "is_closed": false, "url": "https://www.yelp.com/biz/matayos-pizza-blasdell?adjust_creative=a2JdNtFqB-C38ga_06BHvw&utm_campaign=yelp_api_v3&utm_medium=api_v3_business_search&utm_source=a2JdNtFqB-C38ga_06BHvw", "review_count": 4, "categories": [{"alias": "pizza", "title": "Pizza"}], "rating": 4.0, "coordinates": {"latitude": 42.7852170312167, "longitude": -78.8084805384278}, "transactions": ["delivery"], "location": {"address1": "3701 Mckinley Pkwy", "address2": "", "address3": null, "city": "Blasdell", "zip_code": "14219", "country": "US", "state": "NY", "display_address": ["3701 Mckinley Pkwy", "Blasdell, NY 14219"]}, "phone": "+17168280400", "display_phone": "(716) 828-0400", "distance": 2151.531456204067}, {"id": "FlQThs3PGQESwtxIbPK43A", "alias": "panera-bread-buffalo-3", "name": "Panera Bread", "image_url": "https://s3-media2.fl.yelpcdn.com/bphoto/L1NUyjSFRtccypRDKt1dew/o.jpg", "is_closed": false, "url": "https://www.yelp.com/biz/panera-bread-buffalo-3?adjust_creative=a2JdNtFqB-C38ga_06BHvw&utm_campaign=yelp_api_v3&utm_medium=api_v3_business_search&utm_source=a2JdNtFqB-C38ga_06BHvw", "review_count": 30, "categories": [{"alias": "sandwiches", "title": "Sandwiches"}, {"alias": "salad", "title": "Salad"}, {"alias": "soup", "title": "Soup"}], "rating": 2.0, "coordinates": {"latitude": 42.785063406424, "longitude": -78.8104880760574}, "transactions": ["delivery", "pickup"], "price": "$", "location": {"address1": "3701 Mckinley Pkwy", "address2": "Ste 1094", "address3": null, "city": "Buffalo", "zip_code": "14219", "country": "US", "state": "NY", "display_address": ["3701 Mckinley Pkwy", "Ste 1094", "Buffalo, NY 14219"]}, "phone": "+17168240585", "display_phone": "(716) 824-0585", "distance": 2277.737712816717}, {"id": "UnCNskntnuyMuHM9pbPuIQ", "alias": "cedars-pita-pockets-buffalo", "name": "Cedar's Pita Pockets", "image_url": "", "is_closed": false, "url": "https://www.yelp.com/biz/cedars-pita-pockets-buffalo?adjust_creative=a2JdNtFqB-C38ga_06BHvw&utm_campaign=yelp_api_v3&utm_medium=api_v3_business_search&utm_source=a2JdNtFqB-C38ga_06BHvw", "review_count": 2, "categories": [{"alias": "sandwiches", "title": "Sandwiches"}, {"alias": "greek", "title": "Greek"}], "rating": 5.0, "coordinates": {"latitude": 42.785896, "longitude": -78.808317}, "transactions": ["delivery"], "location": {"address1": "3701 McKinley Pkwy", "address2": null, "address3": null, "city": "Buffalo", "zip_code": "14219", "country": "US", "state": "NY", "display_address": ["3701 McKinley Pkwy", "Buffalo, NY 14219"]}, "phone": "+17168254568", "display_phone": "(716) 825-4568", "distance": 2185.5132382772963}, {"id": "wVIEXaV6y_7feoRi-IdBYg", "alias": "popeyes-louisiana-kitchen-buffalo-2", "name": "Popeyes Louisiana Kitchen", "image_url": "https://s3-media4.fl.yelpcdn.com/bphoto/OzBHKhbvSbh1I3M5oVNVPw/o.jpg", "is_closed": false, "url": "https://www.yelp.com/biz/popeyes-louisiana-kitchen-buffalo-2?adjust_creative=a2JdNtFqB-C38ga_06BHvw&utm_campaign=yelp_api_v3&utm_medium=api_v3_business_search&utm_source=a2JdNtFqB-C38ga_06BHvw", "review_count": 45, "categories": [{"alias": "hotdogs", "title": "Fast Food"}, {"alias": "chicken_wings", "title": "Chicken Wings"}], "rating": 2.0, "coordinates": {"latitude": 42.787188, "longitude": -78.811379}, "transactions": ["delivery"], "price": "$", "location": {"address1": "3670 McKinley Pkwy", "address2": "", "address3": null, "city": "Buffalo", "zip_code": "14219", "country": "US", "state": "NY", "display_address": ["3670 McKinley Pkwy", "Buffalo, NY 14219"]}, "phone": "+17164364761", "display_phone": "(716) 436-4761", "distance": 2471.653850186696}, {"id": "PueWaI4QC8AWSDg8JMkgug", "alias": "wendys-buffalo-12", "name": "Wendy's", "image_url": "https://s3-media1.fl.yelpcdn.com/bphoto/B3SUQykSidLJhB9xcn8DgA/o.jpg", "is_closed": false, "url": "https://www.yelp.com/biz/wendys-buffalo-12?adjust_creative=a2JdNtFqB-C38ga_06BHvw&utm_campaign=yelp_api_v3&utm_medium=api_v3_business_search&utm_source=a2JdNtFqB-C38ga_06BHvw", "review_count": 7, "categories": [{"alias": "burgers", "title": "Burgers"}, {"alias": "hotdogs", "title": "Fast Food"}], "rating": 3.0, "coordinates": {"latitude": 42.789095, "longitude": -78.810456}, "transactions": ["delivery"], "price": "$", "location": {"address1": "3513 Mckinley Pkwy", "address2": "", "address3": "", "city": "Buffalo", "zip_code": "14219", "country": "US", "state": "NY", "display_address": ["3513 Mckinley Pkwy", "Buffalo, NY 14219"]}, "phone": "+17168262826", "display_phone": "(716) 826-2826", "distance": 2545.9298667319867}, {"id": "Ks04OrE0AEi0rIcI1GY3Ww", "alias": "tim-hortons-buffalo-64", "name": "Tim Hortons", "image_url": "https://s3-media2.fl.yelpcdn.com/bphoto/3bso6rnLsXAlMLlmf_yS8g/o.jpg", "is_closed": false, "url": "https://www.yelp.com/biz/tim-hortons-buffalo-64?adjust_creative=a2JdNtFqB-C38ga_06BHvw&utm_campaign=yelp_api_v3&utm_medium=api_v3_business_search&utm_source=a2JdNtFqB-C38ga_06BHvw", "review_count": 6, "categories": [{"alias": "cafes", "title": "Cafes"}], "rating": 3.0, "coordinates": {"latitude": 42.78994, "longitude": -78.81381}, "transactions": ["delivery"], "location": {"address1": "4408 Milestrip Rd", "address2": "", "address3": null, "city": "Buffalo", "zip_code": "14219", "country": "US", "state": "NY", "display_address": ["4408 Milestrip Rd", "Buffalo, NY 14219"]}, "phone": "+17163225441", "display_phone": "(716) 322-5441", "distance": 2848.6009144984487}, {"id": "V8nsRUvHPAeLpOjRNg9wFA", "alias": "taco-bell-orchard-park", "name": "Taco Bell", "image_url": "https://s3-media3.fl.yelpcdn.com/bphoto/bX4_4M0VprtN7hMMRWaC1w/o.jpg", "is_closed": false, "url": "https://www.yelp.com/biz/taco-bell-orchard-park?adjust_creative=a2JdNtFqB-C38ga_06BHvw&utm_campaign=yelp_api_v3&utm_medium=api_v3_business_search&utm_source=a2JdNtFqB-C38ga_06BHvw", "review_count": 23, "categories": [{"alias": "hotdogs", "title": "Fast Food"}, {"alias": "mexican", "title": "Mexican"}], "rating": 2.0, "coordinates": {"latitude": 42.79865, "longitude": -78.751428}, "transactions": ["delivery"], "price": "$", "location": {"address1": "3175 Orchard Park", "address2": null, "address3": null, "city": "Orchard Park", "zip_code": "14127", "country": "US", "state": "NY", "display_address": ["3175 Orchard Park", "Orchard Park, NY 14127"]}, "phone": "+17166083138", "display_phone": "(716) 608-3138", "distance": 3992.413804605014}, {"id": "io6bgMev_BazBZGOv6CRFA", "alias": "jim-kellys-club-orchard-park", "name": "Jim Kelly's Club", "image_url": "", "is_closed": false, "url": "https://www.yelp.com/biz/jim-kellys-club-orchard-park?adjust_creative=a2JdNtFqB-C38ga_06BHvw&utm_campaign=yelp_api_v3&utm_medium=api_v3_business_search&utm_source=a2JdNtFqB-C38ga_06BHvw", "review_count": 1, "categories": [{"alias": "tradamerican", "title": "American (Traditional)"}, {"alias": "beer_and_wine", "title": "Beer, Wine & Spirits"}], "rating": 5.0, "coordinates": {"latitude": 42.7742262639177, "longitude": -78.7860495581011}, "transactions": [], "location": {"address1": "One Bills Dr", "address2": "", "address3": "", "city": "Orchard Park", "zip_code": "14127", "country": "US", "state": "NY", "display_address": ["One Bills Dr", "Orchard Park, NY 14127"]}, "phone": "", "display_phone": "", "distance": 81.55393016631335}, {"id": "vRJQFGXuYnWPAi_nlWPARw", "alias": "burger-king-blasdell", "name": "Burger King", "image_url": "https://s3-media2.fl.yelpcdn.com/bphoto/IUu5BAWG1nY6nPHN-KORHw/o.jpg", "is_closed": false, "url": "https://www.yelp.com/biz/burger-king-blasdell?adjust_creative=a2JdNtFqB-C38ga_06BHvw&utm_campaign=yelp_api_v3&utm_medium=api_v3_business_search&utm_source=a2JdNtFqB-C38ga_06BHvw", "review_count": 11, "categories": [{"alias": "burgers", "title": "Burgers"}, {"alias": "hotdogs", "title": "Fast Food"}], "rating": 1.5, "coordinates": {"latitude": 42.77091, "longitude": -78.810847}, "transactions": ["delivery"], "price": "$", "location": {"address1": "4175 Mckinley Pkwy", "address2": "", "address3": "", "city": "Blasdell", "zip_code": "14219", "country": "US", "state": "NY", "display_address": ["4175 Mckinley Pkwy", "Blasdell, NY 14219"]}, "phone": "+17166481130", "display_phone": "(716) 648-1130", "distance": 1976.2171237041996}, {"id": "K1w8OE5xkO7VGiYjAgr2Gw", "alias": "mcdonalds-blasdell", "name": "McDonald's", "image_url": "https://s3-media2.fl.yelpcdn.com/bphoto/JKM-cGY7A77iLqNE4-v6Hg/o.jpg", "is_closed": false, "url": "https://www.yelp.com/biz/mcdonalds-blasdell?adjust_creative=a2JdNtFqB-C38ga_06BHvw&utm_campaign=yelp_api_v3&utm_medium=api_v3_business_search&utm_source=a2JdNtFqB-C38ga_06BHvw", "review_count": 16, "categories": [{"alias": "hotdogs", "title": "Fast Food"}, {"alias": "burgers", "title": "Burgers"}, {"alias": "coffee", "title": "Coffee & Tea"}], "rating": 1.5, "coordinates": {"latitude": 42.79207, "longitude": -78.8116299}, "transactions": ["delivery"], "price": "$", "location": {"address1": "3450 Mckinley Pkwy", "address2": null, "address3": null, "city": "Blasdell", "zip_code": "14219", "country": "US", "state": "NY", "display_address": ["3450 Mckinley Pkwy", "Blasdell, NY 14219"]}, "phone": "+17168280899", "display_phone": "(716) 828-0899", "distance": 2833.4482135990643}, {"id": "IIBZlyG_md2yXRv3kMQ_ZA", "alias": "tgi-fridays-blasdell", "name": "TGI Fridays", "image_url": "https://s3-media1.fl.yelpcdn.com/bphoto/R5kkH3wpxU9rNvIuSPDZgQ/o.jpg", "is_closed": false, "url": "https://www.yelp.com/biz/tgi-fridays-blasdell?adjust_creative=a2JdNtFqB-C38ga_06BHvw&utm_campaign=yelp_api_v3&utm_medium=api_v3_business_search&utm_source=a2JdNtFqB-C38ga_06BHvw", "review_count": 5, "categories": [{"alias": "tradamerican", "title": "American (Traditional)"}], "rating": 2.0, "coordinates": {"latitude": 42.78394, "longitude": -78.81059}, "transactions": ["delivery"], "location": {"address1": "3701 McKinley Pkwy", "address2": "", "address3": null, "city": "Blasdell", "zip_code": "14219", "country": "US", "state": "NY", "display_address": ["3701 McKinley Pkwy", "Blasdell, NY 14219"]}, "phone": "+17168258443", "display_phone": "(716) 825-8443", "distance": 2129.6983404864786}, {"id": "0IMwOZL1uq17gEpv10ZUNg", "alias": "pie-o-mine-greens-orchard-park-3", "name": "Pie-O-Mine Greens", "image_url": "https://s3-media4.fl.yelpcdn.com/bphoto/afMClJ3VH4r38SgkowJXvA/o.jpg", "is_closed": false, "url": "https://www.yelp.com/biz/pie-o-mine-greens-orchard-park-3?adjust_creative=a2JdNtFqB-C38ga_06BHvw&utm_campaign=yelp_api_v3&utm_medium=api_v3_business_search&utm_source=a2JdNtFqB-C38ga_06BHvw", "review_count": 2, "categories": [{"alias": "salad", "title": "Salad"}, {"alias": "pizza", "title": "Pizza"}], "rating": 3.0, "coordinates": {"latitude": 42.7958146995341, "longitude": -78.7502937812852}, "transactions": [], "location": {"address1": "3275 Orchard Park Rd", "address2": "", "address3": null, "city": "Orchard Park", "zip_code": "14127", "country": "US", "state": "NY", "display_address": ["3275 Orchard Park Rd", "Orchard Park, NY 14127"]}, "phone": "", "display_phone": "", "distance": 3854.454801570207}, {"id": "7BYEix-igLmFUEQ9unC2kQ", "alias": "subway-orchard-park-5", "name": "Subway", "image_url": "https://s3-media3.fl.yelpcdn.com/bphoto/TMfGkJ6nM5ETQwdX55ZMhw/o.jpg", "is_closed": false, "url": "https://www.yelp.com/biz/subway-orchard-park-5?adjust_creative=a2JdNtFqB-C38ga_06BHvw&utm_campaign=yelp_api_v3&utm_medium=api_v3_business_search&utm_source=a2JdNtFqB-C38ga_06BHvw", "review_count": 2, "categories": [{"alias": "sandwiches", "title": "Sandwiches"}], "rating": 3.0, "coordinates": {"latitude": 42.7901478931223, "longitude": -78.7811787827744}, "transactions": ["delivery", "pickup"], "price": "$", "location": {"address1": "3515 Amelia Dr", "address2": "", "address3": null, "city": "Orchard Park", "zip_code": "14127", "country": "US", "state": "NY", "display_address": ["3515 Amelia Dr", "Orchard Park, NY 14127"]}, "phone": "+17168217827", "display_phone": "(716) 821-7827", "distance": 1857.3466160672947}, {"id": "JowbPVJxr0IMeMmQx5q-Jw", "alias": "subway-blasdell-2", "name": "Subway", "image_url": "https://s3-media2.fl.yelpcdn.com/bphoto/E757LJyeeyl4nz6IDmHB6g/o.jpg", "is_closed": false, "url": "https://www.yelp.com/biz/subway-blasdell-2?adjust_creative=a2JdNtFqB-C38ga_06BHvw&utm_campaign=yelp_api_v3&utm_medium=api_v3_business_search&utm_source=a2JdNtFqB-C38ga_06BHvw", "review_count": 1, "categories": [{"alias": "sandwiches", "title": "Sandwiches"}], "rating": 4.0, "coordinates": {"latitude": 42.7713924193242, "longitude": -78.8105045217785}, "transactions": ["delivery", "pickup"], "price": "$", "location": {"address1": "4151 Mckinley Pkwy", "address2": "", "address3": null, "city": "Blasdell", "zip_code": "14219", "country": "US", "state": "NY", "display_address": ["4151 Mckinley Pkwy", "Blasdell, NY 14219"]}, "phone": "+17166481310", "display_phone": "(716) 648-1310", "distance": 1940.294921226555}, {"id": "XIiEaBcTF3NlPczRffbdPw", "alias": "mcdonalds-orchard-park", "name": "McDonald's", "image_url": "https://s3-media4.fl.yelpcdn.com/bphoto/oLA2BAdsmN0nyqNuATa24A/o.jpg", "is_closed": false, "url": "https://www.yelp.com/biz/mcdonalds-orchard-park?adjust_creative=a2JdNtFqB-C38ga_06BHvw&utm_campaign=yelp_api_v3&utm_medium=api_v3_business_search&utm_source=a2JdNtFqB-C38ga_06BHvw", "review_count": 7, "categories": [{"alias": "hotdogs", "title": "Fast Food"}, {"alias": "burgers", "title": "Burgers"}, {"alias": "coffee", "title": "Coffee & Tea"}], "rating": 1.5, "coordinates": {"latitude": 42.7970698296831, "longitude": -78.7523060292006}, "transactions": ["delivery"], "price": "$", "location": {"address1": "3232 Orchard Park Rd", "address2": null, "address3": null, "city": "Orchard Park", "zip_code": "14127", "country": "US", "state": "NY", "display_address": ["3232 Orchard Park Rd", "Orchard Park, NY 14127"]}, "phone": "+17166750352", "display_phone": "(716) 675-0352", "distance": 3820.5214778205964}, {"id": "EjuWZSe5zXpPXoPrylwYOA", "alias": "fridays-buffalo-5", "name": "Friday's", "image_url": "https://s3-media3.fl.yelpcdn.com/bphoto/4kwPnaUMdD7GedyvHfLLVA/o.jpg", "is_closed": false, "url": "https://www.yelp.com/biz/fridays-buffalo-5?adjust_creative=a2JdNtFqB-C38ga_06BHvw&utm_campaign=yelp_api_v3&utm_medium=api_v3_business_search&utm_source=a2JdNtFqB-C38ga_06BHvw", "review_count": 2, "categories": [{"alias": "salad", "title": "Salad"}, {"alias": "seafood", "title": "Seafood"}, {"alias": "burgers", "title": "Burgers"}], "rating": 1.0, "coordinates": {"latitude": 42.783963, "longitude": -78.810495}, "transactions": [], "location": {"address1": "3701 McKinley Pkwy", "address2": "unit 1120", "address3": "", "city": "Buffalo", "zip_code": "14219", "country": "US", "state": "NY", "display_address": ["3701 McKinley Pkwy", "unit 1120", "Buffalo, NY 14219"]}, "phone": "+17168258443", "display_phone": "(716) 825-8443", "distance": 2214.552210009095}, {"id": "IiLFtTMKWDKOzJ97No8nxg", "alias": "queen-city-char-grill-buffalo", "name": "Queen City Char Grill", "image_url": "https://s3-media1.fl.yelpcdn.com/bphoto/kjM-E1lc5uRFitf5eOTYGg/o.jpg", "is_closed": false, "url": "https://www.yelp.com/biz/queen-city-char-grill-buffalo?adjust_creative=a2JdNtFqB-C38ga_06BHvw&utm_campaign=yelp_api_v3&utm_medium=api_v3_business_search&utm_source=a2JdNtFqB-C38ga_06BHvw", "review_count": 1, "categories": [{"alias": "tradamerican", "title": "American (Traditional)"}], "rating": 1.0, "coordinates": {"latitude": 42.7850709, "longitude": -78.8075709}, "transactions": [], "location": {"address1": "3701 McKinley Pkwy", "address2": "Unit 412", "address3": "", "city": "Buffalo", "zip_code": "14219", "country": "US", "state": "NY", "display_address": ["3701 McKinley Pkwy", "Unit 412", "Buffalo, NY 14219"]}, "phone": "+17168261890", "display_phone": "(716) 826-1890", "distance": 2081.835080562212}], "absolute total": 64, "total": 64}