{"league": "NFL", "team": "Green Bay Packers", "stadium": "Lambeau Field", "stadium latitude": 44.501389, "stadium longitude": -88.06222199999999, "radius": "3000 meters", "city": "Green Bay", "state": "Wisconsin", "businesses": [{"id": "EHoJdwk-eYH7pHzciEjD9w", "alias": "not-by-bread-alone-green-bay", "name": "Not By Bread Alone", "image_url": "https://s3-media3.fl.yelpcdn.com/bphoto/CFRBc62WIFMMLClObm4yfg/o.jpg", "is_closed": false, "url": "https://www.yelp.com/biz/not-by-bread-alone-green-bay?adjust_creative=a2JdNtFqB-C38ga_06BHvw&utm_campaign=yelp_api_v3&utm_medium=api_v3_business_search&utm_source=a2JdNtFqB-C38ga_06BHvw", "review_count": 88, "categories": [{"alias": "bakeries", "title": "Bakeries"}, {"alias": "cafes", "title": "Cafes"}, {"alias": "sandwiches", "title": "Sandwiches"}], "rating": 4.5, "coordinates": {"latitude": 44.4775599, "longitude": -88.07599}, "transactions": ["pickup", "delivery"], "price": "$", "location": {"address1": "940 Hansen Rd", "address2": "", "address3": "", "city": "Green Bay", "zip_code": "54304", "country": "US", "state": "WI", "display_address": ["940 Hansen Rd", "Green Bay, WI 54304"]}, "phone": "+19204299422", "display_phone": "(920) 429-9422", "distance": 2858.841399265691}, {"id": "TITBIAqsUVu333jTVbK2rQ", "alias": "the-pancake-place-green-bay", "name": "The Pancake Place", "image_url": "https://s3-media3.fl.yelpcdn.com/bphoto/BZSZJSfqbab0iC1wi1YnuA/o.jpg", "is_closed": false, "url": "https://www.yelp.com/biz/the-pancake-place-green-bay?adjust_creative=a2JdNtFqB-C38ga_06BHvw&utm_campaign=yelp_api_v3&utm_medium=api_v3_business_search&utm_source=a2JdNtFqB-C38ga_06BHvw", "review_count": 275, "categories": [{"alias": "breakfast_brunch", "title": "Breakfast & Brunch"}, {"alias": "tradamerican", "title": "American (Traditional)"}], "rating": 4.0, "coordinates": {"latitude": 44.52836, "longitude": -88.0603299}, "transactions": ["pickup", "delivery"], "price": "$", "location": {"address1": "143 S Military Ave", "address2": "", "address3": "", "city": "Green Bay", "zip_code": "54303", "country": "US", "state": "WI", "display_address": ["143 S Military Ave", "Green Bay, WI 54303"]}, "phone": "+19204992221", "display_phone": "(920) 499-2221", "distance": 3012.26928946087}, {"id": "xmGqKwEyIAmtSD99yyn5ew", "alias": "cheesesteak-rebellion-green-bay", "name": "Cheesesteak Rebellion", "image_url": "https://s3-media1.fl.yelpcdn.com/bphoto/Q5jY3Y_PYHSrGPab6MkHZA/o.jpg", "is_closed": false, "url": "https://www.yelp.com/biz/cheesesteak-rebellion-green-bay?adjust_creative=a2JdNtFqB-C38ga_06BHvw&utm_campaign=yelp_api_v3&utm_medium=api_v3_business_search&utm_source=a2JdNtFqB-C38ga_06BHvw", "review_count": 43, "categories": [{"alias": "cheesesteaks", "title": "Cheesesteaks"}, {"alias": "burgers", "title": "Burgers"}, {"alias": "beerbar", "title": "Beer Bar"}], "rating": 4.5, "coordinates": {"latitude": 44.5023249994592, "longitude": -88.0306148529053}, "transactions": ["delivery"], "price": "$$", "location": {"address1": "1301 S Broadway St", "address2": "", "address3": null, "city": "Green Bay", "zip_code": "54304", "country": "US", "state": "WI", "display_address": ["1301 S Broadway St", "Green Bay, WI 54304"]}, "phone": "+19203915721", "display_phone": "(920) 391-5721", "distance": 2508.8346270695815}, {"id": "STWskN4sYShiE7yRYoPzFg", "alias": "sammys-pizza-and-italian-restaurant-green-bay-2", "name": "Sammy's Pizza & Italian Restaurant", "image_url": "https://s3-media1.fl.yelpcdn.com/bphoto/mUdt8AU46xObOg8MGJOAeg/o.jpg", "is_closed": false, "url": "https://www.yelp.com/biz/sammys-pizza-and-italian-restaurant-green-bay-2?adjust_creative=a2JdNtFqB-C38ga_06BHvw&utm_campaign=yelp_api_v3&utm_medium=api_v3_business_search&utm_source=a2JdNtFqB-C38ga_06BHvw", "review_count": 129, "categories": [{"alias": "pizza", "title": "Pizza"}, {"alias": "italian", "title": "Italian"}], "rating": 4.0, "coordinates": {"latitude": 44.493165, "longitude": -88.061915}, "transactions": ["pickup", "delivery"], "price": "$$", "location": {"address1": "2161 S Oneida St", "address2": "", "address3": "", "city": "Green Bay", "zip_code": "54304", "country": "US", "state": "WI", "display_address": ["2161 S Oneida St", "Green Bay, WI 54304"]}, "phone": "+19204996644", "display_phone": "(920) 499-6644", "distance": 901.0039173281787}, {"id": "-HBnoD3kN_z8nwlU2rLjFw", "alias": "taco-burrito-mexico-green-bay-2", "name": "Taco Burrito Mexico", "image_url": "https://s3-media4.fl.yelpcdn.com/bphoto/3pytgupCmD2CEuUIcAmE8A/o.jpg", "is_closed": false, "url": "https://www.yelp.com/biz/taco-burrito-mexico-green-bay-2?adjust_creative=a2JdNtFqB-C38ga_06BHvw&utm_campaign=yelp_api_v3&utm_medium=api_v3_business_search&utm_source=a2JdNtFqB-C38ga_06BHvw", "review_count": 41, "categories": [{"alias": "mexican", "title": "Mexican"}], "rating": 4.5, "coordinates": {"latitude": 44.5182228088379, "longitude": -88.0260620117188}, "transactions": ["delivery"], "price": "$", "location": {"address1": "108 N Oakland Ave", "address2": "", "address3": "", "city": "Green Bay", "zip_code": "54303", "country": "US", "state": "WI", "display_address": ["108 N Oakland Ave", "Green Bay, WI 54303"]}, "phone": "+19204559055", "display_phone": "(920) 455-9055", "distance": 3416.1420977225193}, {"id": "Hz4WpytNHscyyVxZ6TUu7w", "alias": "hinterland-brewery-green-bay", "name": "Hinterland Brewery", "image_url": "https://s3-media2.fl.yelpcdn.com/bphoto/wHjHetfMSANSlxPkbltAgA/o.jpg", "is_closed": false, "url": "https://www.yelp.com/biz/hinterland-brewery-green-bay?adjust_creative=a2JdNtFqB-C38ga_06BHvw&utm_campaign=yelp_api_v3&utm_medium=api_v3_business_search&utm_source=a2JdNtFqB-C38ga_06BHvw", "review_count": 446, "categories": [{"alias": "newamerican", "title": "American (New)"}, {"alias": "brewpubs", "title": "Brewpubs"}, {"alias": "beertours", "title": "Beer Tours"}], "rating": 4.0, "coordinates": {"latitude": 44.503265, "longitude": -88.06425}, "transactions": ["pickup", "delivery"], "price": "$$", "location": {"address1": "1001 Lombardi Ave", "address2": "", "address3": "", "city": "Green Bay", "zip_code": "54304", "country": "US", "state": "WI", "display_address": ["1001 Lombardi Ave", "Green Bay, WI 54304"]}, "phone": "+19204388050", "display_phone": "(920) 438-8050", "distance": 263.4047405518644}, {"id": "CXhwiIdp-HbSOf_L_iirZg", "alias": "india-bhavan-green-bay", "name": "India Bhavan", "image_url": "https://s3-media1.fl.yelpcdn.com/bphoto/yx7fL6b0w1D8bBSrBjpjeQ/o.jpg", "is_closed": false, "url": "https://www.yelp.com/biz/india-bhavan-green-bay?adjust_creative=a2JdNtFqB-C38ga_06BHvw&utm_campaign=yelp_api_v3&utm_medium=api_v3_business_search&utm_source=a2JdNtFqB-C38ga_06BHvw", "review_count": 118, "categories": [{"alias": "indpak", "title": "Indian"}, {"alias": "vegetarian", "title": "Vegetarian"}, {"alias": "diners", "title": "Diners"}], "rating": 4.0, "coordinates": {"latitude": 44.477882, "longitude": -88.066978}, "transactions": ["pickup", "delivery"], "price": "$$", "location": {"address1": "2611 Holmgren Way", "address2": "", "address3": "", "city": "Green Bay", "zip_code": "54304", "country": "US", "state": "WI", "display_address": ["2611 Holmgren Way", "Green Bay, WI 54304"]}, "phone": "+19204991414", "display_phone": "(920) 499-1414", "distance": 2622.5190868074233}, {"id": "pqJ2sy0w0-sjrku7_z5-kg", "alias": "t-bacons-bbq-green-bay", "name": "T Bacon's BBQ", "image_url": "https://s3-media2.fl.yelpcdn.com/bphoto/76l3wCWxmsjkuTqixCGGQg/o.jpg", "is_closed": false, "url": "https://www.yelp.com/biz/t-bacons-bbq-green-bay?adjust_creative=a2JdNtFqB-C38ga_06BHvw&utm_campaign=yelp_api_v3&utm_medium=api_v3_business_search&utm_source=a2JdNtFqB-C38ga_06BHvw", "review_count": 90, "categories": [{"alias": "bbq", "title": "Barbeque"}], "rating": 4.0, "coordinates": {"latitude": 44.495148, "longitude": -88.055634}, "transactions": ["delivery"], "price": "$$", "location": {"address1": "2052 Holmgren Way", "address2": "", "address3": "", "city": "Green Bay", "zip_code": "54304", "country": "US", "state": "WI", "display_address": ["2052 Holmgren Way", "Green Bay, WI 54304"]}, "phone": "+19204550345", "display_phone": "(920) 455-0345", "distance": 868.6797995297705}, {"id": "e7607awVlvw6_TUok228CQ", "alias": "cheese-cake-heaven-green-bay", "name": "Cheese Cake Heaven", "image_url": "https://s3-media4.fl.yelpcdn.com/bphoto/ccWgZ6t3EpmlzVPbWq6YJQ/o.jpg", "is_closed": false, "url": "https://www.yelp.com/biz/cheese-cake-heaven-green-bay?adjust_creative=a2JdNtFqB-C38ga_06BHvw&utm_campaign=yelp_api_v3&utm_medium=api_v3_business_search&utm_source=a2JdNtFqB-C38ga_06BHvw", "review_count": 104, "categories": [{"alias": "breakfast_brunch", "title": "Breakfast & Brunch"}, {"alias": "bakeries", "title": "Bakeries"}, {"alias": "tradamerican", "title": "American (Traditional)"}], "rating": 4.0, "coordinates": {"latitude": 44.4958, "longitude": -88.06023}, "transactions": ["pickup", "delivery"], "price": "$$", "location": {"address1": "2075 S Oneida St", "address2": "", "address3": "", "city": "Green Bay", "zip_code": "54304", "country": "US", "state": "WI", "display_address": ["2075 S Oneida St", "Green Bay, WI 54304"]}, "phone": "+19204901200", "display_phone": "(920) 490-1200", "distance": 635.4749847325583}, {"id": "BMwCAhYq7_ZXLv7l9DE06g", "alias": "margaritas-green-bay", "name": "Margarita's", "image_url": "https://s3-media2.fl.yelpcdn.com/bphoto/oMDp2aWTJzwJm7S9xGEPWw/o.jpg", "is_closed": false, "url": "https://www.yelp.com/biz/margaritas-green-bay?adjust_creative=a2JdNtFqB-C38ga_06BHvw&utm_campaign=yelp_api_v3&utm_medium=api_v3_business_search&utm_source=a2JdNtFqB-C38ga_06BHvw", "review_count": 127, "categories": [{"alias": "mexican", "title": "Mexican"}, {"alias": "bars", "title": "Bars"}, {"alias": "tradamerican", "title": "American (Traditional)"}], "rating": 4.0, "coordinates": {"latitude": 44.506268, "longitude": -88.073115}, "transactions": ["delivery"], "price": "$$", "location": {"address1": "1241 Lombardi Access Rd", "address2": "", "address3": "", "city": "Green Bay", "zip_code": "54304", "country": "US", "state": "WI", "display_address": ["1241 Lombardi Access Rd", "Green Bay, WI 54304"]}, "phone": "+19204290400", "display_phone": "(920) 429-0400", "distance": 1020.09258538372}, {"id": "yFagkOEticZTVvHu1giOww", "alias": "prime-quarter-steak-house-green-bay", "name": "Prime Quarter Steak House", "image_url": "https://s3-media1.fl.yelpcdn.com/bphoto/bPxAkxL1IQAmcJXficspCg/o.jpg", "is_closed": false, "url": "https://www.yelp.com/biz/prime-quarter-steak-house-green-bay?adjust_creative=a2JdNtFqB-C38ga_06BHvw&utm_campaign=yelp_api_v3&utm_medium=api_v3_business_search&utm_source=a2JdNtFqB-C38ga_06BHvw", "review_count": 95, "categories": [{"alias": "steak", "title": "Steakhouses"}], "rating": 4.0, "coordinates": {"latitude": 44.4800432, "longitude": -88.0727941}, "transactions": ["delivery"], "price": "$$", "location": {"address1": "2610 S Oneida St", "address2": "", "address3": "", "city": "Green Bay", "zip_code": "54304", "country": "US", "state": "WI", "display_address": ["2610 S Oneida St", "Green Bay, WI 54304"]}, "phone": "+19204988701", "display_phone": "(920) 498-8701", "distance": 2517.331619071094}, {"id": "0tyuibUOJuny1R1kWiuQbw", "alias": "bay-family-restaurant-green-bay", "name": "Bay Family Restaurant", "image_url": "https://s3-media2.fl.yelpcdn.com/bphoto/Ws2RRVoei6Ngw2m5nj04BQ/o.jpg", "is_closed": false, "url": "https://www.yelp.com/biz/bay-family-restaurant-green-bay?adjust_creative=a2JdNtFqB-C38ga_06BHvw&utm_campaign=yelp_api_v3&utm_medium=api_v3_business_search&utm_source=a2JdNtFqB-C38ga_06BHvw", "review_count": 58, "categories": [{"alias": "breakfast_brunch", "title": "Breakfast & Brunch"}, {"alias": "burgers", "title": "Burgers"}, {"alias": "tradamerican", "title": "American (Traditional)"}], "rating": 4.0, "coordinates": {"latitude": 44.515367, "longitude": -88.069031}, "transactions": ["delivery"], "price": "$", "location": {"address1": "1301 S Military Ave", "address2": "", "address3": "", "city": "Green Bay", "zip_code": "54304", "country": "US", "state": "WI", "display_address": ["1301 S Military Ave", "Green Bay, WI 54304"]}, "phone": "+19204943441", "display_phone": "(920) 494-3441", "distance": 1645.395738843396}, {"id": "O03aCSWT2gx0uGY6l0BWpg", "alias": "jalisco-mexican-restaurant-green-bay", "name": "Jalisco Mexican Restaurant ", "image_url": "https://s3-media3.fl.yelpcdn.com/bphoto/ILkWPWCmF2XduYFEBsutEA/o.jpg", "is_closed": false, "url": "https://www.yelp.com/biz/jalisco-mexican-restaurant-green-bay?adjust_creative=a2JdNtFqB-C38ga_06BHvw&utm_campaign=yelp_api_v3&utm_medium=api_v3_business_search&utm_source=a2JdNtFqB-C38ga_06BHvw", "review_count": 33, "categories": [{"alias": "mexican", "title": "Mexican"}], "rating": 4.0, "coordinates": {"latitude": 44.525873, "longitude": -88.063344}, "transactions": ["delivery"], "price": "$$", "location": {"address1": "418 S Military Ave", "address2": "", "address3": null, "city": "Green Bay", "zip_code": "54303", "country": "US", "state": "WI", "display_address": ["418 S Military Ave", "Green Bay, WI 54303"]}, "phone": "+19207859098", "display_phone": "(920) 785-9098", "distance": 2723.850902221646}, {"id": "KIWjYVJK5cWrw--o4YfcmQ", "alias": "taste-of-india-green-bay", "name": "Taste Of India", "image_url": "https://s3-media1.fl.yelpcdn.com/bphoto/jzvj8p8v5cdF3ElKdnsj1w/o.jpg", "is_closed": false, "url": "https://www.yelp.com/biz/taste-of-india-green-bay?adjust_creative=a2JdNtFqB-C38ga_06BHvw&utm_campaign=yelp_api_v3&utm_medium=api_v3_business_search&utm_source=a2JdNtFqB-C38ga_06BHvw", "review_count": 91, "categories": [{"alias": "indpak", "title": "Indian"}], "rating": 4.0, "coordinates": {"latitude": 44.49089, "longitude": -88.06345}, "transactions": ["pickup", "delivery"], "price": "$$", "location": {"address1": "2237 S Oneida St", "address2": "", "address3": "", "city": "Green Bay", "zip_code": "54304", "country": "US", "state": "WI", "display_address": ["2237 S Oneida St", "Green Bay, WI 54304"]}, "phone": "+19203389200", "display_phone": "(920) 338-9200", "distance": 1172.7116906910016}, {"id": "Nwg_pvNcrNR-otMVq7u6gA", "alias": "1919-kitchen-and-tap-green-bay", "name": "1919 Kitchen & Tap", "image_url": "https://s3-media1.fl.yelpcdn.com/bphoto/c1-JRd0aDQ11aHSNpGqCAw/o.jpg", "is_closed": false, "url": "https://www.yelp.com/biz/1919-kitchen-and-tap-green-bay?adjust_creative=a2JdNtFqB-C38ga_06BHvw&utm_campaign=yelp_api_v3&utm_medium=api_v3_business_search&utm_source=a2JdNtFqB-C38ga_06BHvw", "review_count": 291, "categories": [{"alias": "newamerican", "title": "American (New)"}, {"alias": "gastropubs", "title": "Gastropubs"}], "rating": 3.5, "coordinates": {"latitude": 44.5011611, "longitude": -88.0622271}, "transactions": ["pickup", "delivery"], "price": "$$", "location": {"address1": "1265 Lombardi Ave", "address2": null, "address3": "", "city": "Green Bay", "zip_code": "54304", "country": "US", "state": "WI", "display_address": ["1265 Lombardi Ave", "Green Bay, WI 54304"]}, "phone": "+19209656970", "display_phone": "(920) 965-6970", "distance": 25.344523337709408}, {"id": "7Z0Lro04ysDZz-OjbVKSrg", "alias": "stadium-view-sports-bar-grill-and-banquet-hall-green-bay", "name": "Stadium View Sports Bar, Grill & Banquet Hall", "image_url": "https://s3-media2.fl.yelpcdn.com/bphoto/zbdKEyDTwefvs_dx5iiPtA/o.jpg", "is_closed": false, "url": "https://www.yelp.com/biz/stadium-view-sports-bar-grill-and-banquet-hall-green-bay?adjust_creative=a2JdNtFqB-C38ga_06BHvw&utm_campaign=yelp_api_v3&utm_medium=api_v3_business_search&utm_source=a2JdNtFqB-C38ga_06BHvw", "review_count": 103, "categories": [{"alias": "sportsbars", "title": "Sports Bars"}, {"alias": "pubs", "title": "Pubs"}, {"alias": "newamerican", "title": "American (New)"}], "rating": 3.5, "coordinates": {"latitude": 44.49757, "longitude": -88.05319}, "transactions": ["delivery"], "price": "$$", "location": {"address1": "1963 Holmgren Way", "address2": "", "address3": "", "city": "Green Bay", "zip_code": "54304", "country": "US", "state": "WI", "display_address": ["1963 Holmgren Way", "Green Bay, WI 54304"]}, "phone": "+19204981989", "display_phone": "(920) 498-1989", "distance": 844.0129676968414}, {"id": "fTvReYUiZOGZA6evUJwT6A", "alias": "asian-joy-green-bay", "name": "Asian Joy", "image_url": "https://s3-media2.fl.yelpcdn.com/bphoto/4xZ4Yjmgw0wor_dCAbyN-w/o.jpg", "is_closed": false, "url": "https://www.yelp.com/biz/asian-joy-green-bay?adjust_creative=a2JdNtFqB-C38ga_06BHvw&utm_campaign=yelp_api_v3&utm_medium=api_v3_business_search&utm_source=a2JdNtFqB-C38ga_06BHvw", "review_count": 17, "categories": [{"alias": "vietnamese", "title": "Vietnamese"}, {"alias": "thai", "title": "Thai"}, {"alias": "noodles", "title": "Noodles"}], "rating": 4.5, "coordinates": {"latitude": 44.5147513084291, "longitude": -88.0406496673822}, "transactions": ["delivery"], "location": {"address1": "1015 W Mason St", "address2": "", "address3": null, "city": "Green Bay", "zip_code": "54303", "country": "US", "state": "WI", "display_address": ["1015 W Mason St", "Green Bay, WI 54303"]}, "phone": "+19208572021", "display_phone": "(920) 857-2021", "distance": 2265.8363053462053}, {"id": "0deyVO52ZSwX48y9xt_IkQ", "alias": "pho-1-noodle-and-grill-green-bay", "name": "Pho 1 Noodle and Grill", "image_url": "https://s3-media4.fl.yelpcdn.com/bphoto/FP5-lBE5sVsAERifxSYYwA/o.jpg", "is_closed": false, "url": "https://www.yelp.com/biz/pho-1-noodle-and-grill-green-bay?adjust_creative=a2JdNtFqB-C38ga_06BHvw&utm_campaign=yelp_api_v3&utm_medium=api_v3_business_search&utm_source=a2JdNtFqB-C38ga_06BHvw", "review_count": 100, "categories": [{"alias": "vietnamese", "title": "Vietnamese"}, {"alias": "noodles", "title": "Noodles"}], "rating": 3.5, "coordinates": {"latitude": 44.49182, "longitude": -88.06229}, "transactions": ["delivery"], "price": "$", "location": {"address1": "2201 S Oneida St", "address2": "Ste 1", "address3": "", "city": "Green Bay", "zip_code": "54304", "country": "US", "state": "WI", "display_address": ["2201 S Oneida St", "Ste 1", "Green Bay, WI 54304"]}, "phone": "+19204943009", "display_phone": "(920) 494-3009", "distance": 1060.0555893197143}, {"id": "FYz-JnGaaA2adOU0AbOVxQ", "alias": "potbelly-sandwich-shop-green-bay", "name": "Potbelly Sandwich Shop", "image_url": "https://s3-media4.fl.yelpcdn.com/bphoto/nqyLpZYDMkaU_FgTy4Emng/o.jpg", "is_closed": false, "url": "https://www.yelp.com/biz/potbelly-sandwich-shop-green-bay?adjust_creative=a2JdNtFqB-C38ga_06BHvw&utm_campaign=yelp_api_v3&utm_medium=api_v3_business_search&utm_source=a2JdNtFqB-C38ga_06BHvw", "review_count": 26, "categories": [{"alias": "hotdogs", "title": "Fast Food"}, {"alias": "sandwiches", "title": "Sandwiches"}, {"alias": "salad", "title": "Salad"}], "rating": 4.0, "coordinates": {"latitude": 44.478041520083, "longitude": -88.0735600106842}, "transactions": ["pickup", "delivery"], "price": "$$", "location": {"address1": "2664 S Oneida St", "address2": "Ste 101", "address3": "", "city": "Green Bay", "zip_code": "54304", "country": "US", "state": "WI", "display_address": ["2664 S Oneida St", "Ste 101", "Green Bay, WI 54304"]}, "phone": "+19203210376", "display_phone": "(920) 321-0376", "distance": 2747.4903582081224}, {"id": "sDqZ6q34FxdOUqQoaxzCew", "alias": "nakashima-of-japan-green-bay", "name": "Nakashima of Japan", "image_url": "https://s3-media4.fl.yelpcdn.com/bphoto/O71e3wGj7FWQVNWGy78E4Q/o.jpg", "is_closed": false, "url": "https://www.yelp.com/biz/nakashima-of-japan-green-bay?adjust_creative=a2JdNtFqB-C38ga_06BHvw&utm_campaign=yelp_api_v3&utm_medium=api_v3_business_search&utm_source=a2JdNtFqB-C38ga_06BHvw", "review_count": 93, "categories": [{"alias": "sushi", "title": "Sushi Bars"}], "rating": 3.5, "coordinates": {"latitude": 44.4907899, "longitude": -88.05919}, "transactions": ["delivery"], "price": "$$", "location": {"address1": "2200 Holmgren Way", "address2": "", "address3": "", "city": "Green Bay", "zip_code": "54304", "country": "US", "state": "WI", "display_address": ["2200 Holmgren Way", "Green Bay, WI 54304"]}, "phone": "+19204944103", "display_phone": "(920) 494-4103", "distance": 1197.7676312147887}, {"id": "EXbOz49Kt-_IgthstjTx7g", "alias": "huhot-mongolian-grill-green-bay", "name": "HuHot Mongolian Grill", "image_url": "https://s3-media3.fl.yelpcdn.com/bphoto/Ol30a3Dt_03uyZ_9LltwWw/o.jpg", "is_closed": false, "url": "https://www.yelp.com/biz/huhot-mongolian-grill-green-bay?adjust_creative=a2JdNtFqB-C38ga_06BHvw&utm_campaign=yelp_api_v3&utm_medium=api_v3_business_search&utm_source=a2JdNtFqB-C38ga_06BHvw", "review_count": 64, "categories": [{"alias": "asianfusion", "title": "Asian Fusion"}, {"alias": "mongolian", "title": "Mongolian"}, {"alias": "chinese", "title": "Chinese"}], "rating": 3.5, "coordinates": {"latitude": 44.47855, "longitude": -88.0712099}, "transactions": ["delivery"], "price": "$$", "location": {"address1": "2621 Oneida St S", "address2": "Ste 103", "address3": "", "city": "Green Bay", "zip_code": "54304", "country": "US", "state": "WI", "display_address": ["2621 Oneida St S", "Ste 103", "Green Bay, WI 54304"]}, "phone": "+19204058888", "display_phone": "(920) 405-8888", "distance": 2635.9988589848467}, {"id": "ZnZj15yjtWS_cjnI-IsmEQ", "alias": "el-bistro-taco-green-bay", "name": "El Bistro Taco", "image_url": "https://s3-media4.fl.yelpcdn.com/bphoto/sW56UKapwlRRC4DYrLp8aQ/o.jpg", "is_closed": false, "url": "https://www.yelp.com/biz/el-bistro-taco-green-bay?adjust_creative=a2JdNtFqB-C38ga_06BHvw&utm_campaign=yelp_api_v3&utm_medium=api_v3_business_search&utm_source=a2JdNtFqB-C38ga_06BHvw", "review_count": 8, "categories": [{"alias": "italian", "title": "Italian"}, {"alias": "mexican", "title": "Mexican"}], "rating": 5.0, "coordinates": {"latitude": 44.490264, "longitude": -88.0638359}, "transactions": ["delivery"], "location": {"address1": "2257 S Oneida St", "address2": null, "address3": "", "city": "Green Bay", "zip_code": "54304", "country": "US", "state": "WI", "display_address": ["2257 S Oneida St", "Green Bay, WI 54304"]}, "phone": "+19208573939", "display_phone": "(920) 857-3939", "distance": 1243.647540177357}, {"id": "1j_IJtt1UiqAh19T0FbXKg", "alias": "longhorn-steakhouse-green-bay-2", "name": "LongHorn Steakhouse", "image_url": "https://s3-media2.fl.yelpcdn.com/bphoto/j8q0eanW2ctMsyMcRQ5kgg/o.jpg", "is_closed": false, "url": "https://www.yelp.com/biz/longhorn-steakhouse-green-bay-2?adjust_creative=a2JdNtFqB-C38ga_06BHvw&utm_campaign=yelp_api_v3&utm_medium=api_v3_business_search&utm_source=a2JdNtFqB-C38ga_06BHvw", "review_count": 57, "categories": [{"alias": "steak", "title": "Steakhouses"}, {"alias": "tradamerican", "title": "American (Traditional)"}, {"alias": "bbq", "title": "Barbeque"}], "rating": 3.5, "coordinates": {"latitude": 44.4836730957031, "longitude": -88.0685424804688}, "transactions": [], "price": "$$", "location": {"address1": "2475 S Oneida St", "address2": null, "address3": null, "city": "Green Bay", "zip_code": "54304", "country": "US", "state": "WI", "display_address": ["2475 S Oneida St", "Green Bay, WI 54304"]}, "phone": "+19204050467", "display_phone": "(920) 405-0467", "distance": 2030.9668547025758}, {"id": "hwn5D8FxGMpElenCkSEHmw", "alias": "the-booyah-shed-green-bay", "name": "The Booyah Shed", "image_url": "https://s3-media1.fl.yelpcdn.com/bphoto/NQyT67nbV1iTk9Koj3pqJQ/o.jpg", "is_closed": false, "url": "https://www.yelp.com/biz/the-booyah-shed-green-bay?adjust_creative=a2JdNtFqB-C38ga_06BHvw&utm_campaign=yelp_api_v3&utm_medium=api_v3_business_search&utm_source=a2JdNtFqB-C38ga_06BHvw", "review_count": 12, "categories": [{"alias": "newamerican", "title": "American (New)"}], "rating": 4.5, "coordinates": {"latitude": 44.498245, "longitude": -88.041703}, "transactions": ["pickup", "delivery"], "price": "$$", "location": {"address1": "1800 S Ashland Ave", "address2": "", "address3": null, "city": "Green Bay", "zip_code": "54304", "country": "US", "state": "WI", "display_address": ["1800 S Ashland Ave", "Green Bay, WI 54304"]}, "phone": "+19203716249", "display_phone": "(920) 371-6249", "distance": 1653.321539442195}, {"id": "Vc-6-aGnrsCnUUs3c6xP_Q", "alias": "red-robin-gourmet-burgers-and-brews-green-bay", "name": "Red Robin Gourmet Burgers and Brews", "image_url": "https://s3-media2.fl.yelpcdn.com/bphoto/H8rm69gNPJeOYWLYxrHhWw/o.jpg", "is_closed": false, "url": "https://www.yelp.com/biz/red-robin-gourmet-burgers-and-brews-green-bay?adjust_creative=a2JdNtFqB-C38ga_06BHvw&utm_campaign=yelp_api_v3&utm_medium=api_v3_business_search&utm_source=a2JdNtFqB-C38ga_06BHvw", "review_count": 48, "categories": [{"alias": "burgers", "title": "Burgers"}, {"alias": "tradamerican", "title": "American (Traditional)"}], "rating": 3.5, "coordinates": {"latitude": 44.480164, "longitude": -88.0710664}, "transactions": ["pickup", "delivery"], "price": "$$", "location": {"address1": "2605 S Oneida St", "address2": "Ste 100", "address3": null, "city": "Green Bay", "zip_code": "54304", "country": "US", "state": "WI", "display_address": ["2605 S Oneida St", "Ste 100", "Green Bay, WI 54304"]}, "phone": "+19204999260", "display_phone": "(920) 499-9260", "distance": 2462.17413570843}, {"id": "LC4bOTGsKMcEUyslBVkGgg", "alias": "cozumel-mexican-restuarant-green-bay", "name": "Cozumel Mexican Restuarant", "image_url": "https://s3-media3.fl.yelpcdn.com/bphoto/BDGiMFqDYAW7fNCicyS5MA/o.jpg", "is_closed": false, "url": "https://www.yelp.com/biz/cozumel-mexican-restuarant-green-bay?adjust_creative=a2JdNtFqB-C38ga_06BHvw&utm_campaign=yelp_api_v3&utm_medium=api_v3_business_search&utm_source=a2JdNtFqB-C38ga_06BHvw", "review_count": 14, "categories": [{"alias": "mexican", "title": "Mexican"}, {"alias": "bars", "title": "Bars"}], "rating": 4.5, "coordinates": {"latitude": 44.47756, "longitude": -88.07599}, "transactions": ["delivery"], "location": {"address1": "940 Hansen Rd", "address2": "Ste B", "address3": null, "city": "Green Bay", "zip_code": "54304", "country": "US", "state": "WI", "display_address": ["940 Hansen Rd", "Ste B", "Green Bay, WI 54304"]}, "phone": "+19204014007", "display_phone": "(920) 401-4007", "distance": 2858.841399265691}, {"id": "65hGWdou-XCC_GfGIfVPyA", "alias": "golden-basket-restaurant-green-bay", "name": "Golden Basket Restaurant", "image_url": "https://s3-media4.fl.yelpcdn.com/bphoto/b7EqofqAeqvGeOWKo9XMbA/o.jpg", "is_closed": false, "url": "https://www.yelp.com/biz/golden-basket-restaurant-green-bay?adjust_creative=a2JdNtFqB-C38ga_06BHvw&utm_campaign=yelp_api_v3&utm_medium=api_v3_business_search&utm_source=a2JdNtFqB-C38ga_06BHvw", "review_count": 43, "categories": [{"alias": "burgers", "title": "Burgers"}, {"alias": "sandwiches", "title": "Sandwiches"}, {"alias": "breakfast_brunch", "title": "Breakfast & Brunch"}], "rating": 3.5, "coordinates": {"latitude": 44.51509, "longitude": -88.0709399}, "transactions": ["delivery"], "price": "$", "location": {"address1": "1350 S Military Ave", "address2": "", "address3": "", "city": "Green Bay", "zip_code": "54304", "country": "US", "state": "WI", "display_address": ["1350 S Military Ave", "Green Bay, WI 54304"]}, "phone": "+19204999023", "display_phone": "(920) 499-9023", "distance": 1652.448967117107}, {"id": "OKFdvFP2qC13KyACyU2nMw", "alias": "macs-macaroni-and-cheese-shop-green-bay", "name": "Macs Macaroni And Cheese Shop", "image_url": "https://s3-media1.fl.yelpcdn.com/bphoto/_4yo-zCoFwjOr9XqtVZjNQ/o.jpg", "is_closed": false, "url": "https://www.yelp.com/biz/macs-macaroni-and-cheese-shop-green-bay?adjust_creative=a2JdNtFqB-C38ga_06BHvw&utm_campaign=yelp_api_v3&utm_medium=api_v3_business_search&utm_source=a2JdNtFqB-C38ga_06BHvw", "review_count": 56, "categories": [{"alias": "newamerican", "title": "American (New)"}], "rating": 3.5, "coordinates": {"latitude": 44.4783467821183, "longitude": -88.0733290631533}, "transactions": ["pickup", "delivery"], "price": "$", "location": {"address1": "2654 S Oneida St", "address2": "", "address3": null, "city": "Green Bay", "zip_code": "54304", "country": "US", "state": "WI", "display_address": ["2654 S Oneida St", "Green Bay, WI 54304"]}, "phone": "+19204999028", "display_phone": "(920) 499-9028", "distance": 2709.426445671241}, {"id": "4xl40MO0FCltz2_hjtznKQ", "alias": "marcos-pizza-ashwaubenon", "name": "Marco's Pizza", "image_url": "https://s3-media2.fl.yelpcdn.com/bphoto/QVxLU2666exjN4O0ugpJUw/o.jpg", "is_closed": false, "url": "https://www.yelp.com/biz/marcos-pizza-ashwaubenon?adjust_creative=a2JdNtFqB-C38ga_06BHvw&utm_campaign=yelp_api_v3&utm_medium=api_v3_business_search&utm_source=a2JdNtFqB-C38ga_06BHvw", "review_count": 16, "categories": [{"alias": "salad", "title": "Salad"}, {"alias": "pizza", "title": "Pizza"}, {"alias": "sandwiches", "title": "Sandwiches"}], "rating": 4.5, "coordinates": {"latitude": 44.4926699, "longitude": -88.07288}, "transactions": ["pickup", "delivery"], "price": "$$", "location": {"address1": "2271 True Ln", "address2": "", "address3": "", "city": "Ashwaubenon", "zip_code": "54304", "country": "US", "state": "WI", "display_address": ["2271 True Ln", "Ashwaubenon, WI 54304"]}, "phone": "+19204971990", "display_phone": "(920) 497-1990", "distance": 1279.2549754351155}, {"id": "BJsSSdebZP253CAKOZBHaQ", "alias": "texas-roadhouse-green-bay-2", "name": "Texas Roadhouse", "image_url": "https://s3-media2.fl.yelpcdn.com/bphoto/sFXODiI-hlbjg8ABmkC2rA/o.jpg", "is_closed": false, "url": "https://www.yelp.com/biz/texas-roadhouse-green-bay-2?adjust_creative=a2JdNtFqB-C38ga_06BHvw&utm_campaign=yelp_api_v3&utm_medium=api_v3_business_search&utm_source=a2JdNtFqB-C38ga_06BHvw", "review_count": 60, "categories": [{"alias": "steak", "title": "Steakhouses"}, {"alias": "bbq", "title": "Barbeque"}, {"alias": "tradamerican", "title": "American (Traditional)"}], "rating": 3.5, "coordinates": {"latitude": 44.486675, "longitude": -88.06639}, "transactions": [], "price": "$$", "location": {"address1": "2375 S Oneida St", "address2": "", "address3": "", "city": "Green Bay", "zip_code": "54304", "country": "US", "state": "WI", "display_address": ["2375 S Oneida St", "Green Bay, WI 54304"]}, "phone": "+19204988800", "display_phone": "(920) 498-8800", "distance": 1669.1866358800032}, {"id": "sBDjBOk0kUE0KJP6RMRbXw", "alias": "chili-johns-restaurant-green-bay", "name": "Chili John's Restaurant", "image_url": "https://s3-media2.fl.yelpcdn.com/bphoto/SMfNcTiJ3q6eTYPwSn9t6w/o.jpg", "is_closed": false, "url": "https://www.yelp.com/biz/chili-johns-restaurant-green-bay?adjust_creative=a2JdNtFqB-C38ga_06BHvw&utm_campaign=yelp_api_v3&utm_medium=api_v3_business_search&utm_source=a2JdNtFqB-C38ga_06BHvw", "review_count": 52, "categories": [{"alias": "tradamerican", "title": "American (Traditional)"}], "rating": 3.5, "coordinates": {"latitude": 44.5245170593262, "longitude": -88.0625}, "transactions": ["delivery"], "price": "$", "location": {"address1": "519 S Military Ave", "address2": "", "address3": "", "city": "Green Bay", "zip_code": "54303", "country": "US", "state": "WI", "display_address": ["519 S Military Ave", "Green Bay, WI 54303"]}, "phone": "+19204944624", "display_phone": "(920) 494-4624", "distance": 2573.1693801604843}, {"id": "qzr2JiXqe627F12VMN70Pw", "alias": "firehouse-subs-green-bay", "name": "Firehouse Subs", "image_url": "https://s3-media4.fl.yelpcdn.com/bphoto/1y7kmR_xSjJS-wfDBSrt4Q/o.jpg", "is_closed": false, "url": "https://www.yelp.com/biz/firehouse-subs-green-bay?adjust_creative=a2JdNtFqB-C38ga_06BHvw&utm_campaign=yelp_api_v3&utm_medium=api_v3_business_search&utm_source=a2JdNtFqB-C38ga_06BHvw", "review_count": 24, "categories": [{"alias": "hotdogs", "title": "Fast Food"}, {"alias": "delis", "title": "Delis"}, {"alias": "sandwiches", "title": "Sandwiches"}], "rating": 4.0, "coordinates": {"latitude": 44.4782456, "longitude": -88.0727304}, "transactions": ["pickup", "delivery"], "price": "$", "location": {"address1": "2665 S Oneida St", "address2": "Ste E", "address3": "", "city": "Green Bay", "zip_code": "54304", "country": "US", "state": "WI", "display_address": ["2665 S Oneida St", "Ste E", "Green Bay, WI 54304"]}, "phone": "+19205444690", "display_phone": "(920) 544-4690", "distance": 2705.059960512157}, {"id": "opf3uH03eHzDo-i9OibQ4w", "alias": "taverne-in-the-sky-green-bay", "name": "Taverne In The Sky", "image_url": "https://s3-media2.fl.yelpcdn.com/bphoto/MDVA9-pfKMVG2C__64iy4g/o.jpg", "is_closed": false, "url": "https://www.yelp.com/biz/taverne-in-the-sky-green-bay?adjust_creative=a2JdNtFqB-C38ga_06BHvw&utm_campaign=yelp_api_v3&utm_medium=api_v3_business_search&utm_source=a2JdNtFqB-C38ga_06BHvw", "review_count": 53, "categories": [{"alias": "tradamerican", "title": "American (Traditional)"}, {"alias": "pubs", "title": "Pubs"}], "rating": 3.5, "coordinates": {"latitude": 44.5021143124359, "longitude": -88.0649200460327}, "transactions": ["delivery"], "price": "$$", "location": {"address1": "1950 S Ridge Rd", "address2": "", "address3": null, "city": "Green Bay", "zip_code": "54304", "country": "US", "state": "WI", "display_address": ["1950 S Ridge Rd", "Green Bay, WI 54304"]}, "phone": "+19203274600", "display_phone": "(920) 327-4600", "distance": 228.6697215631623}, {"id": "a5Dd9pMJIwprhhv2cFRkuQ", "alias": "el-sarape-west-green-bay", "name": "El Sarape west", "image_url": "https://s3-media1.fl.yelpcdn.com/bphoto/p94DkXz7b8XeNJCOMgkIRg/o.jpg", "is_closed": false, "url": "https://www.yelp.com/biz/el-sarape-west-green-bay?adjust_creative=a2JdNtFqB-C38ga_06BHvw&utm_campaign=yelp_api_v3&utm_medium=api_v3_business_search&utm_source=a2JdNtFqB-C38ga_06BHvw", "review_count": 100, "categories": [{"alias": "mexican", "title": "Mexican"}], "rating": 3.0, "coordinates": {"latitude": 44.4783565093991, "longitude": -88.0698770284653}, "transactions": ["delivery"], "price": "$$", "location": {"address1": "2615 S Oneida St", "address2": null, "address3": "", "city": "Green Bay", "zip_code": "54304", "country": "US", "state": "WI", "display_address": ["2615 S Oneida St", "Green Bay, WI 54304"]}, "phone": "+19208573584", "display_phone": "(920) 857-3584", "distance": 2632.0941105481784}, {"id": "-h6huAu1tM8R5ihMHPp0WQ", "alias": "jimmy-johns-green-bay-2", "name": "Jimmy John's", "image_url": "https://s3-media1.fl.yelpcdn.com/bphoto/TP3GWHAfucyaSKSR5fynsg/o.jpg", "is_closed": false, "url": "https://www.yelp.com/biz/jimmy-johns-green-bay-2?adjust_creative=a2JdNtFqB-C38ga_06BHvw&utm_campaign=yelp_api_v3&utm_medium=api_v3_business_search&utm_source=a2JdNtFqB-C38ga_06BHvw", "review_count": 10, "categories": [{"alias": "delis", "title": "Delis"}, {"alias": "sandwiches", "title": "Sandwiches"}, {"alias": "hotdogs", "title": "Fast Food"}], "rating": 4.5, "coordinates": {"latitude": 44.49492, "longitude": -88.06042}, "transactions": [], "price": "$", "location": {"address1": "2101 S Onieda St", "address2": null, "address3": null, "city": "Green Bay", "zip_code": "54304", "country": "US", "state": "WI", "display_address": ["2101 S Onieda St", "Green Bay, WI 54304"]}, "phone": "+19204992520", "display_phone": "(920) 499-2520", "distance": 726.2253649472071}, {"id": "M97aqfKgsGhyuEJjVL-ckg", "alias": "old-chicago-pizza-and-taproom-green-bay", "name": "Old Chicago Pizza & Taproom", "image_url": "https://s3-media1.fl.yelpcdn.com/bphoto/TlJp_lq3hMD3jWp5HGE_iQ/o.jpg", "is_closed": false, "url": "https://www.yelp.com/biz/old-chicago-pizza-and-taproom-green-bay?adjust_creative=a2JdNtFqB-C38ga_06BHvw&utm_campaign=yelp_api_v3&utm_medium=api_v3_business_search&utm_source=a2JdNtFqB-C38ga_06BHvw", "review_count": 82, "categories": [{"alias": "tradamerican", "title": "American (Traditional)"}, {"alias": "pizza", "title": "Pizza"}, {"alias": "sportsbars", "title": "Sports Bars"}], "rating": 3.0, "coordinates": {"latitude": 44.482828, "longitude": -88.069065}, "transactions": ["pickup", "delivery"], "price": "$$", "location": {"address1": "2495 S Oneida St", "address2": null, "address3": null, "city": "Green Bay", "zip_code": "54304", "country": "US", "state": "WI", "display_address": ["2495 S Oneida St", "Green Bay, WI 54304"]}, "phone": "+19208841112", "display_phone": "(920) 884-1112", "distance": 2134.0687653310515}, {"id": "oitbdtJu1xrEMJ729fdnpA", "alias": "the-blackstone-green-bay", "name": "The Blackstone", "image_url": "https://s3-media2.fl.yelpcdn.com/bphoto/V8js0yVjwxoVOn-YCHWqmQ/o.jpg", "is_closed": false, "url": "https://www.yelp.com/biz/the-blackstone-green-bay?adjust_creative=a2JdNtFqB-C38ga_06BHvw&utm_campaign=yelp_api_v3&utm_medium=api_v3_business_search&utm_source=a2JdNtFqB-C38ga_06BHvw", "review_count": 46, "categories": [{"alias": "breakfast_brunch", "title": "Breakfast & Brunch"}, {"alias": "diners", "title": "Diners"}], "rating": 3.5, "coordinates": {"latitude": 44.518012, "longitude": -88.025708}, "transactions": ["pickup", "delivery"], "price": "$", "location": {"address1": "706 W Walnut St", "address2": "", "address3": "", "city": "Green Bay", "zip_code": "54303", "country": "US", "state": "WI", "display_address": ["706 W Walnut St", "Green Bay, WI 54303"]}, "phone": "+19204325838", "display_phone": "(920) 432-5838", "distance": 3435.125681522246}, {"id": "AK7sqtGm3QE6oRP-5F3XjQ", "alias": "chipotle-mexican-grill-ashwaubenon", "name": "Chipotle Mexican Grill", "image_url": "https://s3-media3.fl.yelpcdn.com/bphoto/ll15-UJu8TVEgkgPpWVmzA/o.jpg", "is_closed": false, "url": "https://www.yelp.com/biz/chipotle-mexican-grill-ashwaubenon?adjust_creative=a2JdNtFqB-C38ga_06BHvw&utm_campaign=yelp_api_v3&utm_medium=api_v3_business_search&utm_source=a2JdNtFqB-C38ga_06BHvw", "review_count": 23, "categories": [{"alias": "mexican", "title": "Mexican"}, {"alias": "hotdogs", "title": "Fast Food"}], "rating": 4.0, "coordinates": {"latitude": 44.4868160018421, "longitude": -88.067574158581}, "transactions": ["delivery"], "price": "$", "location": {"address1": "2388 S Oneida St", "address2": "Ste 300", "address3": "", "city": "Ashwaubenon", "zip_code": "54304", "country": "US", "state": "WI", "display_address": ["2388 S Oneida St", "Ste 300", "Ashwaubenon, WI 54304"]}, "phone": "+19204970216", "display_phone": "(920) 497-0216", "distance": 1675.1267057488249}, {"id": "fn026lUVgCS2dEDebrslnQ", "alias": "krolls-west-restaurant-green-bay", "name": "Krolls West Restaurant", "image_url": "https://s3-media4.fl.yelpcdn.com/bphoto/4E_HXPB9AhKiQsrgn8R1Gw/o.jpg", "is_closed": false, "url": "https://www.yelp.com/biz/krolls-west-restaurant-green-bay?adjust_creative=a2JdNtFqB-C38ga_06BHvw&utm_campaign=yelp_api_v3&utm_medium=api_v3_business_search&utm_source=a2JdNtFqB-C38ga_06BHvw", "review_count": 217, "categories": [{"alias": "tradamerican", "title": "American (Traditional)"}], "rating": 3.0, "coordinates": {"latitude": 44.50117, "longitude": -88.06603}, "transactions": ["delivery"], "price": "$$", "location": {"address1": "1990 S Ridge Rd", "address2": "", "address3": "", "city": "Green Bay", "zip_code": "54304", "country": "US", "state": "WI", "display_address": ["1990 S Ridge Rd", "Green Bay, WI 54304"]}, "phone": "+19204971111", "display_phone": "(920) 497-1111", "distance": 294.4874179420185}, {"id": "iKjK4Gr3CkJQ4eFpbN-PPQ", "alias": "el-azteca-green-bay", "name": "El Azteca", "image_url": "https://s3-media3.fl.yelpcdn.com/bphoto/G1G1BgcCrq93JxCNg-Ejrg/o.jpg", "is_closed": false, "url": "https://www.yelp.com/biz/el-azteca-green-bay?adjust_creative=a2JdNtFqB-C38ga_06BHvw&utm_campaign=yelp_api_v3&utm_medium=api_v3_business_search&utm_source=a2JdNtFqB-C38ga_06BHvw", "review_count": 35, "categories": [{"alias": "mexican", "title": "Mexican"}], "rating": 3.5, "coordinates": {"latitude": 44.52324, "longitude": -88.0927}, "transactions": ["delivery"], "price": "$", "location": {"address1": "2469 W Mason St", "address2": "", "address3": "", "city": "Green Bay", "zip_code": "54303", "country": "US", "state": "WI", "display_address": ["2469 W Mason St", "Green Bay, WI 54303"]}, "phone": "+19204998717", "display_phone": "(920) 499-8717", "distance": 3453.874698811749}, {"id": "GAANM3zMhGNeFRLgIWZV1g", "alias": "la-java-roasting-house-green-bay", "name": "La Java Roasting House", "image_url": "https://s3-media2.fl.yelpcdn.com/bphoto/G4JtK6_wnVxXUTpeS5ZK7w/o.jpg", "is_closed": false, "url": "https://www.yelp.com/biz/la-java-roasting-house-green-bay?adjust_creative=a2JdNtFqB-C38ga_06BHvw&utm_campaign=yelp_api_v3&utm_medium=api_v3_business_search&utm_source=a2JdNtFqB-C38ga_06BHvw", "review_count": 10, "categories": [{"alias": "coffee", "title": "Coffee & Tea"}, {"alias": "breakfast_brunch", "title": "Breakfast & Brunch"}], "rating": 4.5, "coordinates": {"latitude": 44.52441, "longitude": -88.09062}, "transactions": ["delivery"], "price": "$", "location": {"address1": "2422 W Mason St", "address2": null, "address3": null, "city": "Green Bay", "zip_code": "54303", "country": "US", "state": "WI", "display_address": ["2422 W Mason St", "Green Bay, WI 54303"]}, "phone": "+19204058459", "display_phone": "(920) 405-8459", "distance": 3414.297739126181}, {"id": "NY8PPc3sP7IPHJHpyNct-Q", "alias": "schlotzskys-green-bay", "name": "Schlotzsky's", "image_url": "https://s3-media1.fl.yelpcdn.com/bphoto/JdM33dmJWNxH9_8L44ZlsA/o.jpg", "is_closed": false, "url": "https://www.yelp.com/biz/schlotzskys-green-bay?adjust_creative=a2JdNtFqB-C38ga_06BHvw&utm_campaign=yelp_api_v3&utm_medium=api_v3_business_search&utm_source=a2JdNtFqB-C38ga_06BHvw", "review_count": 18, "categories": [{"alias": "sandwiches", "title": "Sandwiches"}, {"alias": "delis", "title": "Delis"}, {"alias": "catering", "title": "Caterers"}], "rating": 4.0, "coordinates": {"latitude": 44.524418, "longitude": -88.0899244}, "transactions": ["pickup", "delivery"], "price": "$$", "location": {"address1": "2420 West Mason St", "address2": "", "address3": "", "city": "Green Bay", "zip_code": "54303", "country": "US", "state": "WI", "display_address": ["2420 West Mason St", "Green Bay, WI 54303"]}, "phone": "+19204971313", "display_phone": "(920) 497-1313", "distance": 3373.750354908539}, {"id": "DoQCFuOnwU0bUwGWyb76pA", "alias": "anduzzis-sports-club-holmgren-way-green-bay", "name": "Anduzzi's Sports Club - Holmgren Way", "image_url": "https://s3-media3.fl.yelpcdn.com/bphoto/o9d5tVna2GDCDmsZGTq7kQ/o.jpg", "is_closed": false, "url": "https://www.yelp.com/biz/anduzzis-sports-club-holmgren-way-green-bay?adjust_creative=a2JdNtFqB-C38ga_06BHvw&utm_campaign=yelp_api_v3&utm_medium=api_v3_business_search&utm_source=a2JdNtFqB-C38ga_06BHvw", "review_count": 107, "categories": [{"alias": "sportsbars", "title": "Sports Bars"}, {"alias": "newamerican", "title": "American (New)"}, {"alias": "pizza", "title": "Pizza"}], "rating": 3.0, "coordinates": {"latitude": 44.49703, "longitude": -88.05463}, "transactions": ["delivery"], "price": "$$", "location": {"address1": "1992 Holmgren Way", "address2": "", "address3": "", "city": "Green Bay", "zip_code": "54304", "country": "US", "state": "WI", "display_address": ["1992 Holmgren Way", "Green Bay, WI 54304"]}, "phone": "+19209651111", "display_phone": "(920) 965-1111", "distance": 772.1707258789107}, {"id": "lekOyj9eJXNnbWuU9wQ94A", "alias": "mandarin-garden-green-bay", "name": "Mandarin Garden", "image_url": "https://s3-media2.fl.yelpcdn.com/bphoto/UlmKjr2lfZptSC4qSKBvNA/o.jpg", "is_closed": false, "url": "https://www.yelp.com/biz/mandarin-garden-green-bay?adjust_creative=a2JdNtFqB-C38ga_06BHvw&utm_campaign=yelp_api_v3&utm_medium=api_v3_business_search&utm_source=a2JdNtFqB-C38ga_06BHvw", "review_count": 41, "categories": [{"alias": "chinese", "title": "Chinese"}], "rating": 3.5, "coordinates": {"latitude": 44.486371, "longitude": -88.0673913}, "transactions": ["delivery"], "price": "$$", "location": {"address1": "2394 S Oneida St", "address2": "", "address3": "", "city": "Green Bay", "zip_code": "54304", "country": "US", "state": "WI", "display_address": ["2394 S Oneida St", "Green Bay, WI 54304"]}, "phone": "+19204994459", "display_phone": "(920) 499-4459", "distance": 1719.5232386323396}, {"id": "zq2OjUHsYTjrGUxHqoN4wg", "alias": "green-bay-distillery-green-bay", "name": "Green Bay Distillery", "image_url": "https://s3-media2.fl.yelpcdn.com/bphoto/W-OTuk1wBjWkaEgNBpy03g/o.jpg", "is_closed": false, "url": "https://www.yelp.com/biz/green-bay-distillery-green-bay?adjust_creative=a2JdNtFqB-C38ga_06BHvw&utm_campaign=yelp_api_v3&utm_medium=api_v3_business_search&utm_source=a2JdNtFqB-C38ga_06BHvw", "review_count": 84, "categories": [{"alias": "newamerican", "title": "American (New)"}], "rating": 3.0, "coordinates": {"latitude": 44.496394, "longitude": -88.057595}, "transactions": ["delivery"], "price": "$$", "location": {"address1": "835 Mike McCarthy Way", "address2": null, "address3": "", "city": "Green Bay", "zip_code": "54304", "country": "US", "state": "WI", "display_address": ["835 Mike McCarthy Way", "Green Bay, WI 54304"]}, "phone": "+19203934403", "display_phone": "(920) 393-4403", "distance": 665.7015107890533}, {"id": "E5GluS7VmTboysc14u5xjA", "alias": "the-bar-holmgren-way-green-bay", "name": "The Bar - Holmgren Way", "image_url": "https://s3-media3.fl.yelpcdn.com/bphoto/E58TAxuIb-IWcRWolmuBBQ/o.jpg", "is_closed": false, "url": "https://www.yelp.com/biz/the-bar-holmgren-way-green-bay?adjust_creative=a2JdNtFqB-C38ga_06BHvw&utm_campaign=yelp_api_v3&utm_medium=api_v3_business_search&utm_source=a2JdNtFqB-C38ga_06BHvw", "review_count": 46, "categories": [{"alias": "tradamerican", "title": "American (Traditional)"}, {"alias": "sportsbars", "title": "Sports Bars"}], "rating": 3.0, "coordinates": {"latitude": 44.4965858459473, "longitude": -88.0538635253906}, "transactions": ["pickup", "delivery"], "price": "$$", "location": {"address1": "2001 Holmgren Way", "address2": "", "address3": "", "city": "Green Bay", "zip_code": "54304", "country": "US", "state": "WI", "display_address": ["2001 Holmgren Way", "Green Bay, WI 54304"]}, "phone": "+19204999989", "display_phone": "(920) 499-9989", "distance": 917.3719830440349}, {"id": "0W3rgnHqzXPkm6lOMxezEQ", "alias": "buffalo-wild-wings-ashwaubenon", "name": "Buffalo Wild Wings", "image_url": "https://s3-media1.fl.yelpcdn.com/bphoto/PVR6UOR0wxIA6B1UCUzX6A/o.jpg", "is_closed": false, "url": "https://www.yelp.com/biz/buffalo-wild-wings-ashwaubenon?adjust_creative=a2JdNtFqB-C38ga_06BHvw&utm_campaign=yelp_api_v3&utm_medium=api_v3_business_search&utm_source=a2JdNtFqB-C38ga_06BHvw", "review_count": 42, "categories": [{"alias": "tradamerican", "title": "American (Traditional)"}, {"alias": "sportsbars", "title": "Sports Bars"}, {"alias": "chicken_wings", "title": "Chicken Wings"}], "rating": 3.0, "coordinates": {"latitude": 44.495007, "longitude": -88.060377}, "transactions": ["delivery"], "price": "$$", "location": {"address1": "2101 South Oneida St", "address2": "Ste 100", "address3": "", "city": "Ashwaubenon", "zip_code": "54304", "country": "US", "state": "WI", "display_address": ["2101 South Oneida St", "Ste 100", "Ashwaubenon, WI 54304"]}, "phone": "+19204299464", "display_phone": "(920) 429-9464", "distance": 724.5751309680802}, {"id": "3QW2hEl_ktYg4bDXBGiibw", "alias": "noodles-and-company-green-bay", "name": "Noodles & Company", "image_url": "https://s3-media2.fl.yelpcdn.com/bphoto/bA6F7RkL9upf0V_YicB6dw/o.jpg", "is_closed": false, "url": "https://www.yelp.com/biz/noodles-and-company-green-bay?adjust_creative=a2JdNtFqB-C38ga_06BHvw&utm_campaign=yelp_api_v3&utm_medium=api_v3_business_search&utm_source=a2JdNtFqB-C38ga_06BHvw", "review_count": 32, "categories": [{"alias": "salad", "title": "Salad"}, {"alias": "noodles", "title": "Noodles"}, {"alias": "pastashops", "title": "Pasta Shops"}], "rating": 3.0, "coordinates": {"latitude": 44.477328, "longitude": -88.07249}, "transactions": [], "price": "$", "location": {"address1": "2665 S Oneida St", "address2": "", "address3": "", "city": "Green Bay", "zip_code": "54303", "country": "US", "state": "WI", "display_address": ["2665 S Oneida St", "Green Bay, WI 54303"]}, "phone": "+19204908600", "display_phone": "(920) 490-8600", "distance": 2796.69238982675}, {"id": "zYKUa69z1Ry24a6EQlmy5Q", "alias": "panera-bread-green-bay", "name": "Panera Bread", "image_url": "https://s3-media3.fl.yelpcdn.com/bphoto/ZzyvkGrt5Yw3RLV3dUspDw/o.jpg", "is_closed": false, "url": "https://www.yelp.com/biz/panera-bread-green-bay?adjust_creative=a2JdNtFqB-C38ga_06BHvw&utm_campaign=yelp_api_v3&utm_medium=api_v3_business_search&utm_source=a2JdNtFqB-C38ga_06BHvw", "review_count": 42, "categories": [{"alias": "sandwiches", "title": "Sandwiches"}, {"alias": "salad", "title": "Salad"}, {"alias": "soup", "title": "Soup"}], "rating": 3.0, "coordinates": {"latitude": 44.4788527, "longitude": -88.0717855}, "transactions": ["pickup", "delivery"], "price": "$$", "location": {"address1": "2627 S Oneida St", "address2": "", "address3": "", "city": "Green Bay", "zip_code": "54304", "country": "US", "state": "WI", "display_address": ["2627 S Oneida St", "Green Bay, WI 54304"]}, "phone": "+19204912443", "display_phone": "(920) 491-2443", "distance": 2618.227870132874}, {"id": "r79LKYNwPistvPjMeacXNg", "alias": "red-lobster-ashwaubenon", "name": "Red Lobster", "image_url": "https://s3-media4.fl.yelpcdn.com/bphoto/bhvRlHG3CyWEojvBbvFxbw/o.jpg", "is_closed": false, "url": "https://www.yelp.com/biz/red-lobster-ashwaubenon?adjust_creative=a2JdNtFqB-C38ga_06BHvw&utm_campaign=yelp_api_v3&utm_medium=api_v3_business_search&utm_source=a2JdNtFqB-C38ga_06BHvw", "review_count": 44, "categories": [{"alias": "seafood", "title": "Seafood"}, {"alias": "tradamerican", "title": "American (Traditional)"}], "rating": 3.0, "coordinates": {"latitude": 44.506463, "longitude": -88.073549}, "transactions": ["pickup", "delivery"], "price": "$$", "location": {"address1": "1251 Lombardi Access Rd", "address2": "NEAR TITLETOWN DISTRICT", "address3": "", "city": "Ashwaubenon", "zip_code": "54304", "country": "US", "state": "WI", "display_address": ["1251 Lombardi Access Rd", "NEAR TITLETOWN DISTRICT", "Ashwaubenon, WI 54304"]}, "phone": "+19204971505", "display_phone": "(920) 497-1505", "distance": 1060.7700426603135}, {"id": "nsKDiSzAGDoPLVu3AcXI7g", "alias": "qdoba-mexican-eats-green-bay-2", "name": "QDOBA Mexican Eats", "image_url": "https://s3-media3.fl.yelpcdn.com/bphoto/vesrE6PbloF6FEluof8p7g/o.jpg", "is_closed": false, "url": "https://www.yelp.com/biz/qdoba-mexican-eats-green-bay-2?adjust_creative=a2JdNtFqB-C38ga_06BHvw&utm_campaign=yelp_api_v3&utm_medium=api_v3_business_search&utm_source=a2JdNtFqB-C38ga_06BHvw", "review_count": 16, "categories": [{"alias": "mexican", "title": "Mexican"}, {"alias": "hotdogs", "title": "Fast Food"}], "rating": 3.5, "coordinates": {"latitude": 44.4840306888593, "longitude": -88.0695621371433}, "transactions": ["delivery"], "price": "$$", "location": {"address1": "2476 S Oneida St", "address2": "", "address3": "", "city": "Green Bay", "zip_code": "54304", "country": "US", "state": "WI", "display_address": ["2476 S Oneida St", "Green Bay, WI 54304"]}, "phone": "+19209650602", "display_phone": "(920) 965-0602", "distance": 2016.0533894348512}, {"id": "JUH_rE21ToMVjHdB3SLUvg", "alias": "wingstop-green-bay-2", "name": "Wingstop", "image_url": "https://s3-media3.fl.yelpcdn.com/bphoto/BfY5NmDyDtGaRvpiiwRaxQ/o.jpg", "is_closed": false, "url": "https://www.yelp.com/biz/wingstop-green-bay-2?adjust_creative=a2JdNtFqB-C38ga_06BHvw&utm_campaign=yelp_api_v3&utm_medium=api_v3_business_search&utm_source=a2JdNtFqB-C38ga_06BHvw", "review_count": 22, "categories": [{"alias": "chicken_wings", "title": "Chicken Wings"}], "rating": 3.5, "coordinates": {"latitude": 44.479258, "longitude": -88.073046}, "transactions": ["pickup", "delivery"], "location": {"address1": "2626 S Oneida St", "address2": null, "address3": null, "city": "Green Bay", "zip_code": "54304", "country": "US", "state": "WI", "display_address": ["2626 S Oneida St", "Green Bay, WI 54304"]}, "phone": "+19204898095", "display_phone": "(920) 489-8095", "distance": 2599.6069617645207}, {"id": "HLhfkO62KrjodAkVmRgEFQ", "alias": "papa-murphys-green-bay-2", "name": "Papa Murphy's", "image_url": "https://s3-media3.fl.yelpcdn.com/bphoto/_ThCY7TlYU9RMw_LnL3pPA/o.jpg", "is_closed": false, "url": "https://www.yelp.com/biz/papa-murphys-green-bay-2?adjust_creative=a2JdNtFqB-C38ga_06BHvw&utm_campaign=yelp_api_v3&utm_medium=api_v3_business_search&utm_source=a2JdNtFqB-C38ga_06BHvw", "review_count": 6, "categories": [{"alias": "pizza", "title": "Pizza"}], "rating": 4.5, "coordinates": {"latitude": 44.522205, "longitude": -88.060878}, "transactions": [], "location": {"address1": "1487 W Mason St", "address2": "", "address3": "", "city": "Green Bay", "zip_code": "54303", "country": "US", "state": "WI", "display_address": ["1487 W Mason St", "Green Bay, WI 54303"]}, "phone": "+19204970202", "display_phone": "(920) 497-0202", "distance": 2317.0831027409663}, {"id": "WwO1NwJ2sf4hnX_etLS__A", "alias": "golden-corral-buffet-and-grill-green-bay", "name": "Golden Corral Buffet and Grill", "image_url": "https://s3-media3.fl.yelpcdn.com/bphoto/kvJZewjj3CFHfkyUwzTB7w/o.jpg", "is_closed": false, "url": "https://www.yelp.com/biz/golden-corral-buffet-and-grill-green-bay?adjust_creative=a2JdNtFqB-C38ga_06BHvw&utm_campaign=yelp_api_v3&utm_medium=api_v3_business_search&utm_source=a2JdNtFqB-C38ga_06BHvw", "review_count": 21, "categories": [{"alias": "buffets", "title": "Buffets"}, {"alias": "tradamerican", "title": "American (Traditional)"}], "rating": 3.5, "coordinates": {"latitude": 44.478954, "longitude": -88.067784}, "transactions": [], "price": "$$", "location": {"address1": "2590 Holmgren Way", "address2": "Ste 1", "address3": null, "city": "Green Bay", "zip_code": "54304", "country": "US", "state": "WI", "display_address": ["2590 Holmgren Way", "Ste 1", "Green Bay, WI 54304"]}, "phone": "+19208849480", "display_phone": "(920) 884-9480", "distance": 2526.0511495236315}, {"id": "667rDxDdI49MkhNdO2Qhpg", "alias": "los-banditos-green-bay", "name": "Los Banditos", "image_url": "https://s3-media3.fl.yelpcdn.com/bphoto/20Srrye_C98Ec35LXhhNFA/o.jpg", "is_closed": false, "url": "https://www.yelp.com/biz/los-banditos-green-bay?adjust_creative=a2JdNtFqB-C38ga_06BHvw&utm_campaign=yelp_api_v3&utm_medium=api_v3_business_search&utm_source=a2JdNtFqB-C38ga_06BHvw", "review_count": 57, "categories": [{"alias": "mexican", "title": "Mexican"}, {"alias": "newamerican", "title": "American (New)"}], "rating": 3.0, "coordinates": {"latitude": 44.52303, "longitude": -88.08785}, "transactions": ["delivery"], "price": "$$", "location": {"address1": "2335 W Mason St", "address2": "", "address3": "", "city": "Green Bay", "zip_code": "54303", "country": "US", "state": "WI", "display_address": ["2335 W Mason St", "Green Bay, WI 54303"]}, "phone": "+19204944505", "display_phone": "(920) 494-4505", "distance": 3188.972101106425}, {"id": "bGiQhBQZluYJ8_de_XbQHg", "alias": "chilis-green-bay-3", "name": "Chili's", "image_url": "https://s3-media3.fl.yelpcdn.com/bphoto/vNIkpCftAgowezOHt6u7xg/o.jpg", "is_closed": false, "url": "https://www.yelp.com/biz/chilis-green-bay-3?adjust_creative=a2JdNtFqB-C38ga_06BHvw&utm_campaign=yelp_api_v3&utm_medium=api_v3_business_search&utm_source=a2JdNtFqB-C38ga_06BHvw", "review_count": 33, "categories": [{"alias": "bars", "title": "Bars"}, {"alias": "tex-mex", "title": "Tex-Mex"}, {"alias": "tradamerican", "title": "American (Traditional)"}], "rating": 3.0, "coordinates": {"latitude": 44.5235653409216, "longitude": -88.0889186351234}, "transactions": [], "price": "$$", "location": {"address1": "2363 W Mason St", "address2": "", "address3": "", "city": "Green Bay", "zip_code": "54303", "country": "US", "state": "WI", "display_address": ["2363 W Mason St", "Green Bay, WI 54303"]}, "phone": "+19204911078", "display_phone": "(920) 491-1078", "distance": 3249.8748859828324}, {"id": "_897fj5MFC9K_5gktlie5A", "alias": "burkels-one-block-over-green-bay", "name": "Burkel's One Block Over", "image_url": "https://s3-media4.fl.yelpcdn.com/bphoto/C5hKAZxtM87Y7G9ZNTFseQ/o.jpg", "is_closed": false, "url": "https://www.yelp.com/biz/burkels-one-block-over-green-bay?adjust_creative=a2JdNtFqB-C38ga_06BHvw&utm_campaign=yelp_api_v3&utm_medium=api_v3_business_search&utm_source=a2JdNtFqB-C38ga_06BHvw", "review_count": 36, "categories": [{"alias": "newamerican", "title": "American (New)"}, {"alias": "sandwiches", "title": "Sandwiches"}, {"alias": "sportsbars", "title": "Sports Bars"}], "rating": 3.0, "coordinates": {"latitude": 44.4965621083975, "longitude": -88.0508454144001}, "transactions": ["delivery"], "price": "$$", "location": {"address1": "1007 Tony Canadeo Run", "address2": "", "address3": "", "city": "Green Bay", "zip_code": "54304", "country": "US", "state": "WI", "display_address": ["1007 Tony Canadeo Run", "Green Bay, WI 54304"]}, "phone": "+19205448367", "display_phone": "(920) 544-8367", "distance": 1106.5442653305124}, {"id": "9ShcAYZGqPCRI8PvsrKhRg", "alias": "jersey-mikes-subs-green-bay", "name": "Jersey Mike's Subs", "image_url": "https://s3-media3.fl.yelpcdn.com/bphoto/PfZ_xMRb6MewomYIiILQLg/o.jpg", "is_closed": false, "url": "https://www.yelp.com/biz/jersey-mikes-subs-green-bay?adjust_creative=a2JdNtFqB-C38ga_06BHvw&utm_campaign=yelp_api_v3&utm_medium=api_v3_business_search&utm_source=a2JdNtFqB-C38ga_06BHvw", "review_count": 25, "categories": [{"alias": "hotdogs", "title": "Fast Food"}, {"alias": "delis", "title": "Delis"}, {"alias": "sandwiches", "title": "Sandwiches"}], "rating": 3.0, "coordinates": {"latitude": 44.4842502624005, "longitude": -88.0701951018524}, "transactions": ["pickup", "delivery"], "price": "$$", "location": {"address1": "2476 South Oneida St", "address2": "", "address3": null, "city": "Green Bay", "zip_code": "54304", "country": "US", "state": "WI", "display_address": ["2476 South Oneida St", "Green Bay, WI 54304"]}, "phone": "+19205445363", "display_phone": "(920) 544-5363", "distance": 2007.9336873669986}, {"id": "xTCVL06GfSEJMbgFLCAO5Q", "alias": "pams-ribs-and-thangs-green-bay", "name": "Pam's Ribs and Thangs", "image_url": "https://s3-media2.fl.yelpcdn.com/bphoto/BMfnVrYMGgeNmGtWUU4Qlg/o.jpg", "is_closed": false, "url": "https://www.yelp.com/biz/pams-ribs-and-thangs-green-bay?adjust_creative=a2JdNtFqB-C38ga_06BHvw&utm_campaign=yelp_api_v3&utm_medium=api_v3_business_search&utm_source=a2JdNtFqB-C38ga_06BHvw", "review_count": 5, "categories": [{"alias": "soulfood", "title": "Soul Food"}, {"alias": "burgers", "title": "Burgers"}, {"alias": "chicken_wings", "title": "Chicken Wings"}], "rating": 4.5, "coordinates": {"latitude": 44.510927596659975, "longitude": -88.02523580421462}, "transactions": ["delivery"], "location": {"address1": "610 S Broadway", "address2": "", "address3": null, "city": "Green Bay", "zip_code": "54303", "country": "US", "state": "WI", "display_address": ["610 S Broadway", "Green Bay, WI 54303"]}, "phone": "+19207705020", "display_phone": "(920) 770-5020", "distance": 3118.9387061740663}, {"id": "ygDGGwjpC-AeTaRUFslPnA", "alias": "scoreboard-grille-green-bay", "name": "Scoreboard Grille", "image_url": "https://s3-media4.fl.yelpcdn.com/bphoto/6y9vwLYBGdXgjK1qdHKO_g/o.jpg", "is_closed": false, "url": "https://www.yelp.com/biz/scoreboard-grille-green-bay?adjust_creative=a2JdNtFqB-C38ga_06BHvw&utm_campaign=yelp_api_v3&utm_medium=api_v3_business_search&utm_source=a2JdNtFqB-C38ga_06BHvw", "review_count": 9, "categories": [{"alias": "tradamerican", "title": "American (Traditional)"}, {"alias": "sportsbars", "title": "Sports Bars"}], "rating": 4.0, "coordinates": {"latitude": 44.52361, "longitude": -88.09514}, "transactions": ["delivery"], "price": "$", "location": {"address1": "2511 W Mason St", "address2": "", "address3": "", "city": "Green Bay", "zip_code": "54303", "country": "US", "state": "WI", "display_address": ["2511 W Mason St", "Green Bay, WI 54303"]}, "phone": "+19207705586", "display_phone": "(920) 770-5586", "distance": 3585.315544501336}, {"id": "4OKZpcaleGVcwmATOyo7kw", "alias": "w-xyz-bar-green-bay", "name": "W XYZ Bar", "image_url": "https://s3-media2.fl.yelpcdn.com/bphoto/0wLYY6PGBQBfF2-mK0nI7w/o.jpg", "is_closed": false, "url": "https://www.yelp.com/biz/w-xyz-bar-green-bay?adjust_creative=a2JdNtFqB-C38ga_06BHvw&utm_campaign=yelp_api_v3&utm_medium=api_v3_business_search&utm_source=a2JdNtFqB-C38ga_06BHvw", "review_count": 9, "categories": [{"alias": "venues", "title": "Venues & Event Spaces"}, {"alias": "tapasmallplates", "title": "Tapas/Small Plates"}, {"alias": "cocktailbars", "title": "Cocktail Bars"}], "rating": 4.0, "coordinates": {"latitude": 44.47846, "longitude": -88.05298}, "transactions": [], "price": "$$", "location": {"address1": "465 Pilgrim Way", "address2": "Aloft Green Bay", "address3": "", "city": "Green Bay", "zip_code": "54304", "country": "US", "state": "WI", "display_address": ["465 Pilgrim Way", "Aloft Green Bay", "Green Bay, WI 54304"]}, "phone": "+19208840800", "display_phone": "(920) 884-0800", "distance": 2659.979877187364}, {"id": "8At8FlaPlrnVw2XAE-U0KA", "alias": "mayflower-restaurant-green-bay", "name": "Mayflower Restaurant", "image_url": "https://s3-media2.fl.yelpcdn.com/bphoto/nVCFdbBplHqCUO50gJ7jWw/o.jpg", "is_closed": false, "url": "https://www.yelp.com/biz/mayflower-restaurant-green-bay?adjust_creative=a2JdNtFqB-C38ga_06BHvw&utm_campaign=yelp_api_v3&utm_medium=api_v3_business_search&utm_source=a2JdNtFqB-C38ga_06BHvw", "review_count": 30, "categories": [{"alias": "chinese", "title": "Chinese"}], "rating": 3.0, "coordinates": {"latitude": 44.5259208679199, "longitude": -88.0631713867188}, "transactions": ["delivery"], "price": "$", "location": {"address1": "414 S Military Ave", "address2": "", "address3": "", "city": "Green Bay", "zip_code": "54303", "country": "US", "state": "WI", "display_address": ["414 S Military Ave", "Green Bay, WI 54303"]}, "phone": "+19204963083", "display_phone": "(920) 496-3083", "distance": 2727.768436002104}, {"id": "V0jFiwYaAw-wQqsV7Os4Rg", "alias": "taqueria-maldonados-green-bay", "name": "Taqueria Maldonados", "image_url": "https://s3-media4.fl.yelpcdn.com/bphoto/92f5Y5353CpJ3FWm3l6nfQ/o.jpg", "is_closed": false, "url": "https://www.yelp.com/biz/taqueria-maldonados-green-bay?adjust_creative=a2JdNtFqB-C38ga_06BHvw&utm_campaign=yelp_api_v3&utm_medium=api_v3_business_search&utm_source=a2JdNtFqB-C38ga_06BHvw", "review_count": 7, "categories": [{"alias": "mexican", "title": "Mexican"}], "rating": 4.0, "coordinates": {"latitude": 44.484657, "longitude": -88.066078}, "transactions": ["delivery"], "location": {"address1": "303 Bay Park Sq", "address2": "", "address3": "", "city": "Green Bay", "zip_code": "54313", "country": "US", "state": "WI", "display_address": ["303 Bay Park Sq", "Green Bay, WI 54313"]}, "phone": "+19204997388", "display_phone": "(920) 499-7388", "distance": 1885.4840515594624}, {"id": "YNQRq9RzLmoqi175iyct2g", "alias": "honey-baked-ham-company-green-bay", "name": "Honey Baked Ham Company", "image_url": "https://s3-media1.fl.yelpcdn.com/bphoto/RRKHf31SucN-KmM-TLTVbA/o.jpg", "is_closed": false, "url": "https://www.yelp.com/biz/honey-baked-ham-company-green-bay?adjust_creative=a2JdNtFqB-C38ga_06BHvw&utm_campaign=yelp_api_v3&utm_medium=api_v3_business_search&utm_source=a2JdNtFqB-C38ga_06BHvw", "review_count": 7, "categories": [{"alias": "meats", "title": "Meat Shops"}, {"alias": "sandwiches", "title": "Sandwiches"}, {"alias": "delis", "title": "Delis"}], "rating": 4.0, "coordinates": {"latitude": 44.485142, "longitude": -88.0709}, "transactions": ["delivery"], "location": {"address1": "933 Anderson Dr", "address2": "Ste A-B", "address3": "", "city": "Green Bay", "zip_code": "54304", "country": "US", "state": "WI", "display_address": ["933 Anderson Dr", "Ste A-B", "Green Bay, WI 54304"]}, "phone": "+19205929995", "display_phone": "(920) 592-9995", "distance": 1935.7524138222966}, {"id": "nnn7aiMbUTGleXgL6kEJig", "alias": "urban-80-green-bay", "name": "Urban 80", "image_url": "https://s3-media2.fl.yelpcdn.com/bphoto/6az96PWCmrcT1pl0haMbHA/o.jpg", "is_closed": false, "url": "https://www.yelp.com/biz/urban-80-green-bay?adjust_creative=a2JdNtFqB-C38ga_06BHvw&utm_campaign=yelp_api_v3&utm_medium=api_v3_business_search&utm_source=a2JdNtFqB-C38ga_06BHvw", "review_count": 8, "categories": [{"alias": "newamerican", "title": "American (New)"}, {"alias": "bars", "title": "Bars"}], "rating": 4.0, "coordinates": {"latitude": 44.47619, "longitude": -88.07796}, "transactions": ["delivery"], "location": {"address1": "2750 Ramada Way", "address2": "", "address3": null, "city": "Green Bay", "zip_code": "54304", "country": "US", "state": "WI", "display_address": ["2750 Ramada Way", "Green Bay, WI 54304"]}, "phone": "", "display_phone": "", "distance": 3065.8671730900755}, {"id": "qpCk4Xp5ur-UKLndhKN7KQ", "alias": "taco-town-green-bay", "name": "Taco Town", "image_url": "https://s3-media1.fl.yelpcdn.com/bphoto/GnwZRvaAZlRhYBA3KWlzpg/o.jpg", "is_closed": false, "url": "https://www.yelp.com/biz/taco-town-green-bay?adjust_creative=a2JdNtFqB-C38ga_06BHvw&utm_campaign=yelp_api_v3&utm_medium=api_v3_business_search&utm_source=a2JdNtFqB-C38ga_06BHvw", "review_count": 8, "categories": [{"alias": "tacos", "title": "Tacos"}], "rating": 4.0, "coordinates": {"latitude": 44.5146889097325, "longitude": -88.0375027656555}, "transactions": ["delivery"], "location": {"address1": "958 W Mason St", "address2": "", "address3": null, "city": "Green Bay", "zip_code": "54303", "country": "US", "state": "WI", "display_address": ["958 W Mason St", "Green Bay, WI 54303"]}, "phone": "+19206342909", "display_phone": "(920) 634-2909", "distance": 2455.5030575322708}, {"id": "PXOGFn7PpH2ggMWJopJsBw", "alias": "culvers-green-bay-4", "name": "Culver's", "image_url": "https://s3-media1.fl.yelpcdn.com/bphoto/foDRbdRX2PSaJmLm1ZDjVg/o.jpg", "is_closed": false, "url": "https://www.yelp.com/biz/culvers-green-bay-4?adjust_creative=a2JdNtFqB-C38ga_06BHvw&utm_campaign=yelp_api_v3&utm_medium=api_v3_business_search&utm_source=a2JdNtFqB-C38ga_06BHvw", "review_count": 18, "categories": [{"alias": "burgers", "title": "Burgers"}, {"alias": "hotdogs", "title": "Fast Food"}, {"alias": "icecream", "title": "Ice Cream & Frozen Yogurt"}], "rating": 3.0, "coordinates": {"latitude": 44.5180015563965, "longitude": -88.049097}, "transactions": ["delivery"], "price": "$", "location": {"address1": "1219 W Mason St", "address2": "", "address3": "", "city": "Green Bay", "zip_code": "54303", "country": "US", "state": "WI", "display_address": ["1219 W Mason St", "Green Bay, WI 54303"]}, "phone": "+19204979527", "display_phone": "(920) 497-9527", "distance": 2120.2487919424766}, {"id": "AY4fChpxicndlSPKka8G_A", "alias": "bourbon-street-bar-green-bay", "name": "Bourbon Street Bar", "image_url": "https://s3-media2.fl.yelpcdn.com/bphoto/ZK0XQxUaKUr5hxRO2ubo7w/o.jpg", "is_closed": false, "url": "https://www.yelp.com/biz/bourbon-street-bar-green-bay?adjust_creative=a2JdNtFqB-C38ga_06BHvw&utm_campaign=yelp_api_v3&utm_medium=api_v3_business_search&utm_source=a2JdNtFqB-C38ga_06BHvw", "review_count": 11, "categories": [{"alias": "beer_and_wine", "title": "Beer, Wine & Spirits"}, {"alias": "burgers", "title": "Burgers"}], "rating": 3.5, "coordinates": {"latitude": 44.5090179, "longitude": -88.0259118}, "transactions": ["pickup", "delivery"], "location": {"address1": "821 S Broadway St", "address2": "", "address3": "", "city": "Green Bay", "zip_code": "54304", "country": "US", "state": "WI", "display_address": ["821 S Broadway St", "Green Bay, WI 54304"]}, "phone": "+19204329739", "display_phone": "(920) 432-9739", "distance": 2982.510855626471}, {"id": "zAURDj6jAXEY4Bz39FdSNw", "alias": "culvers-green-bay", "name": "Culver's", "image_url": "https://s3-media3.fl.yelpcdn.com/bphoto/_o3jKWpSzVrFwlkinUizWg/o.jpg", "is_closed": false, "url": "https://www.yelp.com/biz/culvers-green-bay?adjust_creative=a2JdNtFqB-C38ga_06BHvw&utm_campaign=yelp_api_v3&utm_medium=api_v3_business_search&utm_source=a2JdNtFqB-C38ga_06BHvw", "review_count": 21, "categories": [{"alias": "burgers", "title": "Burgers"}, {"alias": "hotdogs", "title": "Fast Food"}, {"alias": "icecream", "title": "Ice Cream & Frozen Yogurt"}], "rating": 3.0, "coordinates": {"latitude": 44.4761047363281, "longitude": -88.0761337280273}, "transactions": ["delivery"], "price": "$", "location": {"address1": "909 Hansen Rd", "address2": "", "address3": "", "city": "Green Bay", "zip_code": "54304", "country": "US", "state": "WI", "display_address": ["909 Hansen Rd", "Green Bay, WI 54304"]}, "phone": "+19204050735", "display_phone": "(920) 405-0735", "distance": 3020.3032727265836}, {"id": "cnWR2soWRrctp0NZ_cVKzQ", "alias": "ihop-green-bay", "name": "IHOP", "image_url": "https://s3-media1.fl.yelpcdn.com/bphoto/jlkeMgp_xN8vTUc_JZmERQ/o.jpg", "is_closed": false, "url": "https://www.yelp.com/biz/ihop-green-bay?adjust_creative=a2JdNtFqB-C38ga_06BHvw&utm_campaign=yelp_api_v3&utm_medium=api_v3_business_search&utm_source=a2JdNtFqB-C38ga_06BHvw", "review_count": 23, "categories": [{"alias": "breakfast_brunch", "title": "Breakfast & Brunch"}, {"alias": "tradamerican", "title": "American (Traditional)"}, {"alias": "burgers", "title": "Burgers"}], "rating": 3.0, "coordinates": {"latitude": 44.4856, "longitude": -88.06727}, "transactions": ["pickup", "delivery"], "price": "$$", "location": {"address1": "2415 S Oneida St", "address2": "", "address3": "", "city": "Green Bay", "zip_code": "54304", "country": "US", "state": "WI", "display_address": ["2415 S Oneida St", "Green Bay, WI 54304"]}, "phone": "+19204991460", "display_phone": "(920) 499-1460", "distance": 1800.7342830970151}, {"id": "nGGvHp2LMsECTckfyy31EA", "alias": "leaps-and-bounds-caf-ashwaubenon", "name": "Leaps & Bounds Caf", "image_url": "https://s3-media4.fl.yelpcdn.com/bphoto/XyCJoEfe55iIvIlPHvn3bQ/o.jpg", "is_closed": false, "url": "https://www.yelp.com/biz/leaps-and-bounds-caf%C3%A9-ashwaubenon?adjust_creative=a2JdNtFqB-C38ga_06BHvw&utm_campaign=yelp_api_v3&utm_medium=api_v3_business_search&utm_source=a2JdNtFqB-C38ga_06BHvw", "review_count": 10, "categories": [{"alias": "tradamerican", "title": "American (Traditional)"}, {"alias": "cafes", "title": "Cafes"}, {"alias": "wine_bars", "title": "Wine Bars"}], "rating": 3.5, "coordinates": {"latitude": 44.5021143124359, "longitude": -88.0650005123032}, "transactions": ["delivery"], "location": {"address1": "1950 S Ridge Rd", "address2": "", "address3": null, "city": "Ashwaubenon", "zip_code": "54304", "country": "US", "state": "WI", "display_address": ["1950 S Ridge Rd", "Ashwaubenon, WI 54304"]}, "phone": "+19203274610", "display_phone": "(920) 327-4610", "distance": 234.65199048561578}, {"id": "p7fOFIqME6BAZ_S7XJZUiw", "alias": "el-dorado-restaurant-green-bay-2", "name": "EL DORADO RESTAURANT", "image_url": "https://s3-media4.fl.yelpcdn.com/bphoto/gIWmkq3Nc0CQUw7SIeiQ9g/o.jpg", "is_closed": false, "url": "https://www.yelp.com/biz/el-dorado-restaurant-green-bay-2?adjust_creative=a2JdNtFqB-C38ga_06BHvw&utm_campaign=yelp_api_v3&utm_medium=api_v3_business_search&utm_source=a2JdNtFqB-C38ga_06BHvw", "review_count": 6, "categories": [{"alias": "mexican", "title": "Mexican"}], "rating": 4.0, "coordinates": {"latitude": 44.51389, "longitude": -88.03631}, "transactions": ["pickup", "delivery"], "location": {"address1": "923 W Mason St", "address2": null, "address3": "", "city": "Green Bay", "zip_code": "54303", "country": "US", "state": "WI", "display_address": ["923 W Mason St", "Green Bay, WI 54303"]}, "phone": "+19208788226", "display_phone": "(920) 878-8226", "distance": 2484.3438072034137}, {"id": "h9TvOIDJRdz7_TIZV9PPnA", "alias": "moes-southwest-grill-green-bay", "name": "Moe's Southwest Grill", "image_url": "https://s3-media2.fl.yelpcdn.com/bphoto/1C99wi8vjn3jccz6FKTFfQ/o.jpg", "is_closed": false, "url": "https://www.yelp.com/biz/moes-southwest-grill-green-bay?adjust_creative=a2JdNtFqB-C38ga_06BHvw&utm_campaign=yelp_api_v3&utm_medium=api_v3_business_search&utm_source=a2JdNtFqB-C38ga_06BHvw", "review_count": 29, "categories": [{"alias": "mexican", "title": "Mexican"}, {"alias": "tex-mex", "title": "Tex-Mex"}], "rating": 2.5, "coordinates": {"latitude": 44.49492, "longitude": -88.0604199}, "transactions": ["delivery"], "price": "$", "location": {"address1": "2101 South Oneida St", "address2": "Ste 200", "address3": "", "city": "Green Bay", "zip_code": "54303", "country": "US", "state": "WI", "display_address": ["2101 South Oneida St", "Ste 200", "Green Bay, WI 54303"]}, "phone": "+19209650022", "display_phone": "(920) 965-0022", "distance": 726.2253649472071}, {"id": "rS4N7tjXaQRELFcHR46U0A", "alias": "asia-wok-green-bay", "name": "Asia Wok", "image_url": "https://s3-media1.fl.yelpcdn.com/bphoto/6kkuhB7tIR0GrEBiRet2Jw/o.jpg", "is_closed": false, "url": "https://www.yelp.com/biz/asia-wok-green-bay?adjust_creative=a2JdNtFqB-C38ga_06BHvw&utm_campaign=yelp_api_v3&utm_medium=api_v3_business_search&utm_source=a2JdNtFqB-C38ga_06BHvw", "review_count": 13, "categories": [{"alias": "asianfusion", "title": "Asian Fusion"}], "rating": 3.0, "coordinates": {"latitude": 44.488325, "longitude": -88.06518}, "transactions": ["delivery"], "price": "$$", "location": {"address1": "2321 S Oneida St", "address2": "", "address3": "", "city": "Green Bay", "zip_code": "54304", "country": "US", "state": "WI", "display_address": ["2321 S Oneida St", "Green Bay, WI 54304"]}, "phone": "+19204988835", "display_phone": "(920) 498-8835", "distance": 1471.4737140304444}, {"id": "Ml6EabeyfKj-BiTjvBLT_A", "alias": "wharf-and-marrow-green-bay", "name": "Wharf & Marrow", "image_url": "https://s3-media3.fl.yelpcdn.com/bphoto/-4wiBX9mU-eQXy4qhc87NA/o.jpg", "is_closed": false, "url": "https://www.yelp.com/biz/wharf-and-marrow-green-bay?adjust_creative=a2JdNtFqB-C38ga_06BHvw&utm_campaign=yelp_api_v3&utm_medium=api_v3_business_search&utm_source=a2JdNtFqB-C38ga_06BHvw", "review_count": 4, "categories": [{"alias": "foodtrucks", "title": "Food Trucks"}, {"alias": "newamerican", "title": "American (New)"}, {"alias": "seafood", "title": "Seafood"}], "rating": 4.5, "coordinates": {"latitude": 44.4974133783203, "longitude": -88.050630570253}, "transactions": [], "location": {"address1": null, "address2": null, "address3": null, "city": "Green Bay", "zip_code": "54304", "country": "US", "state": "WI", "display_address": ["Green Bay, WI 54304"]}, "phone": "+19203273679", "display_phone": "(920) 327-3679", "distance": 1020.0876767863846}, {"id": "2Kt6peR_EVuoUcoQAc3F0Q", "alias": "lucky-7s-bar-and-grill-green-bay", "name": "Lucky 7's Bar & Grill", "image_url": "https://s3-media3.fl.yelpcdn.com/bphoto/mUjCQnOAOVl-4ZxFASDIlg/o.jpg", "is_closed": false, "url": "https://www.yelp.com/biz/lucky-7s-bar-and-grill-green-bay?adjust_creative=a2JdNtFqB-C38ga_06BHvw&utm_campaign=yelp_api_v3&utm_medium=api_v3_business_search&utm_source=a2JdNtFqB-C38ga_06BHvw", "review_count": 3, "categories": [{"alias": "restaurants", "title": "Restaurants"}], "rating": 4.5, "coordinates": {"latitude": 44.5020218, "longitude": -88.0306625}, "transactions": [], "price": "$", "location": {"address1": "1313 S Broadway", "address2": "", "address3": "", "city": "Green Bay", "zip_code": "54304", "country": "US", "state": "WI", "display_address": ["1313 S Broadway", "Green Bay, WI 54304"]}, "phone": "+19204307777", "display_phone": "(920) 430-7777", "distance": 2494.1255926605186}, {"id": "cTIHd3xnUGx7B1SRMMCPCw", "alias": "el-dorado-mexican-restaurant-green-bay", "name": "El Dorado Mexican Restaurant", "image_url": "https://s3-media2.fl.yelpcdn.com/bphoto/HPIWOSZbHfZib8Y0-9ub5g/o.jpg", "is_closed": false, "url": "https://www.yelp.com/biz/el-dorado-mexican-restaurant-green-bay?adjust_creative=a2JdNtFqB-C38ga_06BHvw&utm_campaign=yelp_api_v3&utm_medium=api_v3_business_search&utm_source=a2JdNtFqB-C38ga_06BHvw", "review_count": 8, "categories": [{"alias": "mexican", "title": "Mexican"}], "rating": 3.5, "coordinates": {"latitude": 44.51389, "longitude": -88.03631}, "transactions": ["delivery"], "location": {"address1": "923 W Mason St", "address2": null, "address3": "", "city": "Green Bay", "zip_code": "54303", "country": "US", "state": "WI", "display_address": ["923 W Mason St", "Green Bay, WI 54303"]}, "phone": "+19208788226", "display_phone": "(920) 878-8226", "distance": 2484.3438072034137}, {"id": "Ejmd9miXgEYZzw8vNmB8sw", "alias": "big-apple-bagels-ashwaubenon", "name": "Big Apple Bagels", "image_url": "", "is_closed": false, "url": "https://www.yelp.com/biz/big-apple-bagels-ashwaubenon?adjust_creative=a2JdNtFqB-C38ga_06BHvw&utm_campaign=yelp_api_v3&utm_medium=api_v3_business_search&utm_source=a2JdNtFqB-C38ga_06BHvw", "review_count": 4, "categories": [{"alias": "bagels", "title": "Bagels"}, {"alias": "breakfast_brunch", "title": "Breakfast & Brunch"}, {"alias": "sandwiches", "title": "Sandwiches"}], "rating": 4.0, "coordinates": {"latitude": 44.48834, "longitude": -88.06519}, "transactions": ["delivery"], "price": "$", "location": {"address1": "2321 S. Oneida St.", "address2": "#10", "address3": "", "city": "Ashwaubenon", "zip_code": "54304", "country": "US", "state": "WI", "display_address": ["2321 S. Oneida St.", "#10", "Ashwaubenon, WI 54304"]}, "phone": "+19204976039", "display_phone": "(920) 497-6039", "distance": 1442.2032722500146}, {"id": "pSyGnlPjUBUvC5DMzc-uzQ", "alias": "nori-japan-ashwaubenon", "name": "Nori Japan", "image_url": "https://s3-media2.fl.yelpcdn.com/bphoto/VLhBPt5mLWp2pTwhv1ujcg/o.jpg", "is_closed": false, "url": "https://www.yelp.com/biz/nori-japan-ashwaubenon?adjust_creative=a2JdNtFqB-C38ga_06BHvw&utm_campaign=yelp_api_v3&utm_medium=api_v3_business_search&utm_source=a2JdNtFqB-C38ga_06BHvw", "review_count": 4, "categories": [{"alias": "japanese", "title": "Japanese"}], "rating": 4.0, "coordinates": {"latitude": 44.4845981, "longitude": -88.0676983}, "transactions": ["pickup", "delivery"], "location": {"address1": "210 Bay Park Sq", "address2": "", "address3": "", "city": "Ashwaubenon", "zip_code": "54304", "country": "US", "state": "WI", "display_address": ["210 Bay Park Sq", "Ashwaubenon, WI 54304"]}, "phone": "", "display_phone": "", "distance": 1916.9242917087795}, {"id": "9oaY1o9w8sc0LYZOX5983Q", "alias": "pizza-ranch-ashwaubenon", "name": "Pizza Ranch", "image_url": "https://s3-media4.fl.yelpcdn.com/bphoto/5gpWic578coytc6pJhjSQQ/o.jpg", "is_closed": false, "url": "https://www.yelp.com/biz/pizza-ranch-ashwaubenon?adjust_creative=a2JdNtFqB-C38ga_06BHvw&utm_campaign=yelp_api_v3&utm_medium=api_v3_business_search&utm_source=a2JdNtFqB-C38ga_06BHvw", "review_count": 3, "categories": [{"alias": "pizza", "title": "Pizza"}, {"alias": "buffets", "title": "Buffets"}], "rating": 4.5, "coordinates": {"latitude": 44.48722, "longitude": -88.0625}, "transactions": ["pickup", "delivery"], "location": {"address1": "820 Willard Dr", "address2": "Ste 220", "address3": null, "city": "Ashwaubenon", "zip_code": "54304", "country": "US", "state": "WI", "display_address": ["820 Willard Dr", "Ste 220", "Ashwaubenon, WI 54304"]}, "phone": "+19205440046", "display_phone": "(920) 544-0046", "distance": 1593.7442160454752}, {"id": "jtQKBVOpn_YJTcvqPZMqQA", "alias": "d2-sport-pub-stadium-district-green-bay", "name": "D2 Sport Pub Stadium District", "image_url": "https://s3-media2.fl.yelpcdn.com/bphoto/VOGAm3lG-wb7JDD0tBeEag/o.jpg", "is_closed": false, "url": "https://www.yelp.com/biz/d2-sport-pub-stadium-district-green-bay?adjust_creative=a2JdNtFqB-C38ga_06BHvw&utm_campaign=yelp_api_v3&utm_medium=api_v3_business_search&utm_source=a2JdNtFqB-C38ga_06BHvw", "review_count": 13, "categories": [{"alias": "tradamerican", "title": "American (Traditional)"}, {"alias": "pubs", "title": "Pubs"}], "rating": 2.5, "coordinates": {"latitude": 44.498733, "longitude": -88.054418}, "transactions": ["delivery"], "price": "$$", "location": {"address1": "788 Armed Forces Dr", "address2": "", "address3": null, "city": "Green Bay", "zip_code": "54304", "country": "US", "state": "WI", "display_address": ["788 Armed Forces Dr", "Green Bay, WI 54304"]}, "phone": "+19204993110", "display_phone": "(920) 499-3110", "distance": 685.7837605170268}, {"id": "NOAiHxokqxfCYOUYeky_5Q", "alias": "fazolis-green-bay-2", "name": "Fazoli's", "image_url": "https://s3-media4.fl.yelpcdn.com/bphoto/AFkSMgFNxqXOaToYfZXqZQ/o.jpg", "is_closed": false, "url": "https://www.yelp.com/biz/fazolis-green-bay-2?adjust_creative=a2JdNtFqB-C38ga_06BHvw&utm_campaign=yelp_api_v3&utm_medium=api_v3_business_search&utm_source=a2JdNtFqB-C38ga_06BHvw", "review_count": 10, "categories": [{"alias": "italian", "title": "Italian"}], "rating": 3.0, "coordinates": {"latitude": 44.5241862, "longitude": -88.0939591}, "transactions": ["delivery"], "price": "$", "location": {"address1": "2494 W Mason St", "address2": "", "address3": "", "city": "Green Bay", "zip_code": "54303", "country": "US", "state": "WI", "display_address": ["2494 W Mason St", "Green Bay, WI 54303"]}, "phone": "+19205920808", "display_phone": "(920) 592-0808", "distance": 3591.5798868521015}, {"id": "WCrbhpjF_dyclY6lPBpKoQ", "alias": "hometown-cafe-and-catering-green-bay-2", "name": "Hometown Cafe and Catering", "image_url": "https://s3-media3.fl.yelpcdn.com/bphoto/UeQwEXzlJL85lQG1oSigHA/o.jpg", "is_closed": false, "url": "https://www.yelp.com/biz/hometown-cafe-and-catering-green-bay-2?adjust_creative=a2JdNtFqB-C38ga_06BHvw&utm_campaign=yelp_api_v3&utm_medium=api_v3_business_search&utm_source=a2JdNtFqB-C38ga_06BHvw", "review_count": 9, "categories": [{"alias": "italian", "title": "Italian"}, {"alias": "breakfast_brunch", "title": "Breakfast & Brunch"}, {"alias": "mexican", "title": "Mexican"}], "rating": 3.0, "coordinates": {"latitude": 44.522171, "longitude": -88.058907}, "transactions": ["delivery"], "price": "$$", "location": {"address1": "1456 W Mason St", "address2": null, "address3": null, "city": "Green Bay", "zip_code": "54303", "country": "US", "state": "WI", "display_address": ["1456 W Mason St", "Green Bay, WI 54303"]}, "phone": "+14144981054", "display_phone": "(414) 498-1054", "distance": 2335.455682020988}, {"id": "H3D4WrZi_lnH0Xg4Lu8phg", "alias": "papa-johns-pizza-green-bay-2", "name": "Papa John's Pizza", "image_url": "https://s3-media2.fl.yelpcdn.com/bphoto/7z5PZ7FUI4DAJXfRA0cUJQ/o.jpg", "is_closed": false, "url": "https://www.yelp.com/biz/papa-johns-pizza-green-bay-2?adjust_creative=a2JdNtFqB-C38ga_06BHvw&utm_campaign=yelp_api_v3&utm_medium=api_v3_business_search&utm_source=a2JdNtFqB-C38ga_06BHvw", "review_count": 8, "categories": [{"alias": "pizza", "title": "Pizza"}], "rating": 3.0, "coordinates": {"latitude": 44.523002, "longitude": -88.098855}, "transactions": ["delivery"], "price": "$", "location": {"address1": "1111 Packerland Road", "address2": "", "address3": "", "city": "Green Bay", "zip_code": "54304", "country": "US", "state": "WI", "display_address": ["1111 Packerland Road", "Green Bay, WI 54304"]}, "phone": "+19204909200", "display_phone": "(920) 490-9200", "distance": 3771.7779040868363}, {"id": "SkwpVojDVQ_L3xbrygTMpQ", "alias": "applebees-grill-bar-green-bay-2", "name": "Applebee's Grill + Bar", "image_url": "https://s3-media2.fl.yelpcdn.com/bphoto/TDaF2sJeg9LwTFy5Mu07cA/o.jpg", "is_closed": false, "url": "https://www.yelp.com/biz/applebees-grill-bar-green-bay-2?adjust_creative=a2JdNtFqB-C38ga_06BHvw&utm_campaign=yelp_api_v3&utm_medium=api_v3_business_search&utm_source=a2JdNtFqB-C38ga_06BHvw", "review_count": 30, "categories": [{"alias": "tradamerican", "title": "American (Traditional)"}, {"alias": "sportsbars", "title": "Sports Bars"}, {"alias": "burgers", "title": "Burgers"}], "rating": 2.0, "coordinates": {"latitude": 44.476477, "longitude": -88.074908}, "transactions": ["delivery", "pickup"], "price": "$$", "location": {"address1": "900 Hansen Rd", "address2": "", "address3": "", "city": "Green Bay", "zip_code": "54304", "country": "US", "state": "WI", "display_address": ["900 Hansen Rd", "Green Bay, WI 54304"]}, "phone": "+19204969095", "display_phone": "(920) 496-9095", "distance": 2947.208697578231}, {"id": "zc5TAFTiQw2L22kCDe2SGA", "alias": "46-below-green-bay-2", "name": "46 Below", "image_url": "https://s3-media1.fl.yelpcdn.com/bphoto/t78X6CS7rR4P1vhZqlYdAA/o.jpg", "is_closed": false, "url": "https://www.yelp.com/biz/46-below-green-bay-2?adjust_creative=a2JdNtFqB-C38ga_06BHvw&utm_campaign=yelp_api_v3&utm_medium=api_v3_business_search&utm_source=a2JdNtFqB-C38ga_06BHvw", "review_count": 2, "categories": [{"alias": "tradamerican", "title": "American (Traditional)"}], "rating": 4.5, "coordinates": {"latitude": 44.503652, "longitude": -88.066404}, "transactions": ["delivery", "pickup"], "location": {"address1": "1065 Lombardi Ave", "address2": "", "address3": null, "city": "Green Bay", "zip_code": "54304", "country": "US", "state": "WI", "display_address": ["1065 Lombardi Ave", "Green Bay, WI 54304"]}, "phone": "+19205697500", "display_phone": "(920) 569-7500", "distance": 416.3139286395535}, {"id": "9ckRfwuJHhu3B1d7IJE-AA", "alias": "arbys-green-bay-7", "name": "Arby's", "image_url": "https://s3-media3.fl.yelpcdn.com/bphoto/mATIHRDmqEOhb-qz1lx97g/o.jpg", "is_closed": false, "url": "https://www.yelp.com/biz/arbys-green-bay-7?adjust_creative=a2JdNtFqB-C38ga_06BHvw&utm_campaign=yelp_api_v3&utm_medium=api_v3_business_search&utm_source=a2JdNtFqB-C38ga_06BHvw", "review_count": 5, "categories": [{"alias": "hotdogs", "title": "Fast Food"}, {"alias": "sandwiches", "title": "Sandwiches"}], "rating": 3.0, "coordinates": {"latitude": 44.4844589, "longitude": -88.0690384}, "transactions": ["delivery", "pickup"], "price": "$", "location": {"address1": "2456 S Oneida St", "address2": "", "address3": "", "city": "Green Bay", "zip_code": "54304", "country": "US", "state": "WI", "display_address": ["2456 S Oneida St", "Green Bay, WI 54304"]}, "phone": "+19204988182", "display_phone": "(920) 498-8182", "distance": 1956.054502724774}, {"id": "gb6Af9nldVfRejLf6gJHsg", "alias": "chuck-e-cheese-green-bay", "name": "Chuck E. Cheese", "image_url": "https://s3-media2.fl.yelpcdn.com/bphoto/-WDOfeaPJmcOiD3xtCJh0Q/o.jpg", "is_closed": false, "url": "https://www.yelp.com/biz/chuck-e-cheese-green-bay?adjust_creative=a2JdNtFqB-C38ga_06BHvw&utm_campaign=yelp_api_v3&utm_medium=api_v3_business_search&utm_source=a2JdNtFqB-C38ga_06BHvw", "review_count": 6, "categories": [{"alias": "pizza", "title": "Pizza"}, {"alias": "indoor_playcenter", "title": "Indoor Playcentre"}, {"alias": "arcades", "title": "Arcades"}], "rating": 3.0, "coordinates": {"latitude": 44.50654, "longitude": -88.07431}, "transactions": ["delivery", "pickup"], "price": "$$", "location": {"address1": "1273 Lombardi Access", "address2": "", "address3": "", "city": "Green Bay", "zip_code": "54304", "country": "US", "state": "WI", "display_address": ["1273 Lombardi Access", "Green Bay, WI 54304"]}, "phone": "+19204970379", "display_phone": "(920) 497-0379", "distance": 1107.226532329754}, {"id": "7LWIzo2Fkz33m8f0qN0jgw", "alias": "pizza-hut-green-bay-9", "name": "Pizza Hut", "image_url": "https://s3-media2.fl.yelpcdn.com/bphoto/ce9elip-Vf6SW-ii_eMRqA/o.jpg", "is_closed": false, "url": "https://www.yelp.com/biz/pizza-hut-green-bay-9?adjust_creative=a2JdNtFqB-C38ga_06BHvw&utm_campaign=yelp_api_v3&utm_medium=api_v3_business_search&utm_source=a2JdNtFqB-C38ga_06BHvw", "review_count": 14, "categories": [{"alias": "pizza", "title": "Pizza"}, {"alias": "italian", "title": "Italian"}, {"alias": "chicken_wings", "title": "Chicken Wings"}], "rating": 2.5, "coordinates": {"latitude": 44.4968132, "longitude": -88.044107}, "transactions": ["delivery"], "price": "$", "location": {"address1": "859 Lombardi Avenue", "address2": "", "address3": "", "city": "Green Bay", "zip_code": "54304", "country": "US", "state": "WI", "display_address": ["859 Lombardi Avenue", "Green Bay, WI 54304"]}, "phone": "+19204994554", "display_phone": "(920) 499-4554", "distance": 1524.152796440191}, {"id": "mpM4WWWVPLKIGb8Utv7w5Q", "alias": "wendys-ashwaubenon", "name": "Wendy's", "image_url": "https://s3-media2.fl.yelpcdn.com/bphoto/QVDhNopuODBRNd3JNPLZ4Q/o.jpg", "is_closed": false, "url": "https://www.yelp.com/biz/wendys-ashwaubenon?adjust_creative=a2JdNtFqB-C38ga_06BHvw&utm_campaign=yelp_api_v3&utm_medium=api_v3_business_search&utm_source=a2JdNtFqB-C38ga_06BHvw", "review_count": 8, "categories": [{"alias": "hotdogs", "title": "Fast Food"}, {"alias": "burgers", "title": "Burgers"}], "rating": 2.5, "coordinates": {"latitude": 44.475911, "longitude": -88.075547}, "transactions": ["delivery"], "price": "$", "location": {"address1": "901 Hansen Road", "address2": "", "address3": "", "city": "Ashwaubenon", "zip_code": "54304", "country": "US", "state": "WI", "display_address": ["901 Hansen Road", "Ashwaubenon, WI 54304"]}, "phone": "+19204996992", "display_phone": "(920) 499-6992", "distance": 3021.62295698286}, {"id": "u_CpHrwZPc14NWXi0q4PaA", "alias": "golden-greats-bar-and-grill-green-bay", "name": "Golden Greats Bar & Grill", "image_url": "https://s3-media3.fl.yelpcdn.com/bphoto/kDRK7GeZcYaMbNU8ZnTdAQ/o.jpg", "is_closed": false, "url": "https://www.yelp.com/biz/golden-greats-bar-and-grill-green-bay?adjust_creative=a2JdNtFqB-C38ga_06BHvw&utm_campaign=yelp_api_v3&utm_medium=api_v3_business_search&utm_source=a2JdNtFqB-C38ga_06BHvw", "review_count": 3, "categories": [{"alias": "tradamerican", "title": "American (Traditional)"}], "rating": 3.5, "coordinates": {"latitude": 44.474347, "longitude": -88.076676}, "transactions": ["delivery"], "price": "$$", "location": {"address1": "2785 Ramada Way", "address2": "", "address3": "Holiday Inn", "city": "Green Bay", "zip_code": "54304", "country": "US", "state": "WI", "display_address": ["2785 Ramada Way", "Holiday Inn", "Green Bay, WI 54304"]}, "phone": "+19205694248", "display_phone": "(920) 569-4248", "distance": 3218.1168983882726}, {"id": "08JxaFWU-GboIhxM1uzo5A", "alias": "dominos-pizza-green-bay", "name": "Domino's Pizza", "image_url": "https://s3-media2.fl.yelpcdn.com/bphoto/kOScmqMQG48hWAyUsEz_HA/o.jpg", "is_closed": false, "url": "https://www.yelp.com/biz/dominos-pizza-green-bay?adjust_creative=a2JdNtFqB-C38ga_06BHvw&utm_campaign=yelp_api_v3&utm_medium=api_v3_business_search&utm_source=a2JdNtFqB-C38ga_06BHvw", "review_count": 6, "categories": [{"alias": "pizza", "title": "Pizza"}, {"alias": "chicken_wings", "title": "Chicken Wings"}, {"alias": "sandwiches", "title": "Sandwiches"}], "rating": 3.0, "coordinates": {"latitude": 44.4748, "longitude": -88.07424}, "transactions": [], "price": "$", "location": {"address1": "2815 S Oneida St", "address2": null, "address3": "", "city": "Green Bay", "zip_code": "54313", "country": "US", "state": "WI", "display_address": ["2815 S Oneida St", "Green Bay, WI 54313"]}, "phone": "+19204949555", "display_phone": "(920) 494-9555", "distance": 3106.731959965525}, {"id": "ERe48VappSQPQ2IOG8v9pw", "alias": "subway-green-bay-42", "name": "Subway", "image_url": "https://s3-media4.fl.yelpcdn.com/bphoto/omZcVe3zLXiqVQo-5dEtqA/o.jpg", "is_closed": false, "url": "https://www.yelp.com/biz/subway-green-bay-42?adjust_creative=a2JdNtFqB-C38ga_06BHvw&utm_campaign=yelp_api_v3&utm_medium=api_v3_business_search&utm_source=a2JdNtFqB-C38ga_06BHvw", "review_count": 4, "categories": [{"alias": "sandwiches", "title": "Sandwiches"}], "rating": 3.5, "coordinates": {"latitude": 44.5262603, "longitude": -88.0916078}, "transactions": [], "price": "$", "location": {"address1": "2440 W Mason St", "address2": null, "address3": null, "city": "Green Bay", "zip_code": "54303", "country": "US", "state": "WI", "display_address": ["2440 W Mason St", "Green Bay, WI 54303"]}, "phone": "+19209650258", "display_phone": "(920) 965-0258", "distance": 3616.2613926673985}, {"id": "uNnU--pdbmf8CWGR04ObUA", "alias": "taco-bell-green-bay-4", "name": "Taco Bell", "image_url": "https://s3-media2.fl.yelpcdn.com/bphoto/jHepW5zZWZsUYUIl4nFOFA/o.jpg", "is_closed": false, "url": "https://www.yelp.com/biz/taco-bell-green-bay-4?adjust_creative=a2JdNtFqB-C38ga_06BHvw&utm_campaign=yelp_api_v3&utm_medium=api_v3_business_search&utm_source=a2JdNtFqB-C38ga_06BHvw", "review_count": 6, "categories": [{"alias": "mexican", "title": "Mexican"}, {"alias": "hotdogs", "title": "Fast Food"}], "rating": 2.5, "coordinates": {"latitude": 44.492056, "longitude": -88.098124}, "transactions": ["delivery"], "price": "$", "location": {"address1": "2491 Babcock Road", "address2": "", "address3": "", "city": "Green Bay", "zip_code": "54313", "country": "US", "state": "WI", "display_address": ["2491 Babcock Road", "Green Bay, WI 54313"]}, "phone": "+19204983238", "display_phone": "(920) 498-3238", "distance": 3030.753159587543}, {"id": "6hFG_ITaHXF48vtCDcPhuA", "alias": "bamboo-pho-and-grill-green-bay", "name": "Bamboo Pho and Grill", "image_url": "https://s3-media1.fl.yelpcdn.com/bphoto/xjCGZ2ybRblSHOCZF515iw/o.jpg", "is_closed": false, "url": "https://www.yelp.com/biz/bamboo-pho-and-grill-green-bay?adjust_creative=a2JdNtFqB-C38ga_06BHvw&utm_campaign=yelp_api_v3&utm_medium=api_v3_business_search&utm_source=a2JdNtFqB-C38ga_06BHvw", "review_count": 2, "categories": [{"alias": "tradamerican", "title": "American (Traditional)"}], "rating": 4.0, "coordinates": {"latitude": 44.5256935, "longitude": -88.0633163}, "transactions": [], "price": "$$", "location": {"address1": "418 S Military Ave", "address2": "", "address3": "", "city": "Green Bay", "zip_code": "54303", "country": "US", "state": "WI", "display_address": ["418 S Military Ave", "Green Bay, WI 54303"]}, "phone": "", "display_phone": "", "distance": 2703.926647996465}, {"id": "F9X6GWd-zEMvhiElcsRDHw", "alias": "burger-king-green-bay-2", "name": "Burger King", "image_url": "https://s3-media3.fl.yelpcdn.com/bphoto/frVwpi3unpjBAKWLASlC1Q/o.jpg", "is_closed": false, "url": "https://www.yelp.com/biz/burger-king-green-bay-2?adjust_creative=a2JdNtFqB-C38ga_06BHvw&utm_campaign=yelp_api_v3&utm_medium=api_v3_business_search&utm_source=a2JdNtFqB-C38ga_06BHvw", "review_count": 5, "categories": [{"alias": "burgers", "title": "Burgers"}, {"alias": "hotdogs", "title": "Fast Food"}], "rating": 3.0, "coordinates": {"latitude": 44.519852, "longitude": -88.066122}, "transactions": ["delivery"], "price": "$", "location": {"address1": "1005 S Military Ave", "address2": "", "address3": "", "city": "Green Bay", "zip_code": "54304", "country": "US", "state": "WI", "display_address": ["1005 S Military Ave", "Green Bay, WI 54304"]}, "phone": "+19204948368", "display_phone": "(920) 494-8368", "distance": 2078.3061682133075}, {"id": "-Q2BqWx1t4HJScYpwFAGmA", "alias": "cousins-subs-green-bay-3", "name": "Cousins Subs", "image_url": "https://s3-media1.fl.yelpcdn.com/bphoto/71IVxuhNS3wnjZHnC8vV4w/o.jpg", "is_closed": false, "url": "https://www.yelp.com/biz/cousins-subs-green-bay-3?adjust_creative=a2JdNtFqB-C38ga_06BHvw&utm_campaign=yelp_api_v3&utm_medium=api_v3_business_search&utm_source=a2JdNtFqB-C38ga_06BHvw", "review_count": 8, "categories": [{"alias": "sandwiches", "title": "Sandwiches"}, {"alias": "delis", "title": "Delis"}], "rating": 2.5, "coordinates": {"latitude": 44.5233384, "longitude": -88.098244}, "transactions": ["delivery"], "price": "$$", "location": {"address1": "2583 W Mason St", "address2": "", "address3": "", "city": "Green Bay", "zip_code": "54303", "country": "US", "state": "WI", "display_address": ["2583 W Mason St", "Green Bay, WI 54303"]}, "phone": "+19204912465", "display_phone": "(920) 491-2465", "distance": 3757.0211222711446}, {"id": "ZpE2OQItW8meIPQUC3jBbg", "alias": "the-dinner-detective-green-bay", "name": "The Dinner Detective", "image_url": "https://s3-media2.fl.yelpcdn.com/bphoto/5ogyJ3BW6cGTcDrrfeixvw/o.jpg", "is_closed": false, "url": "https://www.yelp.com/biz/the-dinner-detective-green-bay?adjust_creative=a2JdNtFqB-C38ga_06BHvw&utm_campaign=yelp_api_v3&utm_medium=api_v3_business_search&utm_source=a2JdNtFqB-C38ga_06BHvw", "review_count": 3, "categories": [{"alias": "dinnertheater", "title": "Dinner Theater"}], "rating": 3.5, "coordinates": {"latitude": 44.4990499, "longitude": -88.05113}, "transactions": [], "location": {"address1": "1015 Lombardi Ave", "address2": null, "address3": null, "city": "Green Bay", "zip_code": "54304", "country": "US", "state": "WI", "display_address": ["1015 Lombardi Ave", "Green Bay, WI 54304"]}, "phone": "+18664960535", "display_phone": "(866) 496-0535", "distance": 914.5263297712605}, {"id": "uUazx-5TAxjC4BbyILqpyQ", "alias": "mcdonalds-green-bay-11", "name": "McDonald's", "image_url": "https://s3-media4.fl.yelpcdn.com/bphoto/zjJtNca4N--NVLckcSF-jw/o.jpg", "is_closed": false, "url": "https://www.yelp.com/biz/mcdonalds-green-bay-11?adjust_creative=a2JdNtFqB-C38ga_06BHvw&utm_campaign=yelp_api_v3&utm_medium=api_v3_business_search&utm_source=a2JdNtFqB-C38ga_06BHvw", "review_count": 8, "categories": [{"alias": "coffee", "title": "Coffee & Tea"}, {"alias": "burgers", "title": "Burgers"}, {"alias": "hotdogs", "title": "Fast Food"}], "rating": 2.5, "coordinates": {"latitude": 44.4881268201082, "longitude": -88.0668649077415}, "transactions": ["delivery"], "price": "$", "location": {"address1": "2340 S Oneida St", "address2": "", "address3": "", "city": "Green Bay", "zip_code": "54304", "country": "US", "state": "WI", "display_address": ["2340 S Oneida St", "Green Bay, WI 54304"]}, "phone": "+19204972001", "display_phone": "(920) 497-2001", "distance": 1519.9715084690345}, {"id": "I7pBZd-ZPESZ233K_2Es_Q", "alias": "bon-orient-buffet-green-bay", "name": "Bon Orient Buffet", "image_url": "https://s3-media3.fl.yelpcdn.com/bphoto/81vlU5IiRTd87DP_Ihewqg/o.jpg", "is_closed": false, "url": "https://www.yelp.com/biz/bon-orient-buffet-green-bay?adjust_creative=a2JdNtFqB-C38ga_06BHvw&utm_campaign=yelp_api_v3&utm_medium=api_v3_business_search&utm_source=a2JdNtFqB-C38ga_06BHvw", "review_count": 14, "categories": [{"alias": "chinese", "title": "Chinese"}, {"alias": "buffets", "title": "Buffets"}, {"alias": "japanese", "title": "Japanese"}], "rating": 2.0, "coordinates": {"latitude": 44.52511, "longitude": -88.08715}, "transactions": ["delivery", "pickup"], "location": {"address1": "2260 W Mason St", "address2": "", "address3": "", "city": "Green Bay", "zip_code": "54303", "country": "US", "state": "WI", "display_address": ["2260 W Mason St", "Green Bay, WI 54303"]}, "phone": "+19204989080", "display_phone": "(920) 498-9080", "distance": 3302.2197710220453}, {"id": "WVfJYyA3NdzG4Pb60ldeBA", "alias": "lil-jamaica-green-bay", "name": "Lil Jamaica", "image_url": "https://s3-media3.fl.yelpcdn.com/bphoto/OkU7sPDC5hiLem1QnHe5QA/o.jpg", "is_closed": false, "url": "https://www.yelp.com/biz/lil-jamaica-green-bay?adjust_creative=a2JdNtFqB-C38ga_06BHvw&utm_campaign=yelp_api_v3&utm_medium=api_v3_business_search&utm_source=a2JdNtFqB-C38ga_06BHvw", "review_count": 1, "categories": [{"alias": "caribbean", "title": "Caribbean"}, {"alias": "foodtrucks", "title": "Food Trucks"}], "rating": 5.0, "coordinates": {"latitude": 44.50167824400979, "longitude": -88.03158468654702}, "transactions": ["delivery"], "location": {"address1": "1332 S Bdwy", "address2": null, "address3": "", "city": "Green Bay", "zip_code": "54304", "country": "US", "state": "WI", "display_address": ["1332 S Bdwy", "Green Bay, WI 54304"]}, "phone": "+19208579847", "display_phone": "(920) 857-9847", "distance": 2429.9863946642927}, {"id": "e8iDQH06Xl6Kk5BOQ9O-5g", "alias": "little-caesars-green-bay-2", "name": "Little Caesars", "image_url": "https://s3-media1.fl.yelpcdn.com/bphoto/ky5QDq4navf7QC5O8PgDxA/o.jpg", "is_closed": false, "url": "https://www.yelp.com/biz/little-caesars-green-bay-2?adjust_creative=a2JdNtFqB-C38ga_06BHvw&utm_campaign=yelp_api_v3&utm_medium=api_v3_business_search&utm_source=a2JdNtFqB-C38ga_06BHvw", "review_count": 1, "categories": [{"alias": "pizza", "title": "Pizza"}], "rating": 5.0, "coordinates": {"latitude": 44.49738, "longitude": -88.0423}, "transactions": [], "location": {"address1": "1828 S Ashland Ave", "address2": "", "address3": null, "city": "Green Bay", "zip_code": "54304", "country": "US", "state": "WI", "display_address": ["1828 S Ashland Ave", "Green Bay, WI 54304"]}, "phone": "+19204555755", "display_phone": "(920) 455-5755", "distance": 1636.5489671481407}, {"id": "0IayRyjYBxDrqch5QuGNEA", "alias": "dairy-queen-grill-and-chill-green-bay", "name": "Dairy Queen Grill & Chill", "image_url": "https://s3-media2.fl.yelpcdn.com/bphoto/WwJe8CObKl7IROBEU-F_Ng/o.jpg", "is_closed": false, "url": "https://www.yelp.com/biz/dairy-queen-grill-and-chill-green-bay?adjust_creative=a2JdNtFqB-C38ga_06BHvw&utm_campaign=yelp_api_v3&utm_medium=api_v3_business_search&utm_source=a2JdNtFqB-C38ga_06BHvw", "review_count": 6, "categories": [{"alias": "hotdogs", "title": "Fast Food"}, {"alias": "icecream", "title": "Ice Cream & Frozen Yogurt"}, {"alias": "burgers", "title": "Burgers"}], "rating": 2.5, "coordinates": {"latitude": 44.493466, "longitude": -88.0709178}, "transactions": ["delivery"], "price": "$", "location": {"address1": "2240 S Ridge Rd", "address2": "", "address3": "", "city": "Green Bay", "zip_code": "54304", "country": "US", "state": "WI", "display_address": ["2240 S Ridge Rd", "Green Bay, WI 54304"]}, "phone": "+19204997700", "display_phone": "(920) 499-7700", "distance": 1118.852039593468}, {"id": "xTeOY_hSWGfUjY1EcHUfVQ", "alias": "countryville-bar-and-grill-green-bay", "name": "Countryville Bar & Grill", "image_url": "https://s3-media3.fl.yelpcdn.com/bphoto/3FXbhPQJbVrlyUuzPby_QQ/o.jpg", "is_closed": false, "url": "https://www.yelp.com/biz/countryville-bar-and-grill-green-bay?adjust_creative=a2JdNtFqB-C38ga_06BHvw&utm_campaign=yelp_api_v3&utm_medium=api_v3_business_search&utm_source=a2JdNtFqB-C38ga_06BHvw", "review_count": 2, "categories": [{"alias": "tradamerican", "title": "American (Traditional)"}, {"alias": "bars", "title": "Bars"}], "rating": 3.5, "coordinates": {"latitude": 44.5243899, "longitude": -88.09549}, "transactions": [], "location": {"address1": "2522 W Mason St", "address2": "", "address3": "", "city": "Green Bay", "zip_code": "54303", "country": "US", "state": "WI", "display_address": ["2522 W Mason St", "Green Bay, WI 54303"]}, "phone": "+19204965036", "display_phone": "(920) 496-5036", "distance": 3680.7607433133176}, {"id": "0-aYd_-VYEZrd3LlFGvCHg", "alias": "taco-bell-green-bay-9", "name": "Taco Bell", "image_url": "https://s3-media2.fl.yelpcdn.com/bphoto/0QR7WBv3NUApxvHpxzP0VA/o.jpg", "is_closed": false, "url": "https://www.yelp.com/biz/taco-bell-green-bay-9?adjust_creative=a2JdNtFqB-C38ga_06BHvw&utm_campaign=yelp_api_v3&utm_medium=api_v3_business_search&utm_source=a2JdNtFqB-C38ga_06BHvw", "review_count": 12, "categories": [{"alias": "mexican", "title": "Mexican"}, {"alias": "hotdogs", "title": "Fast Food"}], "rating": 2.0, "coordinates": {"latitude": 44.523227, "longitude": -88.062559}, "transactions": ["delivery"], "price": "$", "location": {"address1": "1529 W Mason St", "address2": "", "address3": "", "city": "Green Bay", "zip_code": "54303", "country": "US", "state": "WI", "display_address": ["1529 W Mason St", "Green Bay, WI 54303"]}, "phone": "+19204941143", "display_phone": "(920) 494-1143", "distance": 2428.4191391146387}, {"id": "2EtJmPwgM8o5F6eMjGSlLQ", "alias": "dave-and-busters-green-bay", "name": "Dave & Buster's", "image_url": "https://s3-media3.fl.yelpcdn.com/bphoto/LOpeB0675IqxDjx7pk-Elw/o.jpg", "is_closed": false, "url": "https://www.yelp.com/biz/dave-and-busters-green-bay?adjust_creative=a2JdNtFqB-C38ga_06BHvw&utm_campaign=yelp_api_v3&utm_medium=api_v3_business_search&utm_source=a2JdNtFqB-C38ga_06BHvw", "review_count": 9, "categories": [{"alias": "sportsbars", "title": "Sports Bars"}, {"alias": "hotdogs", "title": "Fast Food"}, {"alias": "arcades", "title": "Arcades"}], "rating": 2.0, "coordinates": {"latitude": 44.484557, "longitude": -88.066847}, "transactions": [], "location": {"address1": "201B Bay Park Sq", "address2": null, "address3": null, "city": "Green Bay", "zip_code": "54304", "country": "US", "state": "WI", "display_address": ["201B Bay Park Sq", "Green Bay, WI 54304"]}, "phone": "+19204013400", "display_phone": "(920) 401-3400", "distance": 1905.7194274621495}, {"id": "AZIE9rydp_HTT4_7KaBc5g", "alias": "taco-bell-ashwaubenon", "name": "Taco Bell", "image_url": "https://s3-media4.fl.yelpcdn.com/bphoto/7vcpUx8gNbOv5SlS4xu63Q/o.jpg", "is_closed": false, "url": "https://www.yelp.com/biz/taco-bell-ashwaubenon?adjust_creative=a2JdNtFqB-C38ga_06BHvw&utm_campaign=yelp_api_v3&utm_medium=api_v3_business_search&utm_source=a2JdNtFqB-C38ga_06BHvw", "review_count": 4, "categories": [{"alias": "mexican", "title": "Mexican"}, {"alias": "hotdogs", "title": "Fast Food"}], "rating": 2.5, "coordinates": {"latitude": 44.484512, "longitude": -88.067998}, "transactions": ["delivery"], "price": "$", "location": {"address1": "2404 S Oneida Street", "address2": "", "address3": "", "city": "Ashwaubenon", "zip_code": "54304", "country": "US", "state": "WI", "display_address": ["2404 S Oneida Street", "Ashwaubenon, WI 54304"]}, "phone": "+19204999992", "display_phone": "(920) 499-9992", "distance": 1931.749928855945}, {"id": "UcG3MF6FJqiRykyPYXAyuw", "alias": "sbarro-green-bay", "name": "Sbarro", "image_url": "", "is_closed": false, "url": "https://www.yelp.com/biz/sbarro-green-bay?adjust_creative=a2JdNtFqB-C38ga_06BHvw&utm_campaign=yelp_api_v3&utm_medium=api_v3_business_search&utm_source=a2JdNtFqB-C38ga_06BHvw", "review_count": 2, "categories": [{"alias": "salad", "title": "Salad"}, {"alias": "pizza", "title": "Pizza"}], "rating": 3.0, "coordinates": {"latitude": 44.4847975648094, "longitude": -88.0660183020885}, "transactions": ["pickup", "delivery"], "location": {"address1": "303 Bay Park Sq", "address2": "", "address3": "", "city": "Green Bay", "zip_code": "54304", "country": "US", "state": "WI", "display_address": ["303 Bay Park Sq", "Green Bay, WI 54304"]}, "phone": "+19204979925", "display_phone": "(920) 497-9925", "distance": 1869.2940312700985}, {"id": "uf7UQ_70NA6Wpj5aVFgJrQ", "alias": "dave-n-busters-green-bay", "name": "Dave N Busters", "image_url": "", "is_closed": false, "url": "https://www.yelp.com/biz/dave-n-busters-green-bay?adjust_creative=a2JdNtFqB-C38ga_06BHvw&utm_campaign=yelp_api_v3&utm_medium=api_v3_business_search&utm_source=a2JdNtFqB-C38ga_06BHvw", "review_count": 2, "categories": [{"alias": "sportsbars", "title": "Sports Bars"}, {"alias": "tradamerican", "title": "American (Traditional)"}, {"alias": "arcades", "title": "Arcades"}], "rating": 3.0, "coordinates": {"latitude": 44.48472857551234, "longitude": -88.06707443617985}, "transactions": [], "location": {"address1": "201B Bay Park Square", "address2": "", "address3": null, "city": "Green Bay", "zip_code": "54304", "country": "US", "state": "WI", "display_address": ["201B Bay Park Square", "Green Bay, WI 54304"]}, "phone": "", "display_phone": "", "distance": 1892.1132417697956}, {"id": "J-CzbIgRrKxiSsOiHez5kw", "alias": "arbys-green-bay-3", "name": "Arby's", "image_url": "https://s3-media1.fl.yelpcdn.com/bphoto/VwpcgviZdVUDa3zMc45acw/o.jpg", "is_closed": false, "url": "https://www.yelp.com/biz/arbys-green-bay-3?adjust_creative=a2JdNtFqB-C38ga_06BHvw&utm_campaign=yelp_api_v3&utm_medium=api_v3_business_search&utm_source=a2JdNtFqB-C38ga_06BHvw", "review_count": 2, "categories": [{"alias": "hotdogs", "title": "Fast Food"}, {"alias": "sandwiches", "title": "Sandwiches"}], "rating": 3.0, "coordinates": {"latitude": 44.52381, "longitude": -88.06518}, "transactions": ["pickup", "delivery"], "price": "$", "location": {"address1": "1593 W Mason St", "address2": null, "address3": null, "city": "Green Bay", "zip_code": "54303", "country": "US", "state": "WI", "display_address": ["1593 W Mason St", "Green Bay, WI 54303"]}, "phone": "+19204993451", "display_phone": "(920) 499-3451", "distance": 2497.973940939583}, {"id": "O-__1PQMrm1eAhDv_Rf4ow", "alias": "mr-golf-green-bay", "name": "Mr Golf", "image_url": "", "is_closed": false, "url": "https://www.yelp.com/biz/mr-golf-green-bay?adjust_creative=a2JdNtFqB-C38ga_06BHvw&utm_campaign=yelp_api_v3&utm_medium=api_v3_business_search&utm_source=a2JdNtFqB-C38ga_06BHvw", "review_count": 1, "categories": [{"alias": "indpak", "title": "Indian"}], "rating": 4.0, "coordinates": {"latitude": 44.5168725, "longitude": -88.0453222}, "transactions": [], "location": {"address1": "712 Redwood Dr", "address2": null, "address3": null, "city": "Green Bay", "zip_code": "54304", "country": "US", "state": "WI", "display_address": ["712 Redwood Dr", "Green Bay, WI 54304"]}, "phone": "+19204991590", "display_phone": "(920) 499-1590", "distance": 2171.702337312115}, {"id": "cMXkHAjpS4789Ae_wV7bIg", "alias": "charleys-steakery-green-bay", "name": "Charley's Steakery", "image_url": "", "is_closed": false, "url": "https://www.yelp.com/biz/charleys-steakery-green-bay?adjust_creative=a2JdNtFqB-C38ga_06BHvw&utm_campaign=yelp_api_v3&utm_medium=api_v3_business_search&utm_source=a2JdNtFqB-C38ga_06BHvw", "review_count": 1, "categories": [{"alias": "hotdogs", "title": "Fast Food"}], "rating": 4.0, "coordinates": {"latitude": 44.4839897, "longitude": -88.0654907}, "transactions": [], "location": {"address1": "2401 S Oneida St", "address2": "", "address3": "", "city": "Green Bay", "zip_code": "54304", "country": "US", "state": "WI", "display_address": ["2401 S Oneida St", "Green Bay, WI 54304"]}, "phone": "+19204983069", "display_phone": "(920) 498-3069", "distance": 2144.490622332086}, {"id": "iR3oj6EGfXhLxOVWjW56lg", "alias": "charleys-cheesesteaks-green-bay", "name": "Charleys Cheesesteaks", "image_url": "https://s3-media4.fl.yelpcdn.com/bphoto/dMbqkylys613ySoylkayLA/o.jpg", "is_closed": false, "url": "https://www.yelp.com/biz/charleys-cheesesteaks-green-bay?adjust_creative=a2JdNtFqB-C38ga_06BHvw&utm_campaign=yelp_api_v3&utm_medium=api_v3_business_search&utm_source=a2JdNtFqB-C38ga_06BHvw", "review_count": 3, "categories": [{"alias": "sandwiches", "title": "Sandwiches"}, {"alias": "cheesesteaks", "title": "Cheesesteaks"}, {"alias": "hotdogs", "title": "Fast Food"}], "rating": 2.5, "coordinates": {"latitude": 44.4853545, "longitude": -88.0649851}, "transactions": ["pickup", "delivery"], "location": {"address1": "205 Bay Park Sq", "address2": null, "address3": null, "city": "Green Bay", "zip_code": "54304", "country": "US", "state": "WI", "display_address": ["205 Bay Park Sq", "Green Bay, WI 54304"]}, "phone": "+19204983069", "display_phone": "(920) 498-3069", "distance": 1903.2095333278446}, {"id": "nqg5jWf80Qff8abC8ER7Ow", "alias": "burger-king-ashwaubenon", "name": "Burger King", "image_url": "https://s3-media3.fl.yelpcdn.com/bphoto/jqrcaW7MZnHZ4Wc1dPGI5w/o.jpg", "is_closed": false, "url": "https://www.yelp.com/biz/burger-king-ashwaubenon?adjust_creative=a2JdNtFqB-C38ga_06BHvw&utm_campaign=yelp_api_v3&utm_medium=api_v3_business_search&utm_source=a2JdNtFqB-C38ga_06BHvw", "review_count": 5, "categories": [{"alias": "burgers", "title": "Burgers"}, {"alias": "hotdogs", "title": "Fast Food"}], "rating": 2.0, "coordinates": {"latitude": 44.485337, "longitude": -88.06877}, "transactions": ["delivery"], "price": "$", "location": {"address1": "2430 S Oneida St", "address2": null, "address3": null, "city": "Ashwaubenon", "zip_code": "54304", "country": "US", "state": "WI", "display_address": ["2430 S Oneida St", "Ashwaubenon, WI 54304"]}, "phone": "+19204978090", "display_phone": "(920) 497-8090", "distance": 1863.3481001989378}, {"id": "OnrYaGJ5vl8EoEI2ewJikw", "alias": "kfc-ashwaubenon-2", "name": "KFC", "image_url": "https://s3-media2.fl.yelpcdn.com/bphoto/_6qi2tN-G-EcD9mS9scZxQ/o.jpg", "is_closed": false, "url": "https://www.yelp.com/biz/kfc-ashwaubenon-2?adjust_creative=a2JdNtFqB-C38ga_06BHvw&utm_campaign=yelp_api_v3&utm_medium=api_v3_business_search&utm_source=a2JdNtFqB-C38ga_06BHvw", "review_count": 16, "categories": [{"alias": "hotdogs", "title": "Fast Food"}, {"alias": "chicken_wings", "title": "Chicken Wings"}, {"alias": "chickenshop", "title": "Chicken Shop"}], "rating": 1.0, "coordinates": {"latitude": 44.48872938106706, "longitude": -88.0660591551733}, "transactions": ["pickup", "delivery"], "price": "$", "location": {"address1": "2314 S Oneida", "address2": "", "address3": "", "city": "Ashwaubenon", "zip_code": "54304", "country": "US", "state": "WI", "display_address": ["2314 S Oneida", "Ashwaubenon, WI 54304"]}, "phone": "+19204969400", "display_phone": "(920) 496-9400", "distance": 1440.2091692452734}, {"id": "SCYxBOEfkwgnFvLfTWHJ8A", "alias": "little-caesars-pizza-green-bay-2", "name": "Little Caesar's Pizza", "image_url": "https://s3-media4.fl.yelpcdn.com/bphoto/jvFlo7zXg_J32feG_mCKHg/o.jpg", "is_closed": false, "url": "https://www.yelp.com/biz/little-caesars-pizza-green-bay-2?adjust_creative=a2JdNtFqB-C38ga_06BHvw&utm_campaign=yelp_api_v3&utm_medium=api_v3_business_search&utm_source=a2JdNtFqB-C38ga_06BHvw", "review_count": 7, "categories": [{"alias": "pizza", "title": "Pizza"}], "rating": 1.5, "coordinates": {"latitude": 44.52512, "longitude": -88.0873}, "transactions": [], "price": "$", "location": {"address1": "2262 W Mason St", "address2": null, "address3": null, "city": "Green Bay", "zip_code": "54303", "country": "US", "state": "WI", "display_address": ["2262 W Mason St", "Green Bay, WI 54303"]}, "phone": "+19209651056", "display_phone": "(920) 965-1056", "distance": 3315.2985115937745}, {"id": "ZvmgZ80sqPb8m9I7kowC_w", "alias": "pizza-hut-green-bay-4", "name": "Pizza Hut", "image_url": "https://s3-media2.fl.yelpcdn.com/bphoto/RXiod-XbiQV4WuWZKvygdw/o.jpg", "is_closed": false, "url": "https://www.yelp.com/biz/pizza-hut-green-bay-4?adjust_creative=a2JdNtFqB-C38ga_06BHvw&utm_campaign=yelp_api_v3&utm_medium=api_v3_business_search&utm_source=a2JdNtFqB-C38ga_06BHvw", "review_count": 4, "categories": [{"alias": "pizza", "title": "Pizza"}, {"alias": "italian", "title": "Italian"}, {"alias": "chicken_wings", "title": "Chicken Wings"}], "rating": 2.0, "coordinates": {"latitude": 44.5248692935739, "longitude": -88.0794230103492}, "transactions": ["delivery"], "price": "$", "location": {"address1": "1012 S Taylor St", "address2": "Pizza Hut #256", "address3": null, "city": "Green Bay", "zip_code": "54303", "country": "US", "state": "WI", "display_address": ["1012 S Taylor St", "Pizza Hut #256", "Green Bay, WI 54303"]}, "phone": "+19204971745", "display_phone": "(920) 497-1745", "distance": 2945.666885646539}, {"id": "L58JdOkDBnveURN_U2R_fg", "alias": "siam-palace-green-bay", "name": "Siam Palace", "image_url": "https://s3-media3.fl.yelpcdn.com/bphoto/sm1Wko_mtTldDPRTizl81w/o.jpg", "is_closed": false, "url": "https://www.yelp.com/biz/siam-palace-green-bay?adjust_creative=a2JdNtFqB-C38ga_06BHvw&utm_campaign=yelp_api_v3&utm_medium=api_v3_business_search&utm_source=a2JdNtFqB-C38ga_06BHvw", "review_count": 1, "categories": [{"alias": "tradamerican", "title": "American (Traditional)"}], "rating": 2.0, "coordinates": {"latitude": 44.5251986812526, "longitude": -88.0633310973644}, "transactions": [], "location": {"address1": "418 S Military Ave", "address2": "", "address3": "", "city": "Green Bay", "zip_code": "54303", "country": "US", "state": "WI", "display_address": ["418 S Military Ave", "Green Bay, WI 54303"]}, "phone": "+19204991819", "display_phone": "(920) 499-1819", "distance": 2648.9730043267186}, {"id": "b2KDfCQrIPYB28EwbTlO-g", "alias": "a-and-w-restaurant-green-bay-2", "name": "A&W Restaurant", "image_url": "https://s3-media1.fl.yelpcdn.com/bphoto/eohJFC9xYTAahzB-dqw00g/o.jpg", "is_closed": false, "url": "https://www.yelp.com/biz/a-and-w-restaurant-green-bay-2?adjust_creative=a2JdNtFqB-C38ga_06BHvw&utm_campaign=yelp_api_v3&utm_medium=api_v3_business_search&utm_source=a2JdNtFqB-C38ga_06BHvw", "review_count": 1, "categories": [{"alias": "burgers", "title": "Burgers"}, {"alias": "hotdogs", "title": "Fast Food"}, {"alias": "hotdog", "title": "Hot Dogs"}], "rating": 2.0, "coordinates": {"latitude": 44.5020006793279, "longitude": -88.065745}, "transactions": ["delivery"], "location": {"address1": "217 Bay Park Sq", "address2": "", "address3": "", "city": "Green Bay", "zip_code": "54304", "country": "US", "state": "WI", "display_address": ["217 Bay Park Sq", "Green Bay, WI 54304"]}, "phone": "+19204908563", "display_phone": "(920) 490-8563", "distance": 287.55961952386826}, {"id": "Kg_hps-KkS1ywX6GRUat_g", "alias": "long-john-silvers-ashwaubenon", "name": "Long John Silver's", "image_url": "https://s3-media3.fl.yelpcdn.com/bphoto/tcwBn1f-UM1qTUGQB9xnqg/o.jpg", "is_closed": false, "url": "https://www.yelp.com/biz/long-john-silvers-ashwaubenon?adjust_creative=a2JdNtFqB-C38ga_06BHvw&utm_campaign=yelp_api_v3&utm_medium=api_v3_business_search&utm_source=a2JdNtFqB-C38ga_06BHvw", "review_count": 2, "categories": [{"alias": "seafood", "title": "Seafood"}, {"alias": "hotdogs", "title": "Fast Food"}], "rating": 1.0, "coordinates": {"latitude": 44.48888, "longitude": -88.06632}, "transactions": [], "location": {"address1": "2314 South Oneida", "address2": null, "address3": null, "city": "Ashwaubenon", "zip_code": "54304", "country": "US", "state": "WI", "display_address": ["2314 South Oneida", "Ashwaubenon, WI 54304"]}, "phone": "+19204969400", "display_phone": "(920) 496-9400", "distance": 1435.0966368925622}, {"id": "qPYTuBWEhFYA9RpUbtvrwg", "alias": "panda-express-ashwaubenon", "name": "Panda Express", "image_url": "https://s3-media1.fl.yelpcdn.com/bphoto/1bJnANHqEAF3f-RT5H7LUw/o.jpg", "is_closed": false, "url": "https://www.yelp.com/biz/panda-express-ashwaubenon?adjust_creative=a2JdNtFqB-C38ga_06BHvw&utm_campaign=yelp_api_v3&utm_medium=api_v3_business_search&utm_source=a2JdNtFqB-C38ga_06BHvw", "review_count": 2, "categories": [{"alias": "chinese", "title": "Chinese"}, {"alias": "hotdogs", "title": "Fast Food"}], "rating": 1.0, "coordinates": {"latitude": 44.4849482, "longitude": -88.0680258}, "transactions": ["delivery", "pickup"], "location": {"address1": "2435 S Oneida St", "address2": null, "address3": null, "city": "Ashwaubenon", "zip_code": "54304", "country": "US", "state": "WI", "display_address": ["2435 S Oneida St", "Ashwaubenon, WI 54304"]}, "phone": "+19203280806", "display_phone": "(920) 328-0806", "distance": 1910.6527569613083}, {"id": "qNsKN17CHhkut63-VEL4hA", "alias": "subway-green-bay-54", "name": "Subway", "image_url": "https://s3-media3.fl.yelpcdn.com/bphoto/b9nHcX5C-B1E9qmXCsQyBQ/o.jpg", "is_closed": false, "url": "https://www.yelp.com/biz/subway-green-bay-54?adjust_creative=a2JdNtFqB-C38ga_06BHvw&utm_campaign=yelp_api_v3&utm_medium=api_v3_business_search&utm_source=a2JdNtFqB-C38ga_06BHvw", "review_count": 2, "categories": [{"alias": "sandwiches", "title": "Sandwiches"}], "rating": 1.0, "coordinates": {"latitude": 44.515098656794, "longitude": -88.0402158404465}, "transactions": [], "location": {"address1": "1007 W Mason St", "address2": null, "address3": null, "city": "Green Bay", "zip_code": "54303", "country": "US", "state": "WI", "display_address": ["1007 W Mason St", "Green Bay, WI 54303"]}, "phone": "+19205440752", "display_phone": "(920) 544-0752", "distance": 2317.1417413355884}, {"id": "42xN0OUEHiqsOuREuzRYqQ", "alias": "mad-chicken-ashwaubenon", "name": "Mad Chicken", "image_url": "https://s3-media4.fl.yelpcdn.com/bphoto/771KJroN-NquviQCSas6gw/o.jpg", "is_closed": false, "url": "https://www.yelp.com/biz/mad-chicken-ashwaubenon?adjust_creative=a2JdNtFqB-C38ga_06BHvw&utm_campaign=yelp_api_v3&utm_medium=api_v3_business_search&utm_source=a2JdNtFqB-C38ga_06BHvw", "review_count": 1, "categories": [{"alias": "chicken_wings", "title": "Chicken Wings"}], "rating": 1.0, "coordinates": {"latitude": 44.48399, "longitude": -88.06549}, "transactions": [], "location": {"address1": "2401 S Oneida St", "address2": "", "address3": null, "city": "Ashwaubenon", "zip_code": "54304", "country": "US", "state": "WI", "display_address": ["2401 S Oneida St", "Ashwaubenon, WI 54304"]}, "phone": "", "display_phone": "", "distance": 1920.9886315801975}, {"id": "M6nAOcHTFMzjWCoNlNr3Bw", "alias": "erbert-and-gerberts-sandwich-shop-green-bay-3", "name": "Erbert and Gerbert's Sandwich Shop", "image_url": "https://s3-media1.fl.yelpcdn.com/bphoto/a_WVtcybXEQ6aArkCNM1nQ/o.jpg", "is_closed": false, "url": "https://www.yelp.com/biz/erbert-and-gerberts-sandwich-shop-green-bay-3?adjust_creative=a2JdNtFqB-C38ga_06BHvw&utm_campaign=yelp_api_v3&utm_medium=api_v3_business_search&utm_source=a2JdNtFqB-C38ga_06BHvw", "review_count": 1, "categories": [{"alias": "soup", "title": "Soup"}, {"alias": "sandwiches", "title": "Sandwiches"}, {"alias": "salad", "title": "Salad"}], "rating": 1.0, "coordinates": {"latitude": 44.5248529193429, "longitude": -88.08870113450324}, "transactions": ["delivery"], "location": {"address1": "2370 West Mason St", "address2": null, "address3": null, "city": "Green Bay", "zip_code": "54303", "country": "US", "state": "WI", "display_address": ["2370 West Mason St", "Green Bay, WI 54303"]}, "phone": "+19208579196", "display_phone": "(920) 857-9196", "distance": 3348.9496451780797}], "absolute total": 124, "total": 124}