{"league": "NFL", "team": "Houston Texans", "stadium": "NRG Stadium", "stadium latitude": 29.684721999999997, "stadium longitude": -95.410833, "radius": "3000 meters", "city": "Houston", "state": "Texas", "businesses": [{"id": "-ZoIDnLjxr3AVtT9iwqcTA", "alias": "tamales-don-pepe-houston-5", "name": "Tamales Don Pepe", "image_url": "https://s3-media4.fl.yelpcdn.com/bphoto/O56_isZ7UVbVmkVdEiw58g/o.jpg", "is_closed": false, "url": "https://www.yelp.com/biz/tamales-don-pepe-houston-5?adjust_creative=a2JdNtFqB-C38ga_06BHvw&utm_campaign=yelp_api_v3&utm_medium=api_v3_business_search&utm_source=a2JdNtFqB-C38ga_06BHvw", "review_count": 185, "categories": [{"alias": "mexican", "title": "Mexican"}, {"alias": "comfortfood", "title": "Comfort Food"}, {"alias": "breakfast_brunch", "title": "Breakfast & Brunch"}], "rating": 4.5, "coordinates": {"latitude": 29.67714, "longitude": -95.43921}, "transactions": ["delivery", "pickup"], "price": "$", "location": {"address1": "3816 Link Valley", "address2": null, "address3": "", "city": "Houston", "zip_code": "77025", "country": "US", "state": "TX", "display_address": ["3816 Link Valley", "Houston, TX 77025"]}, "phone": "+12818466195", "display_phone": "(281) 846-6195", "distance": 2857.4043322179064}, {"id": "nuFmCfpH9SmFPGRO3OieNw", "alias": "hus-cooking-houston-2", "name": "Hu's Cooking", "image_url": "https://s3-media1.fl.yelpcdn.com/bphoto/Wai7EkjI8co27_qKgG7_8w/o.jpg", "is_closed": false, "url": "https://www.yelp.com/biz/hus-cooking-houston-2?adjust_creative=a2JdNtFqB-C38ga_06BHvw&utm_campaign=yelp_api_v3&utm_medium=api_v3_business_search&utm_source=a2JdNtFqB-C38ga_06BHvw", "review_count": 397, "categories": [{"alias": "chinese", "title": "Chinese"}], "rating": 4.5, "coordinates": {"latitude": 29.70645, "longitude": -95.41693}, "transactions": ["delivery", "pickup"], "price": "$$", "location": {"address1": "2502 W Holcombe Blvd", "address2": null, "address3": "", "city": "Houston", "zip_code": "77030", "country": "US", "state": "TX", "display_address": ["2502 W Holcombe Blvd", "Houston, TX 77030"]}, "phone": "+17136600020", "display_phone": "(713) 660-0020", "distance": 2484.757015815776}, {"id": "hNNkC569C1yVpJLDasJ4yA", "alias": "gyro-hut-houston-3", "name": "Gyro Hut", "image_url": "https://s3-media3.fl.yelpcdn.com/bphoto/NB-FN3IKQCWtJeE3qpRzxw/o.jpg", "is_closed": false, "url": "https://www.yelp.com/biz/gyro-hut-houston-3?adjust_creative=a2JdNtFqB-C38ga_06BHvw&utm_campaign=yelp_api_v3&utm_medium=api_v3_business_search&utm_source=a2JdNtFqB-C38ga_06BHvw", "review_count": 313, "categories": [{"alias": "halal", "title": "Halal"}, {"alias": "mediterranean", "title": "Mediterranean"}, {"alias": "mideastern", "title": "Middle Eastern"}], "rating": 4.5, "coordinates": {"latitude": 29.699484, "longitude": -95.38585}, "transactions": ["pickup"], "price": "$", "location": {"address1": "2807 Old Spanish Trl", "address2": "Ste A", "address3": null, "city": "Houston", "zip_code": "77054", "country": "US", "state": "TX", "display_address": ["2807 Old Spanish Trl", "Ste A", "Houston, TX 77054"]}, "phone": "+18324337121", "display_phone": "(832) 433-7121", "distance": 2918.57233723949}, {"id": "4blUW4MjT6akI-z-Uu-hTQ", "alias": "sunshines-health-food-store-and-vegetarian-deli-houston-2", "name": "Sunshine's Health Food Store And Vegetarian Deli", "image_url": "https://s3-media4.fl.yelpcdn.com/bphoto/N2Cp_HUehCElamoTBV4pDA/o.jpg", "is_closed": false, "url": "https://www.yelp.com/biz/sunshines-health-food-store-and-vegetarian-deli-houston-2?adjust_creative=a2JdNtFqB-C38ga_06BHvw&utm_campaign=yelp_api_v3&utm_medium=api_v3_business_search&utm_source=a2JdNtFqB-C38ga_06BHvw", "review_count": 452, "categories": [{"alias": "vegetarian", "title": "Vegetarian"}, {"alias": "juicebars", "title": "Juice Bars & Smoothies"}, {"alias": "salad", "title": "Salad"}], "rating": 4.5, "coordinates": {"latitude": 29.69974, "longitude": -95.38054}, "transactions": ["delivery"], "price": "$$", "location": {"address1": "3102 Old Spanish Trl", "address2": "", "address3": "", "city": "Houston", "zip_code": "77054", "country": "US", "state": "TX", "display_address": ["3102 Old Spanish Trl", "Houston, TX 77054"]}, "phone": "+17136432884", "display_phone": "(713) 643-2884", "distance": 3364.0605695798617}, {"id": "rFsemcixR5hJl3OoyY0cMA", "alias": "tamashi-ramen-and-sushi-houston-9", "name": "Tamashi Ramen and Sushi", "image_url": "https://s3-media4.fl.yelpcdn.com/bphoto/wOXkJT7PN8JOYxbObU2iiQ/o.jpg", "is_closed": false, "url": "https://www.yelp.com/biz/tamashi-ramen-and-sushi-houston-9?adjust_creative=a2JdNtFqB-C38ga_06BHvw&utm_campaign=yelp_api_v3&utm_medium=api_v3_business_search&utm_source=a2JdNtFqB-C38ga_06BHvw", "review_count": 492, "categories": [{"alias": "ramen", "title": "Ramen"}, {"alias": "sushi", "title": "Sushi Bars"}], "rating": 4.5, "coordinates": {"latitude": 29.70642, "longitude": -95.41726}, "transactions": ["pickup"], "price": "$$", "location": {"address1": "2518 W Holcombe Blvd", "address2": null, "address3": "", "city": "Houston", "zip_code": "77030", "country": "US", "state": "TX", "display_address": ["2518 W Holcombe Blvd", "Houston, TX 77030"]}, "phone": "+13462045523", "display_phone": "(346) 204-5523", "distance": 2497.2213837838203}, {"id": "po_D9oH5ahsD0tDWpFmREQ", "alias": "m-and-m-grill-houston", "name": "M&M Grill", "image_url": "https://s3-media4.fl.yelpcdn.com/bphoto/wGOai3KovBs9rx5QIOVAWg/o.jpg", "is_closed": false, "url": "https://www.yelp.com/biz/m-and-m-grill-houston?adjust_creative=a2JdNtFqB-C38ga_06BHvw&utm_campaign=yelp_api_v3&utm_medium=api_v3_business_search&utm_source=a2JdNtFqB-C38ga_06BHvw", "review_count": 787, "categories": [{"alias": "mediterranean", "title": "Mediterranean"}, {"alias": "mexican", "title": "Mexican"}, {"alias": "tex-mex", "title": "Tex-Mex"}], "rating": 4.5, "coordinates": {"latitude": 29.70125, "longitude": -95.38558}, "transactions": ["delivery", "pickup"], "price": "$", "location": {"address1": "6921 Almeda Rd", "address2": "", "address3": "", "city": "Houston", "zip_code": "77021", "country": "US", "state": "TX", "display_address": ["6921 Almeda Rd", "Houston, TX 77021"]}, "phone": "+17137478226", "display_phone": "(713) 747-8226", "distance": 3053.6270564266924}, {"id": "lY2rf6zMpwsgnD_YD_nxWQ", "alias": "gyro-king-houston", "name": "Gyro King", "image_url": "https://s3-media4.fl.yelpcdn.com/bphoto/wcubKKi2GR7ObTHCJD-SCQ/o.jpg", "is_closed": false, "url": "https://www.yelp.com/biz/gyro-king-houston?adjust_creative=a2JdNtFqB-C38ga_06BHvw&utm_campaign=yelp_api_v3&utm_medium=api_v3_business_search&utm_source=a2JdNtFqB-C38ga_06BHvw", "review_count": 759, "categories": [{"alias": "foodtrucks", "title": "Food Trucks"}, {"alias": "halal", "title": "Halal"}, {"alias": "mideastern", "title": "Middle Eastern"}], "rating": 4.5, "coordinates": {"latitude": 29.698073, "longitude": -95.387614}, "transactions": ["delivery", "pickup"], "price": "$", "location": {"address1": "2424 Old Spanish Trl", "address2": null, "address3": "", "city": "Houston", "zip_code": "77054", "country": "US", "state": "TX", "display_address": ["2424 Old Spanish Trl", "Houston, TX 77054"]}, "phone": "+18326184891", "display_phone": "(832) 618-4891", "distance": 2689.6677107034257}, {"id": "zZSh7sYJHRLOk-VqoCBWyw", "alias": "houstons-famous-deli-houston", "name": "Houston's Famous Deli", "image_url": "https://s3-media4.fl.yelpcdn.com/bphoto/0apdY5Lu5sCk0KYQ4s0gnw/o.jpg", "is_closed": false, "url": "https://www.yelp.com/biz/houstons-famous-deli-houston?adjust_creative=a2JdNtFqB-C38ga_06BHvw&utm_campaign=yelp_api_v3&utm_medium=api_v3_business_search&utm_source=a2JdNtFqB-C38ga_06BHvw", "review_count": 160, "categories": [{"alias": "delis", "title": "Delis"}, {"alias": "sandwiches", "title": "Sandwiches"}, {"alias": "soup", "title": "Soup"}], "rating": 4.5, "coordinates": {"latitude": 29.6851238, "longitude": -95.399255}, "transactions": ["delivery", "pickup"], "price": "$", "location": {"address1": "2130 Holly Hall St", "address2": "", "address3": "", "city": "Houston", "zip_code": "77054", "country": "US", "state": "TX", "display_address": ["2130 Holly Hall St", "Houston, TX 77054"]}, "phone": "+17137992544", "display_phone": "(713) 799-2544", "distance": 1176.0563948312142}, {"id": "lJNQ5VUVcEE733dYYQwaIg", "alias": "m3-pizza-houston", "name": "M3 Pizza", "image_url": "https://s3-media3.fl.yelpcdn.com/bphoto/2XWRn0k9KLw1-JBwWcFB3w/o.jpg", "is_closed": false, "url": "https://www.yelp.com/biz/m3-pizza-houston?adjust_creative=a2JdNtFqB-C38ga_06BHvw&utm_campaign=yelp_api_v3&utm_medium=api_v3_business_search&utm_source=a2JdNtFqB-C38ga_06BHvw", "review_count": 80, "categories": [{"alias": "pizza", "title": "Pizza"}], "rating": 4.5, "coordinates": {"latitude": 29.705232, "longitude": -95.441753}, "transactions": ["delivery"], "price": "$", "location": {"address1": "4009 Bellaire Blvd", "address2": "", "address3": null, "city": "Houston", "zip_code": "77025", "country": "US", "state": "TX", "display_address": ["4009 Bellaire Blvd", "Houston, TX 77025"]}, "phone": "+17135051505", "display_phone": "(713) 505-1505", "distance": 3757.806992866768}, {"id": "Ct-OviWlxYT6Of3MP_9Dqg", "alias": "asahi-sushi-houston", "name": "Asahi Sushi", "image_url": "https://s3-media3.fl.yelpcdn.com/bphoto/RGXG_o_JOQjVFSRWk7mlBA/o.jpg", "is_closed": false, "url": "https://www.yelp.com/biz/asahi-sushi-houston?adjust_creative=a2JdNtFqB-C38ga_06BHvw&utm_campaign=yelp_api_v3&utm_medium=api_v3_business_search&utm_source=a2JdNtFqB-C38ga_06BHvw", "review_count": 357, "categories": [{"alias": "sushi", "title": "Sushi Bars"}, {"alias": "japanese", "title": "Japanese"}], "rating": 4.0, "coordinates": {"latitude": 29.68877, "longitude": -95.4131533}, "transactions": ["pickup"], "price": "$$", "location": {"address1": "8236 Kirby Dr", "address2": "Ste 200", "address3": "", "city": "Houston", "zip_code": "77054", "country": "US", "state": "TX", "display_address": ["8236 Kirby Dr", "Ste 200", "Houston, TX 77054"]}, "phone": "+17136647686", "display_phone": "(713) 664-7686", "distance": 502.8361106047827}, {"id": "dhoIefBn2rD8AWz_IqRIUA", "alias": "super-la-mexicana-houston", "name": "Super La Mexicana", "image_url": "https://s3-media2.fl.yelpcdn.com/bphoto/VomRoPxb9uLOV9jxGj3xnw/o.jpg", "is_closed": false, "url": "https://www.yelp.com/biz/super-la-mexicana-houston?adjust_creative=a2JdNtFqB-C38ga_06BHvw&utm_campaign=yelp_api_v3&utm_medium=api_v3_business_search&utm_source=a2JdNtFqB-C38ga_06BHvw", "review_count": 167, "categories": [{"alias": "mexican", "title": "Mexican"}], "rating": 4.0, "coordinates": {"latitude": 29.67308, "longitude": -95.44022}, "transactions": ["delivery"], "price": "$", "location": {"address1": "10002 Stella Link Rd", "address2": "", "address3": "", "city": "Houston", "zip_code": "77025", "country": "US", "state": "TX", "display_address": ["10002 Stella Link Rd", "Houston, TX 77025"]}, "phone": "+17136612929", "display_phone": "(713) 661-2929", "distance": 3129.6196959458134}, {"id": "0d0yZGlBB8d13HSMUsrwaQ", "alias": "jlb-eatery-houston-5", "name": "JLB Eatery", "image_url": "https://s3-media3.fl.yelpcdn.com/bphoto/tMk2VfAUxO_QDPP-nIjM-Q/o.jpg", "is_closed": false, "url": "https://www.yelp.com/biz/jlb-eatery-houston-5?adjust_creative=a2JdNtFqB-C38ga_06BHvw&utm_campaign=yelp_api_v3&utm_medium=api_v3_business_search&utm_source=a2JdNtFqB-C38ga_06BHvw", "review_count": 38, "categories": [{"alias": "burgers", "title": "Burgers"}, {"alias": "tradamerican", "title": "American (Traditional)"}, {"alias": "fishnchips", "title": "Fish & Chips"}], "rating": 4.5, "coordinates": {"latitude": 29.686655, "longitude": -95.440521}, "transactions": ["delivery"], "location": {"address1": "8806 Stella Link Rd", "address2": null, "address3": "", "city": "Houston", "zip_code": "77025", "country": "US", "state": "TX", "display_address": ["8806 Stella Link Rd", "Houston, TX 77025"]}, "phone": "+18327789555", "display_phone": "(832) 778-9555", "distance": 2877.7122957666306}, {"id": "ly6NVHVYYRWey3GZvp-EKQ", "alias": "smootea-cafe-houston-2", "name": "Smootea Cafe", "image_url": "https://s3-media3.fl.yelpcdn.com/bphoto/9-jnf_UHpwsh5Ol5Q6AXlA/o.jpg", "is_closed": false, "url": "https://www.yelp.com/biz/smootea-cafe-houston-2?adjust_creative=a2JdNtFqB-C38ga_06BHvw&utm_campaign=yelp_api_v3&utm_medium=api_v3_business_search&utm_source=a2JdNtFqB-C38ga_06BHvw", "review_count": 87, "categories": [{"alias": "coffee", "title": "Coffee & Tea"}, {"alias": "bubbletea", "title": "Bubble Tea"}, {"alias": "vietnamese", "title": "Vietnamese"}], "rating": 4.5, "coordinates": {"latitude": 29.7057551, "longitude": -95.4414354}, "transactions": ["delivery", "pickup"], "price": "$", "location": {"address1": "4007 Bellaire Blvd", "address2": "Ste F", "address3": null, "city": "Houston", "zip_code": "77025", "country": "US", "state": "TX", "display_address": ["4007 Bellaire Blvd", "Ste F", "Houston, TX 77025"]}, "phone": "+17136654832", "display_phone": "(713) 665-4832", "distance": 3732.9999035715773}, {"id": "PbuRsM38RN7s7nHlfFapLg", "alias": "cooking-girl-houston-5", "name": "Cooking Girl", "image_url": "https://s3-media3.fl.yelpcdn.com/bphoto/KIkRcdgnJiii_Q3YpCKl9g/o.jpg", "is_closed": false, "url": "https://www.yelp.com/biz/cooking-girl-houston-5?adjust_creative=a2JdNtFqB-C38ga_06BHvw&utm_campaign=yelp_api_v3&utm_medium=api_v3_business_search&utm_source=a2JdNtFqB-C38ga_06BHvw", "review_count": 266, "categories": [{"alias": "szechuan", "title": "Szechuan"}], "rating": 4.0, "coordinates": {"latitude": 29.70636, "longitude": -95.41496}, "transactions": ["delivery"], "price": "$$", "location": {"address1": "2400 W Holcombe Blvd", "address2": "", "address3": null, "city": "Houston", "zip_code": "77030", "country": "US", "state": "TX", "display_address": ["2400 W Holcombe Blvd", "Houston, TX 77030"]}, "phone": "+18325481338", "display_phone": "(832) 548-1338", "distance": 2455.838989482451}, {"id": "3NNuAVeAYgpwYpNYdYev7Q", "alias": "poke-in-the-bowl-houston-3", "name": "Poke In The Bowl", "image_url": "https://s3-media1.fl.yelpcdn.com/bphoto/5eZThDxZQldVSi_SN_rEdQ/o.jpg", "is_closed": false, "url": "https://www.yelp.com/biz/poke-in-the-bowl-houston-3?adjust_creative=a2JdNtFqB-C38ga_06BHvw&utm_campaign=yelp_api_v3&utm_medium=api_v3_business_search&utm_source=a2JdNtFqB-C38ga_06BHvw", "review_count": 50, "categories": [{"alias": "poke", "title": "Poke"}, {"alias": "salad", "title": "Salad"}, {"alias": "sushi", "title": "Sushi Bars"}], "rating": 4.5, "coordinates": {"latitude": 29.709806, "longitude": -95.401913}, "transactions": ["delivery", "pickup"], "price": "$$", "location": {"address1": "6611 Main St", "address2": null, "address3": "", "city": "Houston", "zip_code": "77030", "country": "US", "state": "TX", "display_address": ["6611 Main St", "Houston, TX 77030"]}, "phone": "+18327673592", "display_phone": "(832) 767-3592", "distance": 2919.2497163334647}, {"id": "7SSl0x7FVx1AJf4jdTm1yw", "alias": "angeloz-houston", "name": "Angelo'z", "image_url": "https://s3-media2.fl.yelpcdn.com/bphoto/pFbMBMQrE6GJMINWnY3jiw/o.jpg", "is_closed": false, "url": "https://www.yelp.com/biz/angeloz-houston?adjust_creative=a2JdNtFqB-C38ga_06BHvw&utm_campaign=yelp_api_v3&utm_medium=api_v3_business_search&utm_source=a2JdNtFqB-C38ga_06BHvw", "review_count": 111, "categories": [{"alias": "delis", "title": "Delis"}, {"alias": "sandwiches", "title": "Sandwiches"}, {"alias": "grocery", "title": "Grocery"}], "rating": 4.0, "coordinates": {"latitude": 29.691598, "longitude": -95.412117}, "transactions": ["delivery", "pickup"], "price": "$", "location": {"address1": "8057 Kirby Dr", "address2": "Ste G", "address3": "", "city": "Houston", "zip_code": "77054", "country": "US", "state": "TX", "display_address": ["8057 Kirby Dr", "Ste G", "Houston, TX 77054"]}, "phone": "+17136673400", "display_phone": "(713) 667-3400", "distance": 774.5706951151941}, {"id": "CwE4HOuj9Ww-pUEx8JauLw", "alias": "la-fresca-pizza-houston-2", "name": "La Fresca Pizza", "image_url": "https://s3-media3.fl.yelpcdn.com/bphoto/TupSESeOqaxsD79P0pKdUg/o.jpg", "is_closed": false, "url": "https://www.yelp.com/biz/la-fresca-pizza-houston-2?adjust_creative=a2JdNtFqB-C38ga_06BHvw&utm_campaign=yelp_api_v3&utm_medium=api_v3_business_search&utm_source=a2JdNtFqB-C38ga_06BHvw", "review_count": 168, "categories": [{"alias": "pizza", "title": "Pizza"}, {"alias": "italian", "title": "Italian"}], "rating": 4.0, "coordinates": {"latitude": 29.7076867, "longitude": -95.4180686}, "transactions": ["delivery", "pickup"], "price": "$", "location": {"address1": "6603 Kirby Dr", "address2": "Ste B", "address3": "", "city": "Houston", "zip_code": "77005", "country": "US", "state": "TX", "display_address": ["6603 Kirby Dr", "Ste B", "Houston, TX 77005"]}, "phone": "+17137237778", "display_phone": "(713) 723-7778", "distance": 2647.4698957869473}, {"id": "gh4xsHOJj3cYOBg4DP_4qQ", "alias": "fajita-petes-bellaire-houston-2", "name": "Fajita Pete's - Bellaire", "image_url": "https://s3-media2.fl.yelpcdn.com/bphoto/27iAHfcZpN7QGXv7MSJuwg/o.jpg", "is_closed": false, "url": "https://www.yelp.com/biz/fajita-petes-bellaire-houston-2?adjust_creative=a2JdNtFqB-C38ga_06BHvw&utm_campaign=yelp_api_v3&utm_medium=api_v3_business_search&utm_source=a2JdNtFqB-C38ga_06BHvw", "review_count": 188, "categories": [{"alias": "mexican", "title": "Mexican"}, {"alias": "tex-mex", "title": "Tex-Mex"}], "rating": 4.0, "coordinates": {"latitude": 29.7068578624641, "longitude": -95.4408636465496}, "transactions": ["delivery", "pickup"], "price": "$$", "location": {"address1": "6719 Weslayan St", "address2": "", "address3": "", "city": "Houston", "zip_code": "77005", "country": "US", "state": "TX", "display_address": ["6719 Weslayan St", "Houston, TX 77005"]}, "phone": "+17137238100", "display_phone": "(713) 723-8100", "distance": 3804.2766160219694}, {"id": "8VYj0kuUnzRtcC7bvRb_Lg", "alias": "sleepys-po-boys-houston", "name": "Sleepy's Po-Boys", "image_url": "https://s3-media1.fl.yelpcdn.com/bphoto/-W8bga_3yG623x7jWJ4luw/o.jpg", "is_closed": false, "url": "https://www.yelp.com/biz/sleepys-po-boys-houston?adjust_creative=a2JdNtFqB-C38ga_06BHvw&utm_campaign=yelp_api_v3&utm_medium=api_v3_business_search&utm_source=a2JdNtFqB-C38ga_06BHvw", "review_count": 385, "categories": [{"alias": "cajun", "title": "Cajun/Creole"}, {"alias": "sandwiches", "title": "Sandwiches"}, {"alias": "fishnchips", "title": "Fish & Chips"}], "rating": 4.0, "coordinates": {"latitude": 29.679671, "longitude": -95.42486}, "transactions": ["delivery"], "price": "$", "location": {"address1": "9591 S Main St", "address2": null, "address3": "", "city": "Houston", "zip_code": "77025", "country": "US", "state": "TX", "display_address": ["9591 S Main St", "Houston, TX 77025"]}, "phone": "+17136623054", "display_phone": "(713) 662-3054", "distance": 1466.8539350612014}, {"id": "eDVkLnGK3fSHiYiwX6pZ7w", "alias": "akashi-asian-sushi-cuisine-and-wine-bar-houston-7", "name": "Akashi Asian Sushi Cuisine & Wine Bar", "image_url": "https://s3-media1.fl.yelpcdn.com/bphoto/cqG7xQfwQvxSq8Xuv_8rKw/o.jpg", "is_closed": false, "url": "https://www.yelp.com/biz/akashi-asian-sushi-cuisine-and-wine-bar-houston-7?adjust_creative=a2JdNtFqB-C38ga_06BHvw&utm_campaign=yelp_api_v3&utm_medium=api_v3_business_search&utm_source=a2JdNtFqB-C38ga_06BHvw", "review_count": 219, "categories": [{"alias": "sushi", "title": "Sushi Bars"}, {"alias": "chinese", "title": "Chinese"}, {"alias": "cocktailbars", "title": "Cocktail Bars"}], "rating": 4.0, "coordinates": {"latitude": 29.6914752582579, "longitude": -95.4131117723453}, "transactions": ["delivery", "pickup"], "price": "$$", "location": {"address1": "8216 Kirby Dr", "address2": "", "address3": null, "city": "Houston", "zip_code": "77054", "country": "US", "state": "TX", "display_address": ["8216 Kirby Dr", "Houston, TX 77054"]}, "phone": "+17136658888", "display_phone": "(713) 665-8888", "distance": 782.5262933131081}, {"id": "9OUyFPXhaafhJAsmMn-kcA", "alias": "common-bond-bistro-and-bakery-med-center-houston-2", "name": "Common Bond Bistro & Bakery - Med Center", "image_url": "https://s3-media3.fl.yelpcdn.com/bphoto/7QZKoVKF3Z4W97fKlXRMPA/o.jpg", "is_closed": false, "url": "https://www.yelp.com/biz/common-bond-bistro-and-bakery-med-center-houston-2?adjust_creative=a2JdNtFqB-C38ga_06BHvw&utm_campaign=yelp_api_v3&utm_medium=api_v3_business_search&utm_source=a2JdNtFqB-C38ga_06BHvw", "review_count": 181, "categories": [{"alias": "bakeries", "title": "Bakeries"}, {"alias": "breakfast_brunch", "title": "Breakfast & Brunch"}, {"alias": "soup", "title": "Soup"}], "rating": 4.0, "coordinates": {"latitude": 29.70686929999999, "longitude": -95.4119478}, "transactions": ["pickup", "delivery"], "price": "$$", "location": {"address1": "2278 W Holcombe Blvd", "address2": "", "address3": null, "city": "Houston", "zip_code": "77030", "country": "US", "state": "TX", "display_address": ["2278 W Holcombe Blvd", "Houston, TX 77030"]}, "phone": "+13463278393", "display_phone": "(346) 327-8393", "distance": 2465.0176988099233}, {"id": "ujvXSE9fY-qAheMMlK65aA", "alias": "the-halal-guys-houston-6", "name": "The Halal Guys", "image_url": "https://s3-media1.fl.yelpcdn.com/bphoto/LB_qONQhKNllYQNbsX5cBg/o.jpg", "is_closed": false, "url": "https://www.yelp.com/biz/the-halal-guys-houston-6?adjust_creative=a2JdNtFqB-C38ga_06BHvw&utm_campaign=yelp_api_v3&utm_medium=api_v3_business_search&utm_source=a2JdNtFqB-C38ga_06BHvw", "review_count": 96, "categories": [{"alias": "halal", "title": "Halal"}, {"alias": "mideastern", "title": "Middle Eastern"}, {"alias": "mediterranean", "title": "Mediterranean"}], "rating": 4.0, "coordinates": {"latitude": 29.709875, "longitude": -95.401791}, "transactions": ["pickup", "delivery"], "location": {"address1": "6609 Main St", "address2": "", "address3": null, "city": "Houston", "zip_code": "77030", "country": "US", "state": "TX", "display_address": ["6609 Main St", "Houston, TX 77030"]}, "phone": "+18324095454", "display_phone": "(832) 409-5454", "distance": 2923.722939920449}, {"id": "ilvQ2hK8k5q3eLis0we6kg", "alias": "j-and-j-fish-market-houston", "name": "J & J Fish Market", "image_url": "https://s3-media3.fl.yelpcdn.com/bphoto/0x1bzvS3zEG57_-jS1xSDA/o.jpg", "is_closed": false, "url": "https://www.yelp.com/biz/j-and-j-fish-market-houston?adjust_creative=a2JdNtFqB-C38ga_06BHvw&utm_campaign=yelp_api_v3&utm_medium=api_v3_business_search&utm_source=a2JdNtFqB-C38ga_06BHvw", "review_count": 146, "categories": [{"alias": "seafoodmarkets", "title": "Seafood Markets"}, {"alias": "seafood", "title": "Seafood"}], "rating": 4.0, "coordinates": {"latitude": 29.67993, "longitude": -95.4392699}, "transactions": ["delivery"], "price": "$$", "location": {"address1": "3825 Woodvalley Dr", "address2": "", "address3": "", "city": "Houston", "zip_code": "77025", "country": "US", "state": "TX", "display_address": ["3825 Woodvalley Dr", "Houston, TX 77025"]}, "phone": "+17136616102", "display_phone": "(713) 661-6102", "distance": 2782.8352322439323}, {"id": "FBcx0tipGBASnIb6fFGXjw", "alias": "dimassis-mediterranean-buffet-houston-3", "name": "Dimassi's Mediterranean Buffet", "image_url": "https://s3-media3.fl.yelpcdn.com/bphoto/_N87llR_Qy4ODqRQTMCSFQ/o.jpg", "is_closed": false, "url": "https://www.yelp.com/biz/dimassis-mediterranean-buffet-houston-3?adjust_creative=a2JdNtFqB-C38ga_06BHvw&utm_campaign=yelp_api_v3&utm_medium=api_v3_business_search&utm_source=a2JdNtFqB-C38ga_06BHvw", "review_count": 284, "categories": [{"alias": "mideastern", "title": "Middle Eastern"}, {"alias": "buffets", "title": "Buffets"}], "rating": 4.0, "coordinates": {"latitude": 29.689106703537, "longitude": -95.4130176562456}, "transactions": ["pickup", "delivery"], "price": "$$", "location": {"address1": "8236 Kirby Dr", "address2": "", "address3": "", "city": "Houston", "zip_code": "77054", "country": "US", "state": "TX", "display_address": ["8236 Kirby Dr", "Houston, TX 77054"]}, "phone": "+17135265111", "display_phone": "(713) 526-5111", "distance": 531.2701228295385}, {"id": "OdAC92_WUTFCcoAqGR33kQ", "alias": "southwells-hamburger-grill-houston-2", "name": "Southwell's Hamburger Grill", "image_url": "https://s3-media4.fl.yelpcdn.com/bphoto/yySrxq6FFgoUjHp3_UADMA/o.jpg", "is_closed": false, "url": "https://www.yelp.com/biz/southwells-hamburger-grill-houston-2?adjust_creative=a2JdNtFqB-C38ga_06BHvw&utm_campaign=yelp_api_v3&utm_medium=api_v3_business_search&utm_source=a2JdNtFqB-C38ga_06BHvw", "review_count": 184, "categories": [{"alias": "burgers", "title": "Burgers"}, {"alias": "hotdog", "title": "Hot Dogs"}, {"alias": "sandwiches", "title": "Sandwiches"}], "rating": 4.0, "coordinates": {"latitude": 29.7064049, "longitude": -95.41164}, "transactions": ["delivery"], "price": "$", "location": {"address1": "2252 W Holcombe Blvd", "address2": "", "address3": "", "city": "Houston", "zip_code": "77030", "country": "US", "state": "TX", "display_address": ["2252 W Holcombe Blvd", "Houston, TX 77030"]}, "phone": "+17136644959", "display_phone": "(713) 664-4959", "distance": 2430.614894707932}, {"id": "w9X6798uvqw8_ju8jE0iMA", "alias": "paulies-poboys-houston", "name": "Paulie's Poboys", "image_url": "https://s3-media1.fl.yelpcdn.com/bphoto/CUUo7G3W_CVKlma9uEYk5w/o.jpg", "is_closed": false, "url": "https://www.yelp.com/biz/paulies-poboys-houston?adjust_creative=a2JdNtFqB-C38ga_06BHvw&utm_campaign=yelp_api_v3&utm_medium=api_v3_business_search&utm_source=a2JdNtFqB-C38ga_06BHvw", "review_count": 68, "categories": [{"alias": "sandwiches", "title": "Sandwiches"}, {"alias": "desserts", "title": "Desserts"}], "rating": 4.0, "coordinates": {"latitude": 29.7057851, "longitude": -95.4385664}, "transactions": ["pickup", "delivery"], "price": "$", "location": {"address1": "3823 Bellaire Blvd", "address2": "", "address3": "", "city": "Houston", "zip_code": "77025", "country": "US", "state": "TX", "display_address": ["3823 Bellaire Blvd", "Houston, TX 77025"]}, "phone": "+17132188383", "display_phone": "(713) 218-8383", "distance": 3473.7795642081323}, {"id": "CU-oehdExi8fnsId7RmfMQ", "alias": "viets-express-houston-3", "name": "Viet's Express", "image_url": "https://s3-media3.fl.yelpcdn.com/bphoto/ryqr_6tTULbeZSPmr794xw/o.jpg", "is_closed": false, "url": "https://www.yelp.com/biz/viets-express-houston-3?adjust_creative=a2JdNtFqB-C38ga_06BHvw&utm_campaign=yelp_api_v3&utm_medium=api_v3_business_search&utm_source=a2JdNtFqB-C38ga_06BHvw", "review_count": 94, "categories": [{"alias": "vietnamese", "title": "Vietnamese"}, {"alias": "noodles", "title": "Noodles"}], "rating": 4.0, "coordinates": {"latitude": 29.69174, "longitude": -95.41226}, "transactions": ["pickup"], "price": "$", "location": {"address1": "8057 Kirby Dr", "address2": "Ste F", "address3": null, "city": "Houston", "zip_code": "77054", "country": "US", "state": "TX", "display_address": ["8057 Kirby Dr", "Ste F", "Houston, TX 77054"]}, "phone": "+18329683643", "display_phone": "(832) 968-3643", "distance": 797.9626664132961}, {"id": "CS5ZFD8UMpy3hH2YsH8I1Q", "alias": "coreanos-houston-23", "name": "Coreanos", "image_url": "https://s3-media1.fl.yelpcdn.com/bphoto/Ieb3vPfOmG-iSvBDFWBJLw/o.jpg", "is_closed": false, "url": "https://www.yelp.com/biz/coreanos-houston-23?adjust_creative=a2JdNtFqB-C38ga_06BHvw&utm_campaign=yelp_api_v3&utm_medium=api_v3_business_search&utm_source=a2JdNtFqB-C38ga_06BHvw", "review_count": 457, "categories": [{"alias": "korean", "title": "Korean"}, {"alias": "mexican", "title": "Mexican"}, {"alias": "foodtrucks", "title": "Food Trucks"}], "rating": 3.5, "coordinates": {"latitude": 29.6915307, "longitude": -95.3900697}, "transactions": ["pickup", "delivery"], "price": "$", "location": {"address1": "7500 Almeda Rd", "address2": null, "address3": null, "city": "Houston", "zip_code": "77054", "country": "US", "state": "TX", "display_address": ["7500 Almeda Rd", "Houston, TX 77054"]}, "phone": "+12817283751", "display_phone": "(281) 728-3751", "distance": 2143.840993622012}, {"id": "3Fh8JJYpYi4Jl8cUgObjdg", "alias": "pokeworks-houston-8", "name": "Pokeworks", "image_url": "https://s3-media2.fl.yelpcdn.com/bphoto/WiH1dBlqr-OluvvhgfIOow/o.jpg", "is_closed": false, "url": "https://www.yelp.com/biz/pokeworks-houston-8?adjust_creative=a2JdNtFqB-C38ga_06BHvw&utm_campaign=yelp_api_v3&utm_medium=api_v3_business_search&utm_source=a2JdNtFqB-C38ga_06BHvw", "review_count": 50, "categories": [{"alias": "salad", "title": "Salad"}, {"alias": "sushi", "title": "Sushi Bars"}, {"alias": "poke", "title": "Poke"}], "rating": 4.0, "coordinates": {"latitude": 29.6909869677586, "longitude": -95.4158909563446}, "transactions": ["pickup", "delivery"], "price": "$$", "location": {"address1": "8505 Main St", "address2": "Ste 150", "address3": null, "city": "Houston", "zip_code": "77025", "country": "US", "state": "TX", "display_address": ["8505 Main St", "Ste 150", "Houston, TX 77025"]}, "phone": "+12818885381", "display_phone": "(281) 888-5381", "distance": 850.893360808043}, {"id": "ZQGQxa1aRZpry41fUbNkjA", "alias": "capt-bennys-houston-5", "name": "Capt Benny's", "image_url": "https://s3-media3.fl.yelpcdn.com/bphoto/uXAwSchtr8UMLjmcfnSAIw/o.jpg", "is_closed": false, "url": "https://www.yelp.com/biz/capt-bennys-houston-5?adjust_creative=a2JdNtFqB-C38ga_06BHvw&utm_campaign=yelp_api_v3&utm_medium=api_v3_business_search&utm_source=a2JdNtFqB-C38ga_06BHvw", "review_count": 301, "categories": [{"alias": "seafood", "title": "Seafood"}, {"alias": "cajun", "title": "Cajun/Creole"}, {"alias": "sandwiches", "title": "Sandwiches"}], "rating": 3.5, "coordinates": {"latitude": 29.690912, "longitude": -95.417684}, "transactions": ["pickup", "delivery"], "price": "$$", "location": {"address1": "8506 S Main St", "address2": "", "address3": "", "city": "Houston", "zip_code": "77025", "country": "US", "state": "TX", "display_address": ["8506 S Main St", "Houston, TX 77025"]}, "phone": "+17136665469", "display_phone": "(713) 666-5469", "distance": 954.8456764673108}, {"id": "KZOPsSm0lWpErdKKzvodcQ", "alias": "our-deli-houston", "name": "Our Deli", "image_url": "https://s3-media1.fl.yelpcdn.com/bphoto/jvYMciVC6JjePCsppcMPOw/o.jpg", "is_closed": false, "url": "https://www.yelp.com/biz/our-deli-houston?adjust_creative=a2JdNtFqB-C38ga_06BHvw&utm_campaign=yelp_api_v3&utm_medium=api_v3_business_search&utm_source=a2JdNtFqB-C38ga_06BHvw", "review_count": 13, "categories": [{"alias": "vietnamese", "title": "Vietnamese"}, {"alias": "delis", "title": "Delis"}], "rating": 5.0, "coordinates": {"latitude": 29.67855, "longitude": -95.4199}, "transactions": ["delivery"], "price": "$", "location": {"address1": "2616 S Lp W", "address2": "Ste 101", "address3": "", "city": "Houston", "zip_code": "77054", "country": "US", "state": "TX", "display_address": ["2616 S Lp W", "Ste 101", "Houston, TX 77054"]}, "phone": "+17135920040", "display_phone": "(713) 592-0040", "distance": 1119.1167684804896}, {"id": "o73N18_XJHsl-6gAWd3bVQ", "alias": "tacos-y-tortas-el-pastorsito-df-houston", "name": "Tacos Y Tortas El Pastorsito DF", "image_url": "https://s3-media3.fl.yelpcdn.com/bphoto/ROhUBAuULyj8HLkXc05Mzw/o.jpg", "is_closed": false, "url": "https://www.yelp.com/biz/tacos-y-tortas-el-pastorsito-df-houston?adjust_creative=a2JdNtFqB-C38ga_06BHvw&utm_campaign=yelp_api_v3&utm_medium=api_v3_business_search&utm_source=a2JdNtFqB-C38ga_06BHvw", "review_count": 29, "categories": [{"alias": "foodtrucks", "title": "Food Trucks"}, {"alias": "tacos", "title": "Tacos"}], "rating": 4.5, "coordinates": {"latitude": 29.693364, "longitude": -95.408443}, "transactions": ["delivery"], "price": "$", "location": {"address1": "8000 North Stadium Dr", "address2": "", "address3": "", "city": "Houston", "zip_code": "77054", "country": "US", "state": "TX", "display_address": ["8000 North Stadium Dr", "Houston, TX 77054"]}, "phone": "+17132917654", "display_phone": "(713) 291-7654", "distance": 987.542187241602}, {"id": "njL10Db1Vqb-9W5uU-_m9Q", "alias": "pepperonis-med-center-houston", "name": "Pepperoni's - Med Center", "image_url": "https://s3-media1.fl.yelpcdn.com/bphoto/8NttKq8LD23bfN7Qr7uTYw/o.jpg", "is_closed": false, "url": "https://www.yelp.com/biz/pepperonis-med-center-houston?adjust_creative=a2JdNtFqB-C38ga_06BHvw&utm_campaign=yelp_api_v3&utm_medium=api_v3_business_search&utm_source=a2JdNtFqB-C38ga_06BHvw", "review_count": 87, "categories": [{"alias": "pizza", "title": "Pizza"}], "rating": 4.0, "coordinates": {"latitude": 29.6917051596463, "longitude": -95.4172337427735}, "transactions": ["pickup", "delivery"], "price": "$", "location": {"address1": "8502 S Main St", "address2": "Ste D", "address3": "", "city": "Houston", "zip_code": "77025", "country": "US", "state": "TX", "display_address": ["8502 S Main St", "Ste D", "Houston, TX 77025"]}, "phone": "+17136645353", "display_phone": "(713) 664-5353", "distance": 992.5910741135195}, {"id": "_7bh2IZLOekQxMDktGl2fw", "alias": "garden-kitchen-houston", "name": "Garden Kitchen", "image_url": "https://s3-media1.fl.yelpcdn.com/bphoto/s9kYjCTS0l8w5RFuYBcNZQ/o.jpg", "is_closed": false, "url": "https://www.yelp.com/biz/garden-kitchen-houston?adjust_creative=a2JdNtFqB-C38ga_06BHvw&utm_campaign=yelp_api_v3&utm_medium=api_v3_business_search&utm_source=a2JdNtFqB-C38ga_06BHvw", "review_count": 58, "categories": [{"alias": "vegan", "title": "Vegan"}, {"alias": "raw_food", "title": "Live/Raw Food"}, {"alias": "vegetarian", "title": "Vegetarian"}], "rating": 4.0, "coordinates": {"latitude": 29.671666, "longitude": -95.433249}, "transactions": ["delivery"], "price": "$$", "location": {"address1": "10480 Main St", "address2": "", "address3": "", "city": "Houston", "zip_code": "77025", "country": "US", "state": "TX", "display_address": ["10480 Main St", "Houston, TX 77025"]}, "phone": "+18323507534", "display_phone": "(832) 350-7534", "distance": 2599.484299599841}, {"id": "dSxmaw6NBLj_1nATayEgeQ", "alias": "prima-pasta-houston-4", "name": "Prima Pasta", "image_url": "https://s3-media3.fl.yelpcdn.com/bphoto/F3mdIZcTOzj9tP9CoRXiyw/o.jpg", "is_closed": false, "url": "https://www.yelp.com/biz/prima-pasta-houston-4?adjust_creative=a2JdNtFqB-C38ga_06BHvw&utm_campaign=yelp_api_v3&utm_medium=api_v3_business_search&utm_source=a2JdNtFqB-C38ga_06BHvw", "review_count": 232, "categories": [{"alias": "italian", "title": "Italian"}], "rating": 3.5, "coordinates": {"latitude": 29.7054576873779, "longitude": -95.4179534912109}, "transactions": ["pickup", "delivery"], "price": "$$", "location": {"address1": "6811 Kirby Dr", "address2": "", "address3": "", "city": "Houston", "zip_code": "77030", "country": "US", "state": "TX", "display_address": ["6811 Kirby Dr", "Houston, TX 77030"]}, "phone": "+17136664047", "display_phone": "(713) 666-4047", "distance": 2405.373745362607}, {"id": "HbbtYjGSLEq2Xd_F0o4JTQ", "alias": "two-guys-pizzeria-houston", "name": "Two Guys Pizzeria", "image_url": "https://s3-media2.fl.yelpcdn.com/bphoto/A5V9ZM2m6pH2mgCLpcHZ8g/o.jpg", "is_closed": false, "url": "https://www.yelp.com/biz/two-guys-pizzeria-houston?adjust_creative=a2JdNtFqB-C38ga_06BHvw&utm_campaign=yelp_api_v3&utm_medium=api_v3_business_search&utm_source=a2JdNtFqB-C38ga_06BHvw", "review_count": 226, "categories": [{"alias": "pizza", "title": "Pizza"}], "rating": 3.5, "coordinates": {"latitude": 29.7065174112828, "longitude": -95.4116013935114}, "transactions": ["pickup", "delivery"], "price": "$$", "location": {"address1": "2250 W Holcombe Blvd", "address2": "", "address3": "", "city": "Houston", "zip_code": "77030", "country": "US", "state": "TX", "display_address": ["2250 W Holcombe Blvd", "Houston, TX 77030"]}, "phone": "+17136606262", "display_phone": "(713) 660-6262", "distance": 2424.6726950375987}, {"id": "MstuvwhTyAbI5Mxuofb79g", "alias": "tayeb-mandi-and-mediterranean-grill-houston", "name": "Tayeb Mandi and Mediterranean Grill", "image_url": "https://s3-media4.fl.yelpcdn.com/bphoto/rk0KVaEGmsHum4d4RWSobA/o.jpg", "is_closed": false, "url": "https://www.yelp.com/biz/tayeb-mandi-and-mediterranean-grill-houston?adjust_creative=a2JdNtFqB-C38ga_06BHvw&utm_campaign=yelp_api_v3&utm_medium=api_v3_business_search&utm_source=a2JdNtFqB-C38ga_06BHvw", "review_count": 57, "categories": [{"alias": "mediterranean", "title": "Mediterranean"}, {"alias": "halal", "title": "Halal"}, {"alias": "mideastern", "title": "Middle Eastern"}], "rating": 4.0, "coordinates": {"latitude": 29.685092387504806, "longitude": -95.39109103568748}, "transactions": ["pickup", "delivery"], "price": "$", "location": {"address1": "8403 Almeda Rd", "address2": "Ste A", "address3": "", "city": "Houston", "zip_code": "77054", "country": "US", "state": "TX", "display_address": ["8403 Almeda Rd", "Ste A", "Houston, TX 77054"]}, "phone": "+18326494111", "display_phone": "(832) 649-4111", "distance": 1907.5543270899564}, {"id": "cZMcMPW0HUO7SxHznBFS5Q", "alias": "smashburger-houston-26", "name": "Smashburger", "image_url": "https://s3-media1.fl.yelpcdn.com/bphoto/kMKMc414LbWz2UGw4SWuoQ/o.jpg", "is_closed": false, "url": "https://www.yelp.com/biz/smashburger-houston-26?adjust_creative=a2JdNtFqB-C38ga_06BHvw&utm_campaign=yelp_api_v3&utm_medium=api_v3_business_search&utm_source=a2JdNtFqB-C38ga_06BHvw", "review_count": 330, "categories": [{"alias": "tradamerican", "title": "American (Traditional)"}, {"alias": "burgers", "title": "Burgers"}], "rating": 3.5, "coordinates": {"latitude": 29.694638, "longitude": -95.413638}, "transactions": ["pickup", "delivery"], "price": "$", "location": {"address1": "7811 Main St", "address2": "", "address3": "", "city": "Houston", "zip_code": "77030", "country": "US", "state": "TX", "display_address": ["7811 Main St", "Houston, TX 77030"]}, "phone": "+17134914526", "display_phone": "(713) 491-4526", "distance": 1135.4120012882606}, {"id": "MIXe-4GojprQkcfSPk_NVA", "alias": "pappasitos-cantina-houston-5", "name": "Pappasito's Cantina", "image_url": "https://s3-media1.fl.yelpcdn.com/bphoto/9Lx1r3-8A1trbmJngEpEVA/o.jpg", "is_closed": false, "url": "https://www.yelp.com/biz/pappasitos-cantina-houston-5?adjust_creative=a2JdNtFqB-C38ga_06BHvw&utm_campaign=yelp_api_v3&utm_medium=api_v3_business_search&utm_source=a2JdNtFqB-C38ga_06BHvw", "review_count": 309, "categories": [{"alias": "tex-mex", "title": "Tex-Mex"}, {"alias": "seafood", "title": "Seafood"}], "rating": 3.5, "coordinates": {"latitude": 29.6767729, "longitude": -95.4155768}, "transactions": ["delivery"], "price": "$$", "location": {"address1": "2515 S Lp W", "address2": "", "address3": "", "city": "Houston", "zip_code": "77054", "country": "US", "state": "TX", "display_address": ["2515 S Lp W", "Houston, TX 77054"]}, "phone": "+17136685756", "display_phone": "(713) 668-5756", "distance": 995.6385379078945}, {"id": "SCSx6wmh3FyL8TpAIfW8Bw", "alias": "russos-new-york-pizzeria-houston-17", "name": "Russo's New York Pizzeria", "image_url": "https://s3-media2.fl.yelpcdn.com/bphoto/Z7h1mhQ_vGsypN0YoxAUjQ/o.jpg", "is_closed": false, "url": "https://www.yelp.com/biz/russos-new-york-pizzeria-houston-17?adjust_creative=a2JdNtFqB-C38ga_06BHvw&utm_campaign=yelp_api_v3&utm_medium=api_v3_business_search&utm_source=a2JdNtFqB-C38ga_06BHvw", "review_count": 155, "categories": [{"alias": "pizza", "title": "Pizza"}, {"alias": "italian", "title": "Italian"}, {"alias": "sandwiches", "title": "Sandwiches"}], "rating": 3.5, "coordinates": {"latitude": 29.6890166, "longitude": -95.4130874}, "transactions": ["pickup", "delivery"], "price": "$$", "location": {"address1": "8236 Kirby Dr", "address2": "Ste 160", "address3": "", "city": "Houston", "zip_code": "77054", "country": "US", "state": "TX", "display_address": ["8236 Kirby Dr", "Ste 160", "Houston, TX 77054"]}, "phone": "+17136678888", "display_phone": "(713) 667-8888", "distance": 524.8501523557183}, {"id": "_rqTUAAMhZAS3h_RM6w-ag", "alias": "osaka-japanese-restaurant-ii-houston-2", "name": "Osaka Japanese Restaurant II", "image_url": "https://s3-media2.fl.yelpcdn.com/bphoto/8WMWFfZLn-vswTDxK_cOBA/o.jpg", "is_closed": false, "url": "https://www.yelp.com/biz/osaka-japanese-restaurant-ii-houston-2?adjust_creative=a2JdNtFqB-C38ga_06BHvw&utm_campaign=yelp_api_v3&utm_medium=api_v3_business_search&utm_source=a2JdNtFqB-C38ga_06BHvw", "review_count": 144, "categories": [{"alias": "sushi", "title": "Sushi Bars"}, {"alias": "japanese", "title": "Japanese"}], "rating": 3.5, "coordinates": {"latitude": 29.70555, "longitude": -95.44063}, "transactions": ["delivery"], "price": "$$", "location": {"address1": "4001 Bellaire Blvd", "address2": "Ste J", "address3": "", "city": "Houston", "zip_code": "77025", "country": "US", "state": "TX", "display_address": ["4001 Bellaire Blvd", "Ste J", "Houston, TX 77025"]}, "phone": "+17138389812", "display_phone": "(713) 838-9812", "distance": 3687.4689952739573}, {"id": "6YiMq5EfAQhSdaKjcM6xWQ", "alias": "third-coast-houston-3", "name": "Third Coast", "image_url": "https://s3-media3.fl.yelpcdn.com/bphoto/Bn3btXv53_5-EL-UCOfdOg/o.jpg", "is_closed": false, "url": "https://www.yelp.com/biz/third-coast-houston-3?adjust_creative=a2JdNtFqB-C38ga_06BHvw&utm_campaign=yelp_api_v3&utm_medium=api_v3_business_search&utm_source=a2JdNtFqB-C38ga_06BHvw", "review_count": 61, "categories": [{"alias": "newamerican", "title": "American (New)"}, {"alias": "cocktailbars", "title": "Cocktail Bars"}, {"alias": "venues", "title": "Venues & Event Spaces"}], "rating": 4.0, "coordinates": {"latitude": 29.709431, "longitude": -95.397966}, "transactions": ["delivery"], "price": "$$$", "location": {"address1": "6550 Bertner Ave", "address2": "Fl 6", "address3": null, "city": "Houston", "zip_code": "77030", "country": "US", "state": "TX", "display_address": ["6550 Bertner Ave", "Fl 6", "Houston, TX 77030"]}, "phone": "+17137490400", "display_phone": "(713) 749-0400", "distance": 3036.3815060971656}, {"id": "74pgcjtx2UCmB7xRji5uaA", "alias": "liberty-taco-houston-3", "name": "Liberty Taco", "image_url": "https://s3-media3.fl.yelpcdn.com/bphoto/QYwetao0KByogYCjSYIiFw/o.jpg", "is_closed": false, "url": "https://www.yelp.com/biz/liberty-taco-houston-3?adjust_creative=a2JdNtFqB-C38ga_06BHvw&utm_campaign=yelp_api_v3&utm_medium=api_v3_business_search&utm_source=a2JdNtFqB-C38ga_06BHvw", "review_count": 70, "categories": [{"alias": "mexican", "title": "Mexican"}, {"alias": "breakfast_brunch", "title": "Breakfast & Brunch"}, {"alias": "seafood", "title": "Seafood"}], "rating": 4.0, "coordinates": {"latitude": 29.69414, "longitude": -95.41223}, "transactions": ["pickup", "delivery"], "price": "$", "location": {"address1": "1333 Old Spanish Trl", "address2": "Ste 100-A", "address3": null, "city": "Houston", "zip_code": "77054", "country": "US", "state": "TX", "display_address": ["1333 Old Spanish Trl", "Ste 100-A", "Houston, TX 77054"]}, "phone": "+18325202626", "display_phone": "(832) 520-2626", "distance": 1080.9266875908947}, {"id": "6lFe8AxLq9UTg_soccSmCA", "alias": "china-stix-houston", "name": "China Stix", "image_url": "https://s3-media2.fl.yelpcdn.com/bphoto/5vhnzODC2V3oAUcoFaZjnw/o.jpg", "is_closed": false, "url": "https://www.yelp.com/biz/china-stix-houston?adjust_creative=a2JdNtFqB-C38ga_06BHvw&utm_campaign=yelp_api_v3&utm_medium=api_v3_business_search&utm_source=a2JdNtFqB-C38ga_06BHvw", "review_count": 234, "categories": [{"alias": "chinese", "title": "Chinese"}, {"alias": "seafood", "title": "Seafood"}, {"alias": "soup", "title": "Soup"}], "rating": 3.5, "coordinates": {"latitude": 29.7058951, "longitude": -95.4262298}, "transactions": [], "price": "$", "location": {"address1": "3141 W Holcombe Blvd", "address2": "", "address3": "", "city": "Houston", "zip_code": "77025", "country": "US", "state": "TX", "display_address": ["3141 W Holcombe Blvd", "Houston, TX 77025"]}, "phone": "+17132188100", "display_phone": "(713) 218-8100", "distance": 2710.0681238981088}, {"id": "xp1gUCn0oB2dGpfciWe6qQ", "alias": "pappadeaux-seafood-kitchen-houston-6", "name": "Pappadeaux Seafood Kitchen", "image_url": "https://s3-media1.fl.yelpcdn.com/bphoto/q6tFpOyIgzzUNeo_-bbXyw/o.jpg", "is_closed": false, "url": "https://www.yelp.com/biz/pappadeaux-seafood-kitchen-houston-6?adjust_creative=a2JdNtFqB-C38ga_06BHvw&utm_campaign=yelp_api_v3&utm_medium=api_v3_business_search&utm_source=a2JdNtFqB-C38ga_06BHvw", "review_count": 377, "categories": [{"alias": "seafood", "title": "Seafood"}, {"alias": "cajun", "title": "Cajun/Creole"}], "rating": 3.5, "coordinates": {"latitude": 29.676789, "longitude": -95.41655}, "transactions": ["delivery"], "price": "$$", "location": {"address1": "2525 S Loop West Fwy", "address2": "", "address3": "NRG Stadium", "city": "Houston", "zip_code": "77054", "country": "US", "state": "TX", "display_address": ["2525 S Loop West Fwy", "NRG Stadium", "Houston, TX 77054"]}, "phone": "+17136653155", "display_phone": "(713) 665-3155", "distance": 1040.7427185359918}, {"id": "zEhxBvcwyYKUgX05L1iLjg", "alias": "jollibee-houston", "name": "Jollibee", "image_url": "https://s3-media1.fl.yelpcdn.com/bphoto/h3w0IXweR-goEByZX41ljg/o.jpg", "is_closed": false, "url": "https://www.yelp.com/biz/jollibee-houston?adjust_creative=a2JdNtFqB-C38ga_06BHvw&utm_campaign=yelp_api_v3&utm_medium=api_v3_business_search&utm_source=a2JdNtFqB-C38ga_06BHvw", "review_count": 593, "categories": [{"alias": "filipino", "title": "Filipino"}, {"alias": "hotdogs", "title": "Fast Food"}, {"alias": "chickenshop", "title": "Chicken Shop"}], "rating": 3.5, "coordinates": {"latitude": 29.693498, "longitude": -95.414648}, "transactions": ["delivery"], "price": "$", "location": {"address1": "8001 S Main St", "address2": "Ste 100", "address3": "", "city": "Houston", "zip_code": "77025", "country": "US", "state": "TX", "display_address": ["8001 S Main St", "Ste 100", "Houston, TX 77025"]}, "phone": "+17136658914", "display_phone": "(713) 665-8914", "distance": 1043.1116928861943}, {"id": "Ys8JIZWrNgiA0mxBhCwoWQ", "alias": "kolache-factory-houston-14", "name": "Kolache Factory", "image_url": "https://s3-media2.fl.yelpcdn.com/bphoto/7-DNt9H-7l3EkzNinVPw4g/o.jpg", "is_closed": false, "url": "https://www.yelp.com/biz/kolache-factory-houston-14?adjust_creative=a2JdNtFqB-C38ga_06BHvw&utm_campaign=yelp_api_v3&utm_medium=api_v3_business_search&utm_source=a2JdNtFqB-C38ga_06BHvw", "review_count": 66, "categories": [{"alias": "bakeries", "title": "Bakeries"}, {"alias": "breakfast_brunch", "title": "Breakfast & Brunch"}, {"alias": "coffee", "title": "Coffee & Tea"}], "rating": 4.0, "coordinates": {"latitude": 29.694639, "longitude": -95.4135851902509}, "transactions": ["delivery"], "price": "$", "location": {"address1": "7811 Main St", "address2": "Ste 300", "address3": "", "city": "Houston", "zip_code": "77030", "country": "US", "state": "TX", "display_address": ["7811 Main St", "Ste 300", "Houston, TX 77030"]}, "phone": "+17137909992", "display_phone": "(713) 790-9992", "distance": 1134.3135462409243}, {"id": "_g7hDQVPfx4f3tGEPTUB4A", "alias": "roti-houston-2", "name": "Roti", "image_url": "https://s3-media1.fl.yelpcdn.com/bphoto/2XmWcWP3fSywy12HR_mZkw/o.jpg", "is_closed": false, "url": "https://www.yelp.com/biz/roti-houston-2?adjust_creative=a2JdNtFqB-C38ga_06BHvw&utm_campaign=yelp_api_v3&utm_medium=api_v3_business_search&utm_source=a2JdNtFqB-C38ga_06BHvw", "review_count": 35, "categories": [{"alias": "mediterranean", "title": "Mediterranean"}, {"alias": "salad", "title": "Salad"}, {"alias": "sandwiches", "title": "Sandwiches"}], "rating": 4.0, "coordinates": {"latitude": 29.709817818493814, "longitude": -95.40143851166076}, "transactions": ["pickup", "delivery"], "location": {"address1": "6602 Fannin St", "address2": "", "address3": null, "city": "Houston", "zip_code": "77030", "country": "US", "state": "TX", "display_address": ["6602 Fannin St", "Houston, TX 77030"]}, "phone": "+12818863426", "display_phone": "(281) 886-3426", "distance": 2934.3527254537667}, {"id": "_d-8DSyh0GKBQkBicYNwbQ", "alias": "kolache-factory-houston-46", "name": "Kolache Factory", "image_url": "https://s3-media3.fl.yelpcdn.com/bphoto/Ha2Jxw6d6i2xHywuRs0rGQ/o.jpg", "is_closed": false, "url": "https://www.yelp.com/biz/kolache-factory-houston-46?adjust_creative=a2JdNtFqB-C38ga_06BHvw&utm_campaign=yelp_api_v3&utm_medium=api_v3_business_search&utm_source=a2JdNtFqB-C38ga_06BHvw", "review_count": 29, "categories": [{"alias": "bakeries", "title": "Bakeries"}, {"alias": "breakfast_brunch", "title": "Breakfast & Brunch"}, {"alias": "coffee", "title": "Coffee & Tea"}], "rating": 4.0, "coordinates": {"latitude": 29.7054142975334, "longitude": -95.4406103}, "transactions": ["delivery"], "price": "$", "location": {"address1": "4001 Bellaire Blvd", "address2": "", "address3": "", "city": "Houston", "zip_code": "77025", "country": "US", "state": "TX", "display_address": ["4001 Bellaire Blvd", "Houston, TX 77025"]}, "phone": "+17138391777", "display_phone": "(713) 839-1777", "distance": 3683.320101718708}, {"id": "PyNPd2BVK-bar3Idc_Dtuw", "alias": "morningside-thai-houston-3", "name": "Morningside Thai", "image_url": "https://s3-media3.fl.yelpcdn.com/bphoto/gz2KBwhgc0AQloxrjbr6Gg/o.jpg", "is_closed": false, "url": "https://www.yelp.com/biz/morningside-thai-houston-3?adjust_creative=a2JdNtFqB-C38ga_06BHvw&utm_campaign=yelp_api_v3&utm_medium=api_v3_business_search&utm_source=a2JdNtFqB-C38ga_06BHvw", "review_count": 241, "categories": [{"alias": "thai", "title": "Thai"}], "rating": 3.5, "coordinates": {"latitude": 29.69593083, "longitude": -95.41619633}, "transactions": ["delivery"], "price": "$$", "location": {"address1": "2473A S Braeswood Blvd", "address2": "", "address3": "", "city": "Houston", "zip_code": "77030", "country": "US", "state": "TX", "display_address": ["2473A S Braeswood Blvd", "Houston, TX 77030"]}, "phone": "+17136614400", "display_phone": "(713) 661-4400", "distance": 1351.0221885516041}, {"id": "o6zuAb8gtd3B6qVKKzU9jQ", "alias": "taquerias-arandas-houston-13", "name": "Taquerias Arandas", "image_url": "https://s3-media2.fl.yelpcdn.com/bphoto/rqmRC_XrneIzCQt4gLvZTQ/o.jpg", "is_closed": false, "url": "https://www.yelp.com/biz/taquerias-arandas-houston-13?adjust_creative=a2JdNtFqB-C38ga_06BHvw&utm_campaign=yelp_api_v3&utm_medium=api_v3_business_search&utm_source=a2JdNtFqB-C38ga_06BHvw", "review_count": 88, "categories": [{"alias": "mexican", "title": "Mexican"}, {"alias": "breakfast_brunch", "title": "Breakfast & Brunch"}], "rating": 3.5, "coordinates": {"latitude": 29.6820703, "longitude": -95.4237595}, "transactions": ["pickup", "delivery"], "price": "$", "location": {"address1": "9401 S Main St", "address2": "", "address3": "", "city": "Houston", "zip_code": "77025", "country": "US", "state": "TX", "display_address": ["9401 S Main St", "Houston, TX 77025"]}, "phone": "+17134320212", "display_phone": "(713) 432-0212", "distance": 1316.9294455750187}, {"id": "tYcMzPZ-stv02IP3CL4ZAQ", "alias": "original-timmy-chan-houston", "name": "Original Timmy Chan", "image_url": "https://s3-media3.fl.yelpcdn.com/bphoto/S6mCMv_cGlBZOPkhesdjIw/o.jpg", "is_closed": false, "url": "https://www.yelp.com/biz/original-timmy-chan-houston?adjust_creative=a2JdNtFqB-C38ga_06BHvw&utm_campaign=yelp_api_v3&utm_medium=api_v3_business_search&utm_source=a2JdNtFqB-C38ga_06BHvw", "review_count": 103, "categories": [{"alias": "chicken_wings", "title": "Chicken Wings"}, {"alias": "chinese", "title": "Chinese"}], "rating": 3.5, "coordinates": {"latitude": 29.67863, "longitude": -95.41431}, "transactions": [], "price": "$", "location": {"address1": "2360 S Lp W", "address2": "", "address3": "", "city": "Houston", "zip_code": "77054", "country": "US", "state": "TX", "display_address": ["2360 S Lp W", "Houston, TX 77054"]}, "phone": "+17135128888", "display_phone": "(713) 512-8888", "distance": 759.0153662400405}, {"id": "lRJxabaXsGh8qPjcfUNs5g", "alias": "mamas-oven-houston", "name": "Mama's Oven", "image_url": "https://s3-media3.fl.yelpcdn.com/bphoto/E8SM0CxoJOlZuDAMulYARg/o.jpg", "is_closed": false, "url": "https://www.yelp.com/biz/mamas-oven-houston?adjust_creative=a2JdNtFqB-C38ga_06BHvw&utm_campaign=yelp_api_v3&utm_medium=api_v3_business_search&utm_source=a2JdNtFqB-C38ga_06BHvw", "review_count": 230, "categories": [{"alias": "soulfood", "title": "Soul Food"}, {"alias": "southern", "title": "Southern"}], "rating": 3.5, "coordinates": {"latitude": 29.6840393543243, "longitude": -95.4223664849997}, "transactions": ["delivery"], "price": "$$", "location": {"address1": "9295 S Main St", "address2": "", "address3": "", "city": "Houston", "zip_code": "77025", "country": "US", "state": "TX", "display_address": ["9295 S Main St", "Houston, TX 77025"]}, "phone": "+17136613656", "display_phone": "(713) 661-3656", "distance": 1079.9476273124162}, {"id": "1UfNhCRFfLTilt8D4MTzfw", "alias": "golden-krust-caribbean-restaurant-houston", "name": "Golden Krust Caribbean Restaurant", "image_url": "https://s3-media2.fl.yelpcdn.com/bphoto/3VvRHMfCAhRvF5Djc1mrwQ/o.jpg", "is_closed": false, "url": "https://www.yelp.com/biz/golden-krust-caribbean-restaurant-houston?adjust_creative=a2JdNtFqB-C38ga_06BHvw&utm_campaign=yelp_api_v3&utm_medium=api_v3_business_search&utm_source=a2JdNtFqB-C38ga_06BHvw", "review_count": 106, "categories": [{"alias": "caribbean", "title": "Caribbean"}, {"alias": "bakeries", "title": "Bakeries"}], "rating": 3.5, "coordinates": {"latitude": 29.688694, "longitude": -95.413152}, "transactions": ["pickup", "delivery"], "price": "$$", "location": {"address1": "8236 Kirby Dr", "address2": "", "address3": "", "city": "Houston", "zip_code": "77054", "country": "US", "state": "TX", "display_address": ["8236 Kirby Dr", "Houston, TX 77054"]}, "phone": "+13463309225", "display_phone": "(346) 330-9225", "distance": 495.2288703019125}, {"id": "OzN10P-0rzGgTAz0O_8iKA", "alias": "candelaris-pizzeria-houston-2", "name": "Candelari's Pizzeria", "image_url": "https://s3-media1.fl.yelpcdn.com/bphoto/AbgK0X5TbiFpeztU64dZGA/o.jpg", "is_closed": false, "url": "https://www.yelp.com/biz/candelaris-pizzeria-houston-2?adjust_creative=a2JdNtFqB-C38ga_06BHvw&utm_campaign=yelp_api_v3&utm_medium=api_v3_business_search&utm_source=a2JdNtFqB-C38ga_06BHvw", "review_count": 250, "categories": [{"alias": "pizza", "title": "Pizza"}, {"alias": "gluten_free", "title": "Gluten-Free"}, {"alias": "italian", "title": "Italian"}], "rating": 3.5, "coordinates": {"latitude": 29.705848, "longitude": -95.419186}, "transactions": ["pickup", "delivery"], "price": "$$", "location": {"address1": "2617 W Holcombe Blvd", "address2": "", "address3": "", "city": "Houston", "zip_code": "77030", "country": "US", "state": "TX", "display_address": ["2617 W Holcombe Blvd", "Houston, TX 77030"]}, "phone": "+17136622825", "display_phone": "(713) 662-2825", "distance": 2483.7984595806256}, {"id": "_PtSuuqG3bv0PKOmEvE3TA", "alias": "bobobs-houston", "name": "Bobobs", "image_url": "https://s3-media4.fl.yelpcdn.com/bphoto/MWn9KSYzk3G_mmtdevOYfQ/o.jpg", "is_closed": false, "url": "https://www.yelp.com/biz/bobobs-houston?adjust_creative=a2JdNtFqB-C38ga_06BHvw&utm_campaign=yelp_api_v3&utm_medium=api_v3_business_search&utm_source=a2JdNtFqB-C38ga_06BHvw", "review_count": 12, "categories": [{"alias": "southern", "title": "Southern"}, {"alias": "cajun", "title": "Cajun/Creole"}, {"alias": "seafood", "title": "Seafood"}], "rating": 4.5, "coordinates": {"latitude": 29.6996048620616, "longitude": -95.4012360423803}, "transactions": ["delivery"], "location": {"address1": "7127 Fannin St", "address2": "", "address3": null, "city": "Houston", "zip_code": "77030", "country": "US", "state": "TX", "display_address": ["7127 Fannin St", "Houston, TX 77030"]}, "phone": "+12317197469", "display_phone": "(231) 719-7469", "distance": 1896.8509796580217}, {"id": "NDWxZuCFsM6isNjTw1stnA", "alias": "cliffs-grill-houston-2", "name": "Cliff's Grill", "image_url": "https://s3-media4.fl.yelpcdn.com/bphoto/vOc71ga7jNFS_tjtdgOjEQ/o.jpg", "is_closed": false, "url": "https://www.yelp.com/biz/cliffs-grill-houston-2?adjust_creative=a2JdNtFqB-C38ga_06BHvw&utm_campaign=yelp_api_v3&utm_medium=api_v3_business_search&utm_source=a2JdNtFqB-C38ga_06BHvw", "review_count": 83, "categories": [{"alias": "burgers", "title": "Burgers"}, {"alias": "salad", "title": "Salad"}, {"alias": "sandwiches", "title": "Sandwiches"}], "rating": 3.5, "coordinates": {"latitude": 29.7098359, "longitude": -95.4020036}, "transactions": ["pickup", "delivery"], "price": "$", "location": {"address1": "6605 Main St", "address2": "", "address3": null, "city": "Houston", "zip_code": "77030", "country": "US", "state": "TX", "display_address": ["6605 Main St", "Houston, TX 77030"]}, "phone": "+17133830900", "display_phone": "(713) 383-0900", "distance": 2935.8806153277887}, {"id": "vg5COzUvdSxYAPgJ-iffHw", "alias": "sarpinos-pizzeria-houston-6", "name": "Sarpinos Pizzeria", "image_url": "https://s3-media2.fl.yelpcdn.com/bphoto/VKwZSbL20hXQpCY_NqBSbQ/o.jpg", "is_closed": false, "url": "https://www.yelp.com/biz/sarpinos-pizzeria-houston-6?adjust_creative=a2JdNtFqB-C38ga_06BHvw&utm_campaign=yelp_api_v3&utm_medium=api_v3_business_search&utm_source=a2JdNtFqB-C38ga_06BHvw", "review_count": 161, "categories": [{"alias": "pizza", "title": "Pizza"}, {"alias": "italian", "title": "Italian"}], "rating": 3.5, "coordinates": {"latitude": 29.695995, "longitude": -95.416027}, "transactions": ["pickup", "delivery"], "price": "$$", "location": {"address1": "2473 S Braeswood Blvd", "address2": "Ste B", "address3": null, "city": "Houston", "zip_code": "77030", "country": "US", "state": "TX", "display_address": ["2473 S Braeswood Blvd", "Ste B", "Houston, TX 77030"]}, "phone": "+17136671212", "display_phone": "(713) 667-1212", "distance": 1350.179761649134}, {"id": "d62HM9CHDFdV9-b9TQvlvg", "alias": "chick-fil-a-houston-5", "name": "Chick-fil-A", "image_url": "https://s3-media4.fl.yelpcdn.com/bphoto/An_zzZkZ-xEhdOgGqCVmiw/o.jpg", "is_closed": false, "url": "https://www.yelp.com/biz/chick-fil-a-houston-5?adjust_creative=a2JdNtFqB-C38ga_06BHvw&utm_campaign=yelp_api_v3&utm_medium=api_v3_business_search&utm_source=a2JdNtFqB-C38ga_06BHvw", "review_count": 118, "categories": [{"alias": "hotdogs", "title": "Fast Food"}, {"alias": "chickenshop", "title": "Chicken Shop"}, {"alias": "sandwiches", "title": "Sandwiches"}], "rating": 3.5, "coordinates": {"latitude": 29.7056269, "longitude": -95.4253348}, "transactions": ["delivery"], "price": "$", "location": {"address1": "3101 W Holcombe Blvd", "address2": "", "address3": "", "city": "Houston", "zip_code": "77025", "country": "US", "state": "TX", "display_address": ["3101 W Holcombe Blvd", "Houston, TX 77025"]}, "phone": "+17136608200", "display_phone": "(713) 660-8200", "distance": 2713.9447840519683}, {"id": "HkiZu4bLNEn61DkDV-EbzQ", "alias": "molinas-cantina-houston-4", "name": "Molina's Cantina", "image_url": "https://s3-media3.fl.yelpcdn.com/bphoto/d2faN_tCH4z_2bu2RzF0RQ/o.jpg", "is_closed": false, "url": "https://www.yelp.com/biz/molinas-cantina-houston-4?adjust_creative=a2JdNtFqB-C38ga_06BHvw&utm_campaign=yelp_api_v3&utm_medium=api_v3_business_search&utm_source=a2JdNtFqB-C38ga_06BHvw", "review_count": 149, "categories": [{"alias": "mexican", "title": "Mexican"}, {"alias": "tex-mex", "title": "Tex-Mex"}], "rating": 3.5, "coordinates": {"latitude": 29.7054936484764, "longitude": -95.4374956955725}, "transactions": ["delivery"], "price": "$$", "location": {"address1": "3801 Bellaire Blvd", "address2": "", "address3": "", "city": "Houston", "zip_code": "77025", "country": "US", "state": "TX", "display_address": ["3801 Bellaire Blvd", "Houston, TX 77025"]}, "phone": "+17134321626", "display_phone": "(713) 432-1626", "distance": 3459.3950350116725}, {"id": "gGjO9KF2zlgNmnfJFk2tUA", "alias": "abu-omar-halal-houston", "name": "Abu Omar Halal", "image_url": "https://s3-media2.fl.yelpcdn.com/bphoto/CMZTirwuwV9zLJ_UzNyHNA/o.jpg", "is_closed": false, "url": "https://www.yelp.com/biz/abu-omar-halal-houston?adjust_creative=a2JdNtFqB-C38ga_06BHvw&utm_campaign=yelp_api_v3&utm_medium=api_v3_business_search&utm_source=a2JdNtFqB-C38ga_06BHvw", "review_count": 119, "categories": [{"alias": "foodtrucks", "title": "Food Trucks"}, {"alias": "mideastern", "title": "Middle Eastern"}, {"alias": "halal", "title": "Halal"}], "rating": 3.5, "coordinates": {"latitude": 29.6910591433416, "longitude": -95.3899379247776}, "transactions": ["pickup"], "price": "$", "location": {"address1": "7500 Almeda Rd", "address2": null, "address3": "", "city": "Houston", "zip_code": "77054", "country": "US", "state": "TX", "display_address": ["7500 Almeda Rd", "Houston, TX 77054"]}, "phone": "+13462626149", "display_phone": "(346) 262-6149", "distance": 2137.9082387277836}, {"id": "Z5augrU1lSFCuzy_Ykimrg", "alias": "chipotle-mexican-grill-houston-17", "name": "Chipotle Mexican Grill", "image_url": "https://s3-media2.fl.yelpcdn.com/bphoto/nevzyqG90dMcLT4tm74YLw/o.jpg", "is_closed": false, "url": "https://www.yelp.com/biz/chipotle-mexican-grill-houston-17?adjust_creative=a2JdNtFqB-C38ga_06BHvw&utm_campaign=yelp_api_v3&utm_medium=api_v3_business_search&utm_source=a2JdNtFqB-C38ga_06BHvw", "review_count": 100, "categories": [{"alias": "mexican", "title": "Mexican"}, {"alias": "hotdogs", "title": "Fast Food"}], "rating": 3.5, "coordinates": {"latitude": 29.7097629834049, "longitude": -95.4011230030584}, "transactions": ["delivery"], "price": "$", "location": {"address1": "6600 Fannin St", "address2": "Spc A", "address3": "", "city": "Houston", "zip_code": "77030", "country": "US", "state": "TX", "display_address": ["6600 Fannin St", "Spc A", "Houston, TX 77030"]}, "phone": "+17137929390", "display_phone": "(713) 792-9390", "distance": 2938.1404457631324}, {"id": "8q_fyg8fkMeVx69jDhJ7jw", "alias": "jimmy-johns-houston-3", "name": "Jimmy John's", "image_url": "https://s3-media3.fl.yelpcdn.com/bphoto/EMhMD9VufO1UTLCz6ajyXw/o.jpg", "is_closed": false, "url": "https://www.yelp.com/biz/jimmy-johns-houston-3?adjust_creative=a2JdNtFqB-C38ga_06BHvw&utm_campaign=yelp_api_v3&utm_medium=api_v3_business_search&utm_source=a2JdNtFqB-C38ga_06BHvw", "review_count": 75, "categories": [{"alias": "sandwiches", "title": "Sandwiches"}, {"alias": "delis", "title": "Delis"}, {"alias": "hotdogs", "title": "Fast Food"}], "rating": 3.5, "coordinates": {"latitude": 29.70585, "longitude": -95.41497}, "transactions": [], "price": "$", "location": {"address1": "2401 W Holcombe Blvd", "address2": "", "address3": "", "city": "Houston", "zip_code": "77030", "country": "US", "state": "TX", "display_address": ["2401 W Holcombe Blvd", "Houston, TX 77030"]}, "phone": "+17137410600", "display_phone": "(713) 741-0600", "distance": 2376.4074260441457}, {"id": "6fqWE8bgY5mkxEIZkEdMfw", "alias": "salata-houston-29", "name": "Salata", "image_url": "https://s3-media2.fl.yelpcdn.com/bphoto/hkRRYcuDxxXfQorX_rr2Kg/o.jpg", "is_closed": false, "url": "https://www.yelp.com/biz/salata-houston-29?adjust_creative=a2JdNtFqB-C38ga_06BHvw&utm_campaign=yelp_api_v3&utm_medium=api_v3_business_search&utm_source=a2JdNtFqB-C38ga_06BHvw", "review_count": 68, "categories": [{"alias": "salad", "title": "Salad"}, {"alias": "soup", "title": "Soup"}, {"alias": "wraps", "title": "Wraps"}], "rating": 3.5, "coordinates": {"latitude": 29.705367, "longitude": -95.4194137}, "transactions": [], "price": "$$", "location": {"address1": "2617 W Holcombe Blvd", "address2": "", "address3": "", "city": "Houston", "zip_code": "77025", "country": "US", "state": "TX", "display_address": ["2617 W Holcombe Blvd", "Houston, TX 77025"]}, "phone": "+12818885489", "display_phone": "(281) 888-5489", "distance": 2440.65796555784}, {"id": "QZ5T7fVdngKp-57PF3eJVw", "alias": "antonios-mexican-grille-houston-2", "name": "Antonios Mexican Grille", "image_url": "https://s3-media4.fl.yelpcdn.com/bphoto/l9hqfTf4h2fyYSj5V9-94w/o.jpg", "is_closed": false, "url": "https://www.yelp.com/biz/antonios-mexican-grille-houston-2?adjust_creative=a2JdNtFqB-C38ga_06BHvw&utm_campaign=yelp_api_v3&utm_medium=api_v3_business_search&utm_source=a2JdNtFqB-C38ga_06BHvw", "review_count": 69, "categories": [{"alias": "mexican", "title": "Mexican"}], "rating": 3.5, "coordinates": {"latitude": 29.704834, "longitude": -95.426843}, "transactions": ["pickup", "delivery"], "price": "$$", "location": {"address1": "3147 W Holcombe Blvd", "address2": "", "address3": "", "city": "Houston", "zip_code": "77025", "country": "US", "state": "TX", "display_address": ["3147 W Holcombe Blvd", "Houston, TX 77025"]}, "phone": "+17137971050", "display_phone": "(713) 797-1050", "distance": 2718.960719216645}, {"id": "nNamtnQyj3hryQLBpt1C_w", "alias": "firehouse-subs-houston-6", "name": "Firehouse Subs", "image_url": "https://s3-media3.fl.yelpcdn.com/bphoto/kSiyfzTJ42zu1AtrqLtXFQ/o.jpg", "is_closed": false, "url": "https://www.yelp.com/biz/firehouse-subs-houston-6?adjust_creative=a2JdNtFqB-C38ga_06BHvw&utm_campaign=yelp_api_v3&utm_medium=api_v3_business_search&utm_source=a2JdNtFqB-C38ga_06BHvw", "review_count": 46, "categories": [{"alias": "sandwiches", "title": "Sandwiches"}, {"alias": "hotdogs", "title": "Fast Food"}, {"alias": "delis", "title": "Delis"}], "rating": 3.5, "coordinates": {"latitude": 29.7063, "longitude": -95.440498}, "transactions": ["pickup", "delivery"], "price": "$", "location": {"address1": "3924 Bellaire Blvd", "address2": "", "address3": "", "city": "Houston", "zip_code": "77025", "country": "US", "state": "TX", "display_address": ["3924 Bellaire Blvd", "Houston, TX 77025"]}, "phone": "+17136657827", "display_phone": "(713) 665-7827", "distance": 3743.1471836935652}, {"id": "H54IpFMRBPxMwWsX2z9qmQ", "alias": "jimmy-wok-houston", "name": "Jimmy Wok", "image_url": "https://s3-media3.fl.yelpcdn.com/bphoto/HqXsvtVQfV9ha9ZQx51yjg/o.jpg", "is_closed": false, "url": "https://www.yelp.com/biz/jimmy-wok-houston?adjust_creative=a2JdNtFqB-C38ga_06BHvw&utm_campaign=yelp_api_v3&utm_medium=api_v3_business_search&utm_source=a2JdNtFqB-C38ga_06BHvw", "review_count": 108, "categories": [{"alias": "chinese", "title": "Chinese"}, {"alias": "vietnamese", "title": "Vietnamese"}], "rating": 3.0, "coordinates": {"latitude": 29.707122, "longitude": -95.412238}, "transactions": ["delivery"], "price": "$", "location": {"address1": "2268 W Holcombe Blvd", "address2": "", "address3": "", "city": "Houston", "zip_code": "77030", "country": "US", "state": "TX", "display_address": ["2268 W Holcombe Blvd", "Houston, TX 77030"]}, "phone": "+17136681016", "display_phone": "(713) 668-1016", "distance": 2494.457991435893}, {"id": "WRn7TBXlmPUKwFhfgTb5vA", "alias": "shawarma-maker-houston-3", "name": "Shawarma Maker", "image_url": "https://s3-media3.fl.yelpcdn.com/bphoto/ruyPkhIblSB9LxpPWHRP0A/o.jpg", "is_closed": false, "url": "https://www.yelp.com/biz/shawarma-maker-houston-3?adjust_creative=a2JdNtFqB-C38ga_06BHvw&utm_campaign=yelp_api_v3&utm_medium=api_v3_business_search&utm_source=a2JdNtFqB-C38ga_06BHvw", "review_count": 10, "categories": [{"alias": "foodtrucks", "title": "Food Trucks"}, {"alias": "halal", "title": "Halal"}], "rating": 4.5, "coordinates": {"latitude": 29.69858, "longitude": -95.3864}, "transactions": ["delivery"], "location": {"address1": "2802 Old Spanish Trl", "address2": null, "address3": "", "city": "Houston", "zip_code": "77054", "country": "US", "state": "TX", "display_address": ["2802 Old Spanish Trl", "Houston, TX 77054"]}, "phone": "+18327597626", "display_phone": "(832) 759-7626", "distance": 2803.1993584510205}, {"id": "jPspSyaYY-IgMcO2NfGchQ", "alias": "the-hunan-houston", "name": "The Hunan", "image_url": "https://s3-media2.fl.yelpcdn.com/bphoto/KmP-9FZMAc-sSnTu12nSpQ/o.jpg", "is_closed": false, "url": "https://www.yelp.com/biz/the-hunan-houston?adjust_creative=a2JdNtFqB-C38ga_06BHvw&utm_campaign=yelp_api_v3&utm_medium=api_v3_business_search&utm_source=a2JdNtFqB-C38ga_06BHvw", "review_count": 137, "categories": [{"alias": "chinese", "title": "Chinese"}], "rating": 3.0, "coordinates": {"latitude": 29.6884655, "longitude": -95.3907575}, "transactions": ["pickup", "delivery"], "price": "$", "location": {"address1": "7816 Almeda Rd", "address2": "", "address3": "", "city": "Houston", "zip_code": "77054", "country": "US", "state": "TX", "display_address": ["7816 Almeda Rd", "Houston, TX 77054"]}, "phone": "+17137955344", "display_phone": "(713) 795-5344", "distance": 1938.3401385000498}, {"id": "dVrrTZihDnEse-udFPEL6Q", "alias": "salata-houston-8", "name": "Salata", "image_url": "https://s3-media4.fl.yelpcdn.com/bphoto/0tAV50IiFZCmKalA6IePOw/o.jpg", "is_closed": false, "url": "https://www.yelp.com/biz/salata-houston-8?adjust_creative=a2JdNtFqB-C38ga_06BHvw&utm_campaign=yelp_api_v3&utm_medium=api_v3_business_search&utm_source=a2JdNtFqB-C38ga_06BHvw", "review_count": 59, "categories": [{"alias": "salad", "title": "Salad"}, {"alias": "wraps", "title": "Wraps"}, {"alias": "soup", "title": "Soup"}], "rating": 3.5, "coordinates": {"latitude": 29.7094498, "longitude": -95.4013855}, "transactions": ["pickup", "delivery"], "price": "$$", "location": {"address1": "6620 Fannin St", "address2": "", "address3": "", "city": "Houston", "zip_code": "77030", "country": "US", "state": "TX", "display_address": ["6620 Fannin St", "Houston, TX 77030"]}, "phone": "+18324264079", "display_phone": "(832) 426-4079", "distance": 2897.073718650462}, {"id": "_OfqStaWSvNaHcMk4Y22BQ", "alias": "red-ribbon-bakeshop-houston", "name": "Red Ribbon Bakeshop", "image_url": "https://s3-media3.fl.yelpcdn.com/bphoto/Bqol-12K4a3pYeKIggFCyA/o.jpg", "is_closed": false, "url": "https://www.yelp.com/biz/red-ribbon-bakeshop-houston?adjust_creative=a2JdNtFqB-C38ga_06BHvw&utm_campaign=yelp_api_v3&utm_medium=api_v3_business_search&utm_source=a2JdNtFqB-C38ga_06BHvw", "review_count": 76, "categories": [{"alias": "desserts", "title": "Desserts"}, {"alias": "filipino", "title": "Filipino"}, {"alias": "bakeries", "title": "Bakeries"}], "rating": 3.5, "coordinates": {"latitude": 29.69335, "longitude": -95.41468}, "transactions": ["delivery"], "price": "$", "location": {"address1": "8001 S Main St", "address2": null, "address3": "", "city": "Houston", "zip_code": "77025", "country": "US", "state": "TX", "display_address": ["8001 S Main St", "Houston, TX 77025"]}, "phone": "+17132188500", "display_phone": "(713) 218-8500", "distance": 1040.717575369235}, {"id": "IBSY8SXOkX0XCTy5CiLEwg", "alias": "millers-cafe-houston-2", "name": "Miller's Cafe", "image_url": "https://s3-media4.fl.yelpcdn.com/bphoto/GIVNKr4nssr5eu8xqKThoA/o.jpg", "is_closed": false, "url": "https://www.yelp.com/biz/millers-cafe-houston-2?adjust_creative=a2JdNtFqB-C38ga_06BHvw&utm_campaign=yelp_api_v3&utm_medium=api_v3_business_search&utm_source=a2JdNtFqB-C38ga_06BHvw", "review_count": 48, "categories": [{"alias": "burgers", "title": "Burgers"}, {"alias": "tradamerican", "title": "American (Traditional)"}], "rating": 3.5, "coordinates": {"latitude": 29.7108, "longitude": -95.4006464}, "transactions": ["delivery"], "price": "$", "location": {"address1": "6560 Fannin St", "address2": "Ste 110", "address3": "", "city": "Houston", "zip_code": "77030", "country": "US", "state": "TX", "display_address": ["6560 Fannin St", "Ste 110", "Houston, TX 77030"]}, "phone": "+17137911717", "display_phone": "(713) 791-1717", "distance": 3062.119524129351}, {"id": "AJEF2EMMPCUYkUBCjXRMFg", "alias": "mellow-manna-houston", "name": "Mellow Manna", "image_url": "https://s3-media4.fl.yelpcdn.com/bphoto/MZC9uoslQWm4Qj7YzJo7cA/o.jpg", "is_closed": false, "url": "https://www.yelp.com/biz/mellow-manna-houston?adjust_creative=a2JdNtFqB-C38ga_06BHvw&utm_campaign=yelp_api_v3&utm_medium=api_v3_business_search&utm_source=a2JdNtFqB-C38ga_06BHvw", "review_count": 69, "categories": [{"alias": "indpak", "title": "Indian"}], "rating": 3.5, "coordinates": {"latitude": 29.684891, "longitude": -95.39912}, "transactions": ["pickup", "delivery"], "price": "$$", "location": {"address1": "2122 Holly Hall St", "address2": "", "address3": null, "city": "Houston", "zip_code": "77054", "country": "US", "state": "TX", "display_address": ["2122 Holly Hall St", "Houston, TX 77054"]}, "phone": "+17137907888", "display_phone": "(713) 790-7888", "distance": 1131.6542816816793}, {"id": "QR_G6ctvDYGHy2zn5wtpEA", "alias": "raising-canes-chicken-fingers-houston-20", "name": "Raising Cane's Chicken Fingers", "image_url": "https://s3-media2.fl.yelpcdn.com/bphoto/nZqh-8sEra2UtLNhHnqk8w/o.jpg", "is_closed": false, "url": "https://www.yelp.com/biz/raising-canes-chicken-fingers-houston-20?adjust_creative=a2JdNtFqB-C38ga_06BHvw&utm_campaign=yelp_api_v3&utm_medium=api_v3_business_search&utm_source=a2JdNtFqB-C38ga_06BHvw", "review_count": 55, "categories": [{"alias": "hotdogs", "title": "Fast Food"}], "rating": 3.5, "coordinates": {"latitude": 29.6811526, "longitude": -95.425221}, "transactions": ["delivery"], "price": "$", "location": {"address1": "9530 Main St", "address2": null, "address3": null, "city": "Houston", "zip_code": "77025", "country": "US", "state": "TX", "display_address": ["9530 Main St", "Houston, TX 77025"]}, "phone": "+17136667718", "display_phone": "(713) 666-7718", "distance": 1454.3730943182072}, {"id": "7DqqfJjT1Yq4pA8-qc7ioA", "alias": "safina-mediterranean-houston", "name": "Safina Mediterranean", "image_url": "https://s3-media2.fl.yelpcdn.com/bphoto/XgQ4ccjFIkqj45dwOX4F4Q/o.jpg", "is_closed": false, "url": "https://www.yelp.com/biz/safina-mediterranean-houston?adjust_creative=a2JdNtFqB-C38ga_06BHvw&utm_campaign=yelp_api_v3&utm_medium=api_v3_business_search&utm_source=a2JdNtFqB-C38ga_06BHvw", "review_count": 32, "categories": [{"alias": "mediterranean", "title": "Mediterranean"}, {"alias": "breakfast_brunch", "title": "Breakfast & Brunch"}, {"alias": "cocktailbars", "title": "Cocktail Bars"}], "rating": 3.5, "coordinates": {"latitude": 29.7082022615957, "longitude": -95.4041817784309}, "transactions": [], "location": {"address1": "6750 Main St", "address2": "", "address3": null, "city": "Houston", "zip_code": "77030", "country": "US", "state": "TX", "display_address": ["6750 Main St", "Houston, TX 77030"]}, "phone": "+17134222779", "display_phone": "(713) 422-2779", "distance": 2688.7632005458245}, {"id": "b09lv5U7kICBsHJYiIgD4Q", "alias": "ruchis-mexican-grill-houston-4", "name": "Ruchi's Mexican Grill", "image_url": "https://s3-media2.fl.yelpcdn.com/bphoto/BEWqntNgy4nURcVn4_SMfw/o.jpg", "is_closed": false, "url": "https://www.yelp.com/biz/ruchis-mexican-grill-houston-4?adjust_creative=a2JdNtFqB-C38ga_06BHvw&utm_campaign=yelp_api_v3&utm_medium=api_v3_business_search&utm_source=a2JdNtFqB-C38ga_06BHvw", "review_count": 125, "categories": [{"alias": "mexican", "title": "Mexican"}, {"alias": "breakfast_brunch", "title": "Breakfast & Brunch"}, {"alias": "seafood", "title": "Seafood"}], "rating": 3.0, "coordinates": {"latitude": 29.67874, "longitude": -95.42829}, "transactions": ["delivery"], "price": "$", "location": {"address1": "3202 S Loop W", "address2": "", "address3": "", "city": "Houston", "zip_code": "77025", "country": "US", "state": "TX", "display_address": ["3202 S Loop W", "Houston, TX 77025"]}, "phone": "+17136673131", "display_phone": "(713) 667-3131", "distance": 1850.802402581748}, {"id": "aVIilWig257viPrNI_Ivpw", "alias": "whataburger-houston-49", "name": "Whataburger", "image_url": "https://s3-media2.fl.yelpcdn.com/bphoto/Na9paA-hYhcahai_uZho6Q/o.jpg", "is_closed": false, "url": "https://www.yelp.com/biz/whataburger-houston-49?adjust_creative=a2JdNtFqB-C38ga_06BHvw&utm_campaign=yelp_api_v3&utm_medium=api_v3_business_search&utm_source=a2JdNtFqB-C38ga_06BHvw", "review_count": 70, "categories": [{"alias": "hotdogs", "title": "Fast Food"}, {"alias": "burgers", "title": "Burgers"}], "rating": 3.0, "coordinates": {"latitude": 29.6767661396172, "longitude": -95.4275612533092}, "transactions": ["delivery"], "price": "$", "location": {"address1": "9955 Main St", "address2": "", "address3": "", "city": "Houston", "zip_code": "77025", "country": "US", "state": "TX", "display_address": ["9955 Main St", "Houston, TX 77025"]}, "phone": "+17136614094", "display_phone": "(713) 661-4094", "distance": 1842.3389804968815}, {"id": "0nFKsBLJivkSGw1bCUulxQ", "alias": "lennys-subs-houston-4", "name": "Lennys Subs", "image_url": "https://s3-media3.fl.yelpcdn.com/bphoto/KfwCuUc-tC3bQDxDMKeeyA/o.jpg", "is_closed": false, "url": "https://www.yelp.com/biz/lennys-subs-houston-4?adjust_creative=a2JdNtFqB-C38ga_06BHvw&utm_campaign=yelp_api_v3&utm_medium=api_v3_business_search&utm_source=a2JdNtFqB-C38ga_06BHvw", "review_count": 51, "categories": [{"alias": "sandwiches", "title": "Sandwiches"}], "rating": 3.5, "coordinates": {"latitude": 29.6859, "longitude": -95.4218099}, "transactions": ["pickup", "delivery"], "price": "$", "location": {"address1": "9150 S Main St", "address2": "Ste J", "address3": "", "city": "Houston", "zip_code": "77025", "country": "US", "state": "TX", "display_address": ["9150 S Main St", "Ste J", "Houston, TX 77025"]}, "phone": "+17136637827", "display_phone": "(713) 663-7827", "distance": 1089.6954500379725}, {"id": "7rOdF6V6urR1Y9-jL55wqA", "alias": "villa-roma-pizza-houston", "name": "Villa Roma Pizza", "image_url": "https://s3-media4.fl.yelpcdn.com/bphoto/uzXd8Jmrq5OXa3UZ8rbLaQ/o.jpg", "is_closed": false, "url": "https://www.yelp.com/biz/villa-roma-pizza-houston?adjust_creative=a2JdNtFqB-C38ga_06BHvw&utm_campaign=yelp_api_v3&utm_medium=api_v3_business_search&utm_source=a2JdNtFqB-C38ga_06BHvw", "review_count": 101, "categories": [{"alias": "pizza", "title": "Pizza"}, {"alias": "salad", "title": "Salad"}, {"alias": "chicken_wings", "title": "Chicken Wings"}], "rating": 3.0, "coordinates": {"latitude": 29.6851247, "longitude": -95.3991968}, "transactions": ["pickup", "delivery"], "price": "$$", "location": {"address1": "2132 Holly Hall St", "address2": "", "address3": "", "city": "Houston", "zip_code": "77054", "country": "US", "state": "TX", "display_address": ["2132 Holly Hall St", "Houston, TX 77054"]}, "phone": "+17137961616", "display_phone": "(713) 796-1616", "distance": 1186.75852088772}, {"id": "7XE9MPjbccajyQwrk2_ylg", "alias": "pappas-bar-b-q-houston-15", "name": "Pappas Bar-B-Q", "image_url": "https://s3-media4.fl.yelpcdn.com/bphoto/PQcnBPzhcTxx90Kf0f_ZGQ/o.jpg", "is_closed": false, "url": "https://www.yelp.com/biz/pappas-bar-b-q-houston-15?adjust_creative=a2JdNtFqB-C38ga_06BHvw&utm_campaign=yelp_api_v3&utm_medium=api_v3_business_search&utm_source=a2JdNtFqB-C38ga_06BHvw", "review_count": 250, "categories": [{"alias": "bbq", "title": "Barbeque"}], "rating": 3.0, "coordinates": {"latitude": 29.69, "longitude": -95.41714}, "transactions": ["delivery"], "price": "$$", "location": {"address1": "8777 S Main", "address2": "", "address3": "", "city": "Houston", "zip_code": "77025", "country": "US", "state": "TX", "display_address": ["8777 S Main", "Houston, TX 77025"]}, "phone": "+17134321107", "display_phone": "(713) 432-1107", "distance": 846.5251986974356}, {"id": "c9Ag1wTxKjr2S01BkWNq-w", "alias": "taco-bell-houston-30", "name": "Taco Bell", "image_url": "https://s3-media2.fl.yelpcdn.com/bphoto/lr45p0wZCuBtCWGLRFTJ-Q/o.jpg", "is_closed": false, "url": "https://www.yelp.com/biz/taco-bell-houston-30?adjust_creative=a2JdNtFqB-C38ga_06BHvw&utm_campaign=yelp_api_v3&utm_medium=api_v3_business_search&utm_source=a2JdNtFqB-C38ga_06BHvw", "review_count": 47, "categories": [{"alias": "mexican", "title": "Mexican"}, {"alias": "hotdogs", "title": "Fast Food"}], "rating": 3.5, "coordinates": {"latitude": 29.70595, "longitude": -95.41128}, "transactions": ["delivery"], "price": "$", "location": {"address1": "2245 West Holcombe Blvd", "address2": "", "address3": "", "city": "Houston", "zip_code": "77030", "country": "US", "state": "TX", "display_address": ["2245 West Holcombe Blvd", "Houston, TX 77030"]}, "phone": "+17136618122", "display_phone": "(713) 661-8122", "distance": 2360.8381380003493}, {"id": "Z8UzXiljNayzFsIZIYYrRA", "alias": "fresh-bistro-at-the-pavilion-houston", "name": "Fresh Bistro At the Pavilion", "image_url": "https://s3-media1.fl.yelpcdn.com/bphoto/2mJW7S2p8YQV3h5vO2zbaA/o.jpg", "is_closed": false, "url": "https://www.yelp.com/biz/fresh-bistro-at-the-pavilion-houston?adjust_creative=a2JdNtFqB-C38ga_06BHvw&utm_campaign=yelp_api_v3&utm_medium=api_v3_business_search&utm_source=a2JdNtFqB-C38ga_06BHvw", "review_count": 12, "categories": [{"alias": "tradamerican", "title": "American (Traditional)"}], "rating": 4.0, "coordinates": {"latitude": 29.708227, "longitude": -95.402786}, "transactions": [], "price": "$$", "location": {"address1": "6631 Main St", "address2": "", "address3": "", "city": "Houston", "zip_code": "77030", "country": "US", "state": "TX", "display_address": ["6631 Main St", "Houston, TX 77030"]}, "phone": "", "display_phone": "", "distance": 2726.282780528813}, {"id": "obHU29mhZ3asqBJgh6wEsA", "alias": "apicius-kitchen-and-bar-houston", "name": "Apicius Kitchen & Bar", "image_url": "https://s3-media1.fl.yelpcdn.com/bphoto/b1N_lsLGanxpqq6heAb63A/o.jpg", "is_closed": false, "url": "https://www.yelp.com/biz/apicius-kitchen-and-bar-houston?adjust_creative=a2JdNtFqB-C38ga_06BHvw&utm_campaign=yelp_api_v3&utm_medium=api_v3_business_search&utm_source=a2JdNtFqB-C38ga_06BHvw", "review_count": 36, "categories": [{"alias": "newamerican", "title": "American (New)"}, {"alias": "breakfast_brunch", "title": "Breakfast & Brunch"}, {"alias": "buffets", "title": "Buffets"}], "rating": 3.5, "coordinates": {"latitude": 29.70573, "longitude": -95.3957099}, "transactions": [], "price": "$$", "location": {"address1": "1600 Holcombe Blvd", "address2": "Fl 2", "address3": "Rotary House International", "city": "Houston", "zip_code": "77030", "country": "US", "state": "TX", "display_address": ["1600 Holcombe Blvd", "Fl 2", "Rotary House International", "Houston, TX 77030"]}, "phone": "+17137901600", "display_phone": "(713) 790-1600", "distance": 2736.405036881916}, {"id": "AydWLEHpKseQndx8ZNxObw", "alias": "godos-bakery-and-restaurant-houston", "name": "Godo's Bakery & Restaurant", "image_url": "https://s3-media3.fl.yelpcdn.com/bphoto/vWOfYfQPTa48U5XjxoIlIw/o.jpg", "is_closed": false, "url": "https://www.yelp.com/biz/godos-bakery-and-restaurant-houston?adjust_creative=a2JdNtFqB-C38ga_06BHvw&utm_campaign=yelp_api_v3&utm_medium=api_v3_business_search&utm_source=a2JdNtFqB-C38ga_06BHvw", "review_count": 82, "categories": [{"alias": "filipino", "title": "Filipino"}, {"alias": "bakeries", "title": "Bakeries"}], "rating": 3.0, "coordinates": {"latitude": 29.6981326, "longitude": -95.4011762}, "transactions": ["delivery"], "price": "$", "location": {"address1": "7235 Fannin St", "address2": "", "address3": "", "city": "Houston", "zip_code": "77030", "country": "US", "state": "TX", "display_address": ["7235 Fannin St", "Houston, TX 77030"]}, "phone": "+17137970670", "display_phone": "(713) 797-0670", "distance": 1770.383916895262}, {"id": "VB8hfrlAJAPDbzXP5S9WlA", "alias": "silver-palace-houston", "name": "Silver Palace", "image_url": "https://s3-media4.fl.yelpcdn.com/bphoto/gLiKpIBttzi4XhELk1sVmw/o.jpg", "is_closed": false, "url": "https://www.yelp.com/biz/silver-palace-houston?adjust_creative=a2JdNtFqB-C38ga_06BHvw&utm_campaign=yelp_api_v3&utm_medium=api_v3_business_search&utm_source=a2JdNtFqB-C38ga_06BHvw", "review_count": 199, "categories": [{"alias": "chinese", "title": "Chinese"}, {"alias": "buffets", "title": "Buffets"}], "rating": 3.0, "coordinates": {"latitude": 29.705137, "longitude": -95.4412}, "transactions": ["delivery"], "price": "$$", "location": {"address1": "4005 Bellaire Blvd", "address2": "Ste H", "address3": "", "city": "Houston", "zip_code": "77025", "country": "US", "state": "TX", "display_address": ["4005 Bellaire Blvd", "Ste H", "Houston, TX 77025"]}, "phone": "+17136611963", "display_phone": "(713) 661-1963", "distance": 3723.0643971214613}, {"id": "_QJ2cfQi0F4s30t7sMVjXQ", "alias": "marco-s-pizza-houston", "name": "Marcos Pizza", "image_url": "https://s3-media1.fl.yelpcdn.com/bphoto/A4bVd7VSh83QVKVVlj194A/o.jpg", "is_closed": false, "url": "https://www.yelp.com/biz/marco-s-pizza-houston?adjust_creative=a2JdNtFqB-C38ga_06BHvw&utm_campaign=yelp_api_v3&utm_medium=api_v3_business_search&utm_source=a2JdNtFqB-C38ga_06BHvw", "review_count": 16, "categories": [{"alias": "pizza", "title": "Pizza"}], "rating": 4.0, "coordinates": {"latitude": 29.6811334, "longitude": -95.4252402}, "transactions": ["pickup", "delivery"], "location": {"address1": "9540 S Main St", "address2": "Ste 120", "address3": null, "city": "Houston", "zip_code": "77025", "country": "US", "state": "TX", "display_address": ["9540 S Main St", "Ste 120", "Houston, TX 77025"]}, "phone": "+17137426668", "display_phone": "(713) 742-6668", "distance": 1493.0751623410238}, {"id": "uTLDw54Q9ciK5DDZ-NecXQ", "alias": "the-french-corner-houston", "name": "The French Corner", "image_url": "https://s3-media3.fl.yelpcdn.com/bphoto/FBLrpYRenNnzdtG7ZsgCrQ/o.jpg", "is_closed": false, "url": "https://www.yelp.com/biz/the-french-corner-houston?adjust_creative=a2JdNtFqB-C38ga_06BHvw&utm_campaign=yelp_api_v3&utm_medium=api_v3_business_search&utm_source=a2JdNtFqB-C38ga_06BHvw", "review_count": 59, "categories": [{"alias": "catering", "title": "Caterers"}, {"alias": "newamerican", "title": "American (New)"}], "rating": 3.0, "coordinates": {"latitude": 29.69207, "longitude": -95.41383}, "transactions": ["pickup", "delivery"], "price": "$$", "location": {"address1": "1104 Old Spanish Tr", "address2": "", "address3": "", "city": "Houston", "zip_code": "77054", "country": "US", "state": "TX", "display_address": ["1104 Old Spanish Tr", "Houston, TX 77054"]}, "phone": "+17136615324", "display_phone": "(713) 661-5324", "distance": 865.2199794393885}, {"id": "sLeK2ypAmAV2o2MyfaY0Xw", "alias": "quiznos-houston-57", "name": "Quiznos", "image_url": "https://s3-media4.fl.yelpcdn.com/bphoto/dBSO-4NckpS26CZlELOAjg/o.jpg", "is_closed": false, "url": "https://www.yelp.com/biz/quiznos-houston-57?adjust_creative=a2JdNtFqB-C38ga_06BHvw&utm_campaign=yelp_api_v3&utm_medium=api_v3_business_search&utm_source=a2JdNtFqB-C38ga_06BHvw", "review_count": 23, "categories": [{"alias": "sandwiches", "title": "Sandwiches"}, {"alias": "delis", "title": "Delis"}], "rating": 3.5, "coordinates": {"latitude": 29.691833, "longitude": -95.417109}, "transactions": ["pickup", "delivery"], "price": "$", "location": {"address1": "8502 Main St", "address2": "Ste A", "address3": null, "city": "Houston", "zip_code": "77025", "country": "US", "state": "TX", "display_address": ["8502 Main St", "Ste A", "Houston, TX 77025"]}, "phone": "+18327788014", "display_phone": "(832) 778-8014", "distance": 996.3727663461996}, {"id": "9kpb26BZPFao0DjEnOQ9Mg", "alias": "baylor-college-of-medicine-cafeteria-houston", "name": "Baylor College of Medicine Cafeteria", "image_url": "https://s3-media2.fl.yelpcdn.com/bphoto/pVNLnZvl8Z4BivuiptXkIg/o.jpg", "is_closed": false, "url": "https://www.yelp.com/biz/baylor-college-of-medicine-cafeteria-houston?adjust_creative=a2JdNtFqB-C38ga_06BHvw&utm_campaign=yelp_api_v3&utm_medium=api_v3_business_search&utm_source=a2JdNtFqB-C38ga_06BHvw", "review_count": 12, "categories": [{"alias": "tradamerican", "title": "American (Traditional)"}], "rating": 4.0, "coordinates": {"latitude": 29.7103296911679, "longitude": -95.3961522350868}, "transactions": [], "price": "$", "location": {"address1": "1 Baylor Plz", "address2": "", "address3": "", "city": "Houston", "zip_code": "77030", "country": "US", "state": "TX", "display_address": ["1 Baylor Plz", "Houston, TX 77030"]}, "phone": "+17137988986", "display_phone": "(713) 798-8986", "distance": 3180.9873870092642}, {"id": "C55NPjAscYx-3qJhcY3F9A", "alias": "dominos-pizza-houston-41", "name": "Domino's Pizza", "image_url": "https://s3-media3.fl.yelpcdn.com/bphoto/0P5AcCjRWFW8UQv40rF5FA/o.jpg", "is_closed": false, "url": "https://www.yelp.com/biz/dominos-pizza-houston-41?adjust_creative=a2JdNtFqB-C38ga_06BHvw&utm_campaign=yelp_api_v3&utm_medium=api_v3_business_search&utm_source=a2JdNtFqB-C38ga_06BHvw", "review_count": 36, "categories": [{"alias": "pizza", "title": "Pizza"}, {"alias": "sandwiches", "title": "Sandwiches"}, {"alias": "chicken_wings", "title": "Chicken Wings"}], "rating": 3.0, "coordinates": {"latitude": 29.6829759, "longitude": -95.4397437}, "transactions": [], "price": "$", "location": {"address1": "9119A Stella Link Rd", "address2": "", "address3": "", "city": "Houston", "zip_code": "77025", "country": "US", "state": "TX", "display_address": ["9119A Stella Link Rd", "Houston, TX 77025"]}, "phone": "+17136686241", "display_phone": "(713) 668-6241", "distance": 2760.4766535689573}, {"id": "qIdfbY15Qg7z3ika26-vGQ", "alias": "chachos-houston", "name": "Chacho's", "image_url": "https://s3-media2.fl.yelpcdn.com/bphoto/7GMmI82gPrWpOWiwy3kDlw/o.jpg", "is_closed": false, "url": "https://www.yelp.com/biz/chachos-houston?adjust_creative=a2JdNtFqB-C38ga_06BHvw&utm_campaign=yelp_api_v3&utm_medium=api_v3_business_search&utm_source=a2JdNtFqB-C38ga_06BHvw", "review_count": 320, "categories": [{"alias": "tex-mex", "title": "Tex-Mex"}, {"alias": "breakfast_brunch", "title": "Breakfast & Brunch"}, {"alias": "drivethrubars", "title": "Drive-Thru Bars"}], "rating": 2.5, "coordinates": {"latitude": 29.6784175541338, "longitude": -95.4219350853423}, "transactions": ["delivery"], "price": "$", "location": {"address1": "2700 S Loop 610 W", "address2": "", "address3": "", "city": "Houston", "zip_code": "77054", "country": "US", "state": "TX", "display_address": ["2700 S Loop 610 W", "Houston, TX 77054"]}, "phone": "+18327780500", "display_phone": "(832) 778-0500", "distance": 1281.297999588362}, {"id": "tsvlSOxIh_joemzbusdhMw", "alias": "wingstop-houston-42", "name": "Wingstop", "image_url": "https://s3-media4.fl.yelpcdn.com/bphoto/MiJTm1txiYY-uogIpyV1fQ/o.jpg", "is_closed": false, "url": "https://www.yelp.com/biz/wingstop-houston-42?adjust_creative=a2JdNtFqB-C38ga_06BHvw&utm_campaign=yelp_api_v3&utm_medium=api_v3_business_search&utm_source=a2JdNtFqB-C38ga_06BHvw", "review_count": 89, "categories": [{"alias": "chicken_wings", "title": "Chicken Wings"}], "rating": 3.0, "coordinates": {"latitude": 29.692938, "longitude": -95.416236}, "transactions": [], "price": "$$", "location": {"address1": "8200 Main St", "address2": "Ste 800", "address3": "", "city": "Houston", "zip_code": "77025", "country": "US", "state": "TX", "display_address": ["8200 Main St", "Ste 800", "Houston, TX 77025"]}, "phone": "+17136619464", "display_phone": "(713) 661-9464", "distance": 1052.1510065350865}, {"id": "HyONDbfVAUa0neR2erqkDg", "alias": "original-pinoy-meals-houston-2", "name": "Original Pinoy Meals", "image_url": "https://s3-media1.fl.yelpcdn.com/bphoto/8dOMvUbm4wxlIgBcYuPH_g/o.jpg", "is_closed": false, "url": "https://www.yelp.com/biz/original-pinoy-meals-houston-2?adjust_creative=a2JdNtFqB-C38ga_06BHvw&utm_campaign=yelp_api_v3&utm_medium=api_v3_business_search&utm_source=a2JdNtFqB-C38ga_06BHvw", "review_count": 9, "categories": [{"alias": "filipino", "title": "Filipino"}], "rating": 4.0, "coordinates": {"latitude": 29.6932126, "longitude": -95.4150577}, "transactions": [], "location": {"address1": "8017 S Main St", "address2": "", "address3": null, "city": "Houston", "zip_code": "77025", "country": "US", "state": "TX", "display_address": ["8017 S Main St", "Houston, TX 77025"]}, "phone": "", "display_phone": "", "distance": 904.8961351888408}, {"id": "uTJCpFUjLwtNcVGiXRMdAg", "alias": "istanbul-doner-and-kebap-houston-3", "name": "Istanbul Doner & Kebap", "image_url": "https://s3-media1.fl.yelpcdn.com/bphoto/1sJM8hoDXi-2ZFs_TT7AZw/o.jpg", "is_closed": false, "url": "https://www.yelp.com/biz/istanbul-doner-and-kebap-houston-3?adjust_creative=a2JdNtFqB-C38ga_06BHvw&utm_campaign=yelp_api_v3&utm_medium=api_v3_business_search&utm_source=a2JdNtFqB-C38ga_06BHvw", "review_count": 10, "categories": [{"alias": "foodtrucks", "title": "Food Trucks"}, {"alias": "turkish", "title": "Turkish"}, {"alias": "halal", "title": "Halal"}], "rating": 4.0, "coordinates": {"latitude": 29.698671, "longitude": -95.386469}, "transactions": ["pickup", "delivery"], "price": "$", "location": {"address1": "2802 Old Spanish Trl", "address2": null, "address3": null, "city": "Houston", "zip_code": "77054", "country": "US", "state": "TX", "display_address": ["2802 Old Spanish Trl", "Houston, TX 77054"]}, "phone": "+18327597626", "display_phone": "(832) 759-7626", "distance": 2818.597494674888}, {"id": "D7DjitLTf2HOIZnlB8lcfw", "alias": "five-guys-houston-9", "name": "Five Guys", "image_url": "https://s3-media3.fl.yelpcdn.com/bphoto/tqTAEKHwkOOKoS7dzkvsIA/o.jpg", "is_closed": false, "url": "https://www.yelp.com/biz/five-guys-houston-9?adjust_creative=a2JdNtFqB-C38ga_06BHvw&utm_campaign=yelp_api_v3&utm_medium=api_v3_business_search&utm_source=a2JdNtFqB-C38ga_06BHvw", "review_count": 79, "categories": [{"alias": "burgers", "title": "Burgers"}, {"alias": "hotdogs", "title": "Fast Food"}], "rating": 3.0, "coordinates": {"latitude": 29.690885, "longitude": -95.416003}, "transactions": ["pickup", "delivery"], "price": "$$", "location": {"address1": "8505 S Main St", "address2": "Unit 380", "address3": "", "city": "Houston", "zip_code": "77025", "country": "US", "state": "TX", "display_address": ["8505 S Main St", "Unit 380", "Houston, TX 77025"]}, "phone": "+17136622075", "display_phone": "(713) 662-2075", "distance": 847.9649962485095}, {"id": "nW15IIhl6_z4CjbEOPOsgw", "alias": "olive-garden-italian-restaurant-houston-33", "name": "Olive Garden Italian Restaurant", "image_url": "https://s3-media3.fl.yelpcdn.com/bphoto/afc98QqkPsRrsgYDL-DDHw/o.jpg", "is_closed": false, "url": "https://www.yelp.com/biz/olive-garden-italian-restaurant-houston-33?adjust_creative=a2JdNtFqB-C38ga_06BHvw&utm_campaign=yelp_api_v3&utm_medium=api_v3_business_search&utm_source=a2JdNtFqB-C38ga_06BHvw", "review_count": 182, "categories": [{"alias": "italian", "title": "Italian"}, {"alias": "salad", "title": "Salad"}, {"alias": "soup", "title": "Soup"}], "rating": 2.5, "coordinates": {"latitude": 29.691725, "longitude": -95.414985}, "transactions": [], "price": "$$", "location": {"address1": "1010 Old Spanish Trl", "address2": "", "address3": "", "city": "Houston", "zip_code": "77054", "country": "US", "state": "TX", "display_address": ["1010 Old Spanish Trl", "Houston, TX 77054"]}, "phone": "+17136656373", "display_phone": "(713) 665-6373", "distance": 875.9180999580624}, {"id": "6qrIx3sZ81Y9zmta5YNaZg", "alias": "hunans-restaurant-houston", "name": "Hunan's Restaurant", "image_url": "https://s3-media1.fl.yelpcdn.com/bphoto/55TviY_MiyrA6okSE5l7cA/o.jpg", "is_closed": false, "url": "https://www.yelp.com/biz/hunans-restaurant-houston?adjust_creative=a2JdNtFqB-C38ga_06BHvw&utm_campaign=yelp_api_v3&utm_medium=api_v3_business_search&utm_source=a2JdNtFqB-C38ga_06BHvw", "review_count": 94, "categories": [{"alias": "chinese", "title": "Chinese"}, {"alias": "vietnamese", "title": "Vietnamese"}], "rating": 2.5, "coordinates": {"latitude": 29.7053745, "longitude": -95.4379828}, "transactions": ["pickup", "delivery"], "price": "$$", "location": {"address1": "3835 Bellaire Blvd", "address2": "", "address3": "", "city": "Houston", "zip_code": "77025", "country": "US", "state": "TX", "display_address": ["3835 Bellaire Blvd", "Houston, TX 77025"]}, "phone": "+17136662000", "display_phone": "(713) 666-2000", "distance": 3485.822421261981}, {"id": "zacuSO56p7Y_YCdUjqkzIA", "alias": "alonti-cafe-and-catering-houston-4", "name": "Alonti Cafe & Catering", "image_url": "https://s3-media1.fl.yelpcdn.com/bphoto/QtmYWovzTiLM76D4gWnN1A/o.jpg", "is_closed": false, "url": "https://www.yelp.com/biz/alonti-cafe-and-catering-houston-4?adjust_creative=a2JdNtFqB-C38ga_06BHvw&utm_campaign=yelp_api_v3&utm_medium=api_v3_business_search&utm_source=a2JdNtFqB-C38ga_06BHvw", "review_count": 32, "categories": [{"alias": "delis", "title": "Delis"}], "rating": 3.0, "coordinates": {"latitude": 29.7114478, "longitude": -95.4001780368401}, "transactions": [], "price": "$$", "location": {"address1": "6550 Fannin St", "address2": "", "address3": "", "city": "Houston", "zip_code": "77030", "country": "US", "state": "TX", "display_address": ["6550 Fannin St", "Houston, TX 77030"]}, "phone": "+17137960122", "display_phone": "(713) 796-0122", "distance": 3144.928455874568}, {"id": "Xh6p9fWAWYruPYwLrNMEeg", "alias": "bourbon-sizzler-houston-2", "name": "Bourbon Sizzler", "image_url": "https://s3-media2.fl.yelpcdn.com/bphoto/5QdX0dNOgPsd3Bg4L4X5Rg/o.jpg", "is_closed": false, "url": "https://www.yelp.com/biz/bourbon-sizzler-houston-2?adjust_creative=a2JdNtFqB-C38ga_06BHvw&utm_campaign=yelp_api_v3&utm_medium=api_v3_business_search&utm_source=a2JdNtFqB-C38ga_06BHvw", "review_count": 39, "categories": [{"alias": "caribbean", "title": "Caribbean"}, {"alias": "cajun", "title": "Cajun/Creole"}], "rating": 3.0, "coordinates": {"latitude": 29.6848513938061, "longitude": -95.399242}, "transactions": ["pickup", "delivery"], "price": "$$", "location": {"address1": "2114 Holly Hall st", "address2": "", "address3": null, "city": "Houston", "zip_code": "77054", "country": "US", "state": "TX", "display_address": ["2114 Holly Hall st", "Houston, TX 77054"]}, "phone": "+12817817222", "display_phone": "(281) 781-7222", "distance": 1119.8054672085345}, {"id": "-CQkVUNdNnWvcMtcsxXjpg", "alias": "whataburger-houston-19", "name": "Whataburger", "image_url": "https://s3-media4.fl.yelpcdn.com/bphoto/74NIFhJMkD2q2VDB3kplOw/o.jpg", "is_closed": false, "url": "https://www.yelp.com/biz/whataburger-houston-19?adjust_creative=a2JdNtFqB-C38ga_06BHvw&utm_campaign=yelp_api_v3&utm_medium=api_v3_business_search&utm_source=a2JdNtFqB-C38ga_06BHvw", "review_count": 91, "categories": [{"alias": "burgers", "title": "Burgers"}, {"alias": "hotdogs", "title": "Fast Food"}], "rating": 2.5, "coordinates": {"latitude": 29.7059046071383, "longitude": -95.4122632741928}, "transactions": ["delivery"], "price": "$", "location": {"address1": "2265 W Holcombe Blvd", "address2": "", "address3": "", "city": "Houston", "zip_code": "77030", "country": "US", "state": "TX", "display_address": ["2265 W Holcombe Blvd", "Houston, TX 77030"]}, "phone": "+17138388106", "display_phone": "(713) 838-8106", "distance": 2359.443944681665}, {"id": "iZSNHk-NvJiUF-LPWG3Pvw", "alias": "mod-pizza-houston-23", "name": "MOD Pizza", "image_url": "https://s3-media1.fl.yelpcdn.com/bphoto/RCMeO1AO4GkpEajiW7gwTA/o.jpg", "is_closed": false, "url": "https://www.yelp.com/biz/mod-pizza-houston-23?adjust_creative=a2JdNtFqB-C38ga_06BHvw&utm_campaign=yelp_api_v3&utm_medium=api_v3_business_search&utm_source=a2JdNtFqB-C38ga_06BHvw", "review_count": 37, "categories": [{"alias": "pizza", "title": "Pizza"}], "rating": 3.0, "coordinates": {"latitude": 29.7092341, "longitude": -95.4015191}, "transactions": ["delivery"], "location": {"address1": "6622 Fannin St", "address2": null, "address3": null, "city": "Houston", "zip_code": "77030", "country": "US", "state": "TX", "display_address": ["6622 Fannin St", "Houston, TX 77030"]}, "phone": "+18329198863", "display_phone": "(832) 919-8863", "distance": 2894.6920324568227}, {"id": "PRsy8Xwctq3H2suPz0_7Nw", "alias": "panda-express-houston-11", "name": "Panda Express", "image_url": "https://s3-media3.fl.yelpcdn.com/bphoto/VU2zJWV9UGIZ-I4pEQGxaQ/o.jpg", "is_closed": false, "url": "https://www.yelp.com/biz/panda-express-houston-11?adjust_creative=a2JdNtFqB-C38ga_06BHvw&utm_campaign=yelp_api_v3&utm_medium=api_v3_business_search&utm_source=a2JdNtFqB-C38ga_06BHvw", "review_count": 55, "categories": [{"alias": "chinese", "title": "Chinese"}, {"alias": "hotdogs", "title": "Fast Food"}], "rating": 3.0, "coordinates": {"latitude": 29.690851, "longitude": -95.416091}, "transactions": ["pickup", "delivery"], "price": "$", "location": {"address1": "8505 Main St", "address2": null, "address3": null, "city": "Houston", "zip_code": "77025", "country": "US", "state": "TX", "display_address": ["8505 Main St", "Houston, TX 77025"]}, "phone": "+17136649362", "display_phone": "(713) 664-9362", "distance": 849.9649447083146}, {"id": "sBLWEhQp9nwMPLQtu53jyQ", "alias": "bao-shi-yi-houston-6", "name": "Bao Shi Yi", "image_url": "https://s3-media2.fl.yelpcdn.com/bphoto/efvmx4mxiVcRnXvpcQRWFQ/o.jpg", "is_closed": false, "url": "https://www.yelp.com/biz/bao-shi-yi-houston-6?adjust_creative=a2JdNtFqB-C38ga_06BHvw&utm_campaign=yelp_api_v3&utm_medium=api_v3_business_search&utm_source=a2JdNtFqB-C38ga_06BHvw", "review_count": 22, "categories": [{"alias": "chinese", "title": "Chinese"}, {"alias": "breakfast_brunch", "title": "Breakfast & Brunch"}, {"alias": "noodles", "title": "Noodles"}], "rating": 3.5, "coordinates": {"latitude": 29.70651, "longitude": -95.41400689999999}, "transactions": ["pickup", "delivery"], "location": {"address1": "2328 W Holcombe Blvd", "address2": "", "address3": null, "city": "Houston", "zip_code": "77030", "country": "US", "state": "TX", "display_address": ["2328 W Holcombe Blvd", "Houston, TX 77030"]}, "phone": "+18325304635", "display_phone": "(832) 530-4635", "distance": 2442.0322567721687}, {"id": "qizOYOQlaHE2f-bf7lqgsQ", "alias": "mary-os-cafe-houston", "name": "Mary O's Cafe", "image_url": "https://s3-media2.fl.yelpcdn.com/bphoto/6ZL4Y0W19kAusxzwJnNBBQ/o.jpg", "is_closed": false, "url": "https://www.yelp.com/biz/mary-os-cafe-houston?adjust_creative=a2JdNtFqB-C38ga_06BHvw&utm_campaign=yelp_api_v3&utm_medium=api_v3_business_search&utm_source=a2JdNtFqB-C38ga_06BHvw", "review_count": 4, "categories": [{"alias": "cafes", "title": "Cafes"}], "rating": 5.0, "coordinates": {"latitude": 29.70112, "longitude": -95.39265}, "transactions": ["delivery"], "location": {"address1": "1977 Butler Blvd", "address2": null, "address3": "", "city": "Houston", "zip_code": "77030", "country": "US", "state": "TX", "display_address": ["1977 Butler Blvd", "Houston, TX 77030"]}, "phone": "+17137980700", "display_phone": "(713) 798-0700", "distance": 2519.5359080385524}, {"id": "gGJvnd-fB23wv7_TpqajaQ", "alias": "lubys-houston-13", "name": "Luby's", "image_url": "https://s3-media2.fl.yelpcdn.com/bphoto/6nhdfWGwQ6Q4ScsUryFe7A/o.jpg", "is_closed": false, "url": "https://www.yelp.com/biz/lubys-houston-13?adjust_creative=a2JdNtFqB-C38ga_06BHvw&utm_campaign=yelp_api_v3&utm_medium=api_v3_business_search&utm_source=a2JdNtFqB-C38ga_06BHvw", "review_count": 57, "categories": [{"alias": "tradamerican", "title": "American (Traditional)"}, {"alias": "cafeteria", "title": "Cafeteria"}], "rating": 3.0, "coordinates": {"latitude": 29.6959, "longitude": -95.4021099}, "transactions": ["delivery"], "price": "$$", "location": {"address1": "1727 Old Spanish Trl", "address2": "", "address3": "", "city": "Houston", "zip_code": "77054", "country": "US", "state": "TX", "display_address": ["1727 Old Spanish Trl", "Houston, TX 77054"]}, "phone": "+17137970078", "display_phone": "(713) 797-0078", "distance": 1496.195644717003}, {"id": "yju2oJGJb04EAbqbYo1Djw", "alias": "driscolls-houston", "name": "Driscoll's", "image_url": "https://s3-media2.fl.yelpcdn.com/bphoto/aoYFoiPID5owivE4qvmPIw/o.jpg", "is_closed": false, "url": "https://www.yelp.com/biz/driscolls-houston?adjust_creative=a2JdNtFqB-C38ga_06BHvw&utm_campaign=yelp_api_v3&utm_medium=api_v3_business_search&utm_source=a2JdNtFqB-C38ga_06BHvw", "review_count": 17, "categories": [{"alias": "tradamerican", "title": "American (Traditional)"}], "rating": 3.5, "coordinates": {"latitude": 29.710182, "longitude": -95.400978}, "transactions": [], "price": "$$", "location": {"address1": "6580 Fannin St", "address2": "", "address3": "Houston Marriott Medical Ctr", "city": "Houston", "zip_code": "77030", "country": "US", "state": "TX", "display_address": ["6580 Fannin St", "Houston Marriott Medical Ctr", "Houston, TX 77030"]}, "phone": "+17137960080", "display_phone": "(713) 796-0080", "distance": 2971.846324468215}, {"id": "iBhSqxeFrUsKiV9rxhLUzg", "alias": "chipotle-mexican-grill-houston-16", "name": "Chipotle Mexican Grill", "image_url": "https://s3-media2.fl.yelpcdn.com/bphoto/f4V7VP5HCl9CHsBD97xELA/o.jpg", "is_closed": false, "url": "https://www.yelp.com/biz/chipotle-mexican-grill-houston-16?adjust_creative=a2JdNtFqB-C38ga_06BHvw&utm_campaign=yelp_api_v3&utm_medium=api_v3_business_search&utm_source=a2JdNtFqB-C38ga_06BHvw", "review_count": 140, "categories": [{"alias": "mexican", "title": "Mexican"}, {"alias": "hotdogs", "title": "Fast Food"}], "rating": 2.5, "coordinates": {"latitude": 29.691094, "longitude": -95.415728}, "transactions": ["delivery"], "price": "$", "location": {"address1": "8505 Main St", "address2": "Ste 100", "address3": "", "city": "Houston", "zip_code": "77025", "country": "US", "state": "TX", "display_address": ["8505 Main St", "Ste 100", "Houston, TX 77025"]}, "phone": "+17136308100", "display_phone": "(713) 630-8100", "distance": 851.8264091796707}, {"id": "jw0WxhDpVgzS8R7-vXU0Mw", "alias": "panera-bread-houston-7", "name": "Panera Bread", "image_url": "https://s3-media4.fl.yelpcdn.com/bphoto/harmgFB9vtJVGpuYta6vHg/o.jpg", "is_closed": false, "url": "https://www.yelp.com/biz/panera-bread-houston-7?adjust_creative=a2JdNtFqB-C38ga_06BHvw&utm_campaign=yelp_api_v3&utm_medium=api_v3_business_search&utm_source=a2JdNtFqB-C38ga_06BHvw", "review_count": 216, "categories": [{"alias": "sandwiches", "title": "Sandwiches"}, {"alias": "salad", "title": "Salad"}, {"alias": "soup", "title": "Soup"}], "rating": 2.5, "coordinates": {"latitude": 29.7046964100843, "longitude": -95.4269078672587}, "transactions": ["pickup", "delivery"], "price": "$", "location": {"address1": "3151 W Holcombe Blvd", "address2": "Ste A", "address3": "", "city": "Houston", "zip_code": "77025", "country": "US", "state": "TX", "display_address": ["3151 W Holcombe Blvd", "Ste A", "Houston, TX 77025"]}, "phone": "+17138211065", "display_phone": "(713) 821-1065", "distance": 2709.976744347372}, {"id": "pxhJWxF0nI2jtb4_FTTCfQ", "alias": "one-fannin-cafe-houston", "name": "One Fannin Cafe", "image_url": "https://s3-media4.fl.yelpcdn.com/bphoto/vkNjeVxF9KQYGoa2w2i68A/o.jpg", "is_closed": false, "url": "https://www.yelp.com/biz/one-fannin-cafe-houston?adjust_creative=a2JdNtFqB-C38ga_06BHvw&utm_campaign=yelp_api_v3&utm_medium=api_v3_business_search&utm_source=a2JdNtFqB-C38ga_06BHvw", "review_count": 8, "categories": [{"alias": "delis", "title": "Delis"}], "rating": 4.0, "coordinates": {"latitude": 29.6946, "longitude": -95.40115}, "transactions": ["delivery"], "price": "$", "location": {"address1": "7400 Fannin St", "address2": "Ste 150", "address3": "", "city": "Houston", "zip_code": "77054", "country": "US", "state": "TX", "display_address": ["7400 Fannin St", "Ste 150", "Houston, TX 77054"]}, "phone": "+17137976699", "display_phone": "(713) 797-6699", "distance": 1435.378414923497}, {"id": "Lpzb64sNH8cLPHwdCnysjg", "alias": "rice-kitchen-houston", "name": "Rice Kitchen", "image_url": "https://s3-media2.fl.yelpcdn.com/bphoto/OyJQ_lHz4zTBygl0H2-9vw/o.jpg", "is_closed": false, "url": "https://www.yelp.com/biz/rice-kitchen-houston?adjust_creative=a2JdNtFqB-C38ga_06BHvw&utm_campaign=yelp_api_v3&utm_medium=api_v3_business_search&utm_source=a2JdNtFqB-C38ga_06BHvw", "review_count": 59, "categories": [{"alias": "chinese", "title": "Chinese"}], "rating": 2.5, "coordinates": {"latitude": 29.6851221, "longitude": -95.3993715}, "transactions": ["pickup", "delivery"], "price": "$", "location": {"address1": "2126 Holly Hall St", "address2": "", "address3": "", "city": "Houston", "zip_code": "77054", "country": "US", "state": "TX", "display_address": ["2126 Holly Hall St", "Houston, TX 77054"]}, "phone": "+17137968636", "display_phone": "(713) 796-8636", "distance": 1154.3720392987725}, {"id": "6ay4LXAz8fmFprxfIh-xxg", "alias": "vasso-grill-houston", "name": "Vasso Grill", "image_url": "https://s3-media1.fl.yelpcdn.com/bphoto/_Qjgyvj_xeNpfgMZXXIXUA/o.jpg", "is_closed": false, "url": "https://www.yelp.com/biz/vasso-grill-houston?adjust_creative=a2JdNtFqB-C38ga_06BHvw&utm_campaign=yelp_api_v3&utm_medium=api_v3_business_search&utm_source=a2JdNtFqB-C38ga_06BHvw", "review_count": 19, "categories": [{"alias": "breakfast_brunch", "title": "Breakfast & Brunch"}, {"alias": "salad", "title": "Salad"}, {"alias": "tradamerican", "title": "American (Traditional)"}], "rating": 3.0, "coordinates": {"latitude": 29.6916230758808, "longitude": -95.4032473718278}, "transactions": ["pickup"], "price": "$", "location": {"address1": "7900 Fannin St", "address2": "Ste 1100", "address3": "", "city": "Houston", "zip_code": "77054", "country": "US", "state": "TX", "display_address": ["7900 Fannin St", "Ste 1100", "Houston, TX 77054"]}, "phone": "+17137954000", "display_phone": "(713) 795-4000", "distance": 1061.031024811201}, {"id": "SNkP8ygnROnV_FmkDA29bw", "alias": "taco-cabana-houston-11", "name": "Taco Cabana", "image_url": "https://s3-media2.fl.yelpcdn.com/bphoto/2Sg-1mPXcoX3yHQY-poPeA/o.jpg", "is_closed": false, "url": "https://www.yelp.com/biz/taco-cabana-houston-11?adjust_creative=a2JdNtFqB-C38ga_06BHvw&utm_campaign=yelp_api_v3&utm_medium=api_v3_business_search&utm_source=a2JdNtFqB-C38ga_06BHvw", "review_count": 134, "categories": [{"alias": "mexican", "title": "Mexican"}], "rating": 2.5, "coordinates": {"latitude": 29.692489, "longitude": -95.415362}, "transactions": ["pickup", "delivery"], "price": "$", "location": {"address1": "8101 S Main St", "address2": "", "address3": "", "city": "Houston", "zip_code": "77025", "country": "US", "state": "TX", "display_address": ["8101 S Main St", "Houston, TX 77025"]}, "phone": "+17136684863", "display_phone": "(713) 668-4863", "distance": 968.1384121855175}, {"id": "oL6Qv_5SvMRmUrg3eoYcuw", "alias": "einstein-bros-bagels-houston-19", "name": "Einstein Bros. Bagels", "image_url": "https://s3-media2.fl.yelpcdn.com/bphoto/b8GcayhGhyaL7Q3yFvILeQ/o.jpg", "is_closed": false, "url": "https://www.yelp.com/biz/einstein-bros-bagels-houston-19?adjust_creative=a2JdNtFqB-C38ga_06BHvw&utm_campaign=yelp_api_v3&utm_medium=api_v3_business_search&utm_source=a2JdNtFqB-C38ga_06BHvw", "review_count": 6, "categories": [{"alias": "breakfast_brunch", "title": "Breakfast & Brunch"}, {"alias": "bagels", "title": "Bagels"}], "rating": 4.0, "coordinates": {"latitude": 29.710964, "longitude": -95.397048}, "transactions": ["delivery"], "location": {"address1": "6277 Bertner Ave", "address2": "Fl 1", "address3": "Houston Methodist Hospital Walter Tower", "city": "Houston", "zip_code": "77030", "country": "US", "state": "TX", "display_address": ["6277 Bertner Ave", "Fl 1", "Houston Methodist Hospital Walter Tower", "Houston, TX 77030"]}, "phone": "+17137456375", "display_phone": "(713) 745-6375", "distance": 3207.4014058978314}, {"id": "ReC9Nxjm4MhfSnWiZCxaiQ", "alias": "time-for-thai-tmc-houston-3", "name": "Time for Thai - TMC", "image_url": "https://s3-media2.fl.yelpcdn.com/bphoto/BX_yxkUULqxXG4LOBtt_qA/o.jpg", "is_closed": false, "url": "https://www.yelp.com/biz/time-for-thai-tmc-houston-3?adjust_creative=a2JdNtFqB-C38ga_06BHvw&utm_campaign=yelp_api_v3&utm_medium=api_v3_business_search&utm_source=a2JdNtFqB-C38ga_06BHvw", "review_count": 21, "categories": [{"alias": "thai", "title": "Thai"}], "rating": 3.0, "coordinates": {"latitude": 29.7095071, "longitude": -95.3976386}, "transactions": ["delivery"], "price": "$$", "location": {"address1": "6550 Bertner Ave", "address2": "", "address3": "", "city": "Houston", "zip_code": "77030", "country": "US", "state": "TX", "display_address": ["6550 Bertner Ave", "Houston, TX 77030"]}, "phone": "+18888848424", "display_phone": "(888) 884-8424", "distance": 3036.3815060971656}, {"id": "HdLcqxwbh2Qv39yJBAdTPQ", "alias": "lubys-houston-21", "name": "Luby's", "image_url": "https://s3-media4.fl.yelpcdn.com/bphoto/2_YKUNEl5i3LNWxSmmgT8A/o.jpg", "is_closed": false, "url": "https://www.yelp.com/biz/lubys-houston-21?adjust_creative=a2JdNtFqB-C38ga_06BHvw&utm_campaign=yelp_api_v3&utm_medium=api_v3_business_search&utm_source=a2JdNtFqB-C38ga_06BHvw", "review_count": 57, "categories": [{"alias": "tradamerican", "title": "American (Traditional)"}], "rating": 2.5, "coordinates": {"latitude": 29.7118371185543, "longitude": -95.3811480009192}, "transactions": ["delivery"], "price": "$$", "location": {"address1": "2400 S MacGregor Way", "address2": "", "address3": "", "city": "Houston", "zip_code": "77021", "country": "US", "state": "TX", "display_address": ["2400 S MacGregor Way", "Houston, TX 77021"]}, "phone": "+17137471913", "display_phone": "(713) 747-1913", "distance": 4160.729792341739}, {"id": "GkR-lfqKPB_zv9zQhFzlEA", "alias": "dennys-houston-30", "name": "Denny's", "image_url": "https://s3-media2.fl.yelpcdn.com/bphoto/jfqknWSLK1DDvUGs1xXVzg/o.jpg", "is_closed": false, "url": "https://www.yelp.com/biz/dennys-houston-30?adjust_creative=a2JdNtFqB-C38ga_06BHvw&utm_campaign=yelp_api_v3&utm_medium=api_v3_business_search&utm_source=a2JdNtFqB-C38ga_06BHvw", "review_count": 72, "categories": [{"alias": "breakfast_brunch", "title": "Breakfast & Brunch"}, {"alias": "tradamerican", "title": "American (Traditional)"}, {"alias": "diners", "title": "Diners"}], "rating": 2.5, "coordinates": {"latitude": 29.6785220731303, "longitude": -95.4290887713433}, "transactions": [], "price": "$", "location": {"address1": "3332 S Lp W", "address2": "", "address3": "", "city": "Houston", "zip_code": "77025", "country": "US", "state": "TX", "display_address": ["3332 S Lp W", "Houston, TX 77025"]}, "phone": "+17136660999", "display_phone": "(713) 666-0999", "distance": 1893.5551364596488}, {"id": "oqsr6Z1T4xxSt-ixFXAlGg", "alias": "the-naturalist-caf-and-lounge-houston", "name": "The Naturalist Caf & Lounge", "image_url": "https://s3-media2.fl.yelpcdn.com/bphoto/LqeAAkwkJQmrBoZ52PLIhQ/o.jpg", "is_closed": false, "url": "https://www.yelp.com/biz/the-naturalist-caf%C3%A9-and-lounge-houston?adjust_creative=a2JdNtFqB-C38ga_06BHvw&utm_campaign=yelp_api_v3&utm_medium=api_v3_business_search&utm_source=a2JdNtFqB-C38ga_06BHvw", "review_count": 4, "categories": [{"alias": "cafes", "title": "Cafes"}, {"alias": "lounges", "title": "Lounges"}], "rating": 4.5, "coordinates": {"latitude": 29.7077508887604, "longitude": -95.4041532799601}, "transactions": [], "location": {"address1": "6750 Main St", "address2": "", "address3": "Intercontinental", "city": "Houston", "zip_code": "77030", "country": "US", "state": "TX", "display_address": ["6750 Main St", "Intercontinental", "Houston, TX 77030"]}, "phone": "+17134222779", "display_phone": "(713) 422-2779", "distance": 2640.725447916481}, {"id": "9R-axVOWXt97vqIIJ_sgIw", "alias": "lefty-s-cheesesteak-houston", "name": "Leftys Cheesesteak", "image_url": "https://s3-media1.fl.yelpcdn.com/bphoto/MSh-iPAH9lv4KA29FsAE_w/o.jpg", "is_closed": false, "url": "https://www.yelp.com/biz/lefty-s-cheesesteak-houston?adjust_creative=a2JdNtFqB-C38ga_06BHvw&utm_campaign=yelp_api_v3&utm_medium=api_v3_business_search&utm_source=a2JdNtFqB-C38ga_06BHvw", "review_count": 37, "categories": [{"alias": "cheesesteaks", "title": "Cheesesteaks"}, {"alias": "burgers", "title": "Burgers"}, {"alias": "sandwiches", "title": "Sandwiches"}], "rating": 2.5, "coordinates": {"latitude": 29.691822, "longitude": -95.412171}, "transactions": [], "location": {"address1": "8057 Kirby Dr", "address2": "", "address3": null, "city": "Houston", "zip_code": "77054", "country": "US", "state": "TX", "display_address": ["8057 Kirby Dr", "Houston, TX 77054"]}, "phone": "", "display_phone": "", "distance": 799.9930317086811}, {"id": "a_NbF0yMhPRrEGx0iyY32g", "alias": "poblanos-houston", "name": "Poblano's", "image_url": "https://s3-media1.fl.yelpcdn.com/bphoto/VrFzrwShojvt2qHFK66H1g/o.jpg", "is_closed": false, "url": "https://www.yelp.com/biz/poblanos-houston?adjust_creative=a2JdNtFqB-C38ga_06BHvw&utm_campaign=yelp_api_v3&utm_medium=api_v3_business_search&utm_source=a2JdNtFqB-C38ga_06BHvw", "review_count": 21, "categories": [{"alias": "mexican", "title": "Mexican"}], "rating": 3.0, "coordinates": {"latitude": 29.710833227300903, "longitude": -95.40053675959709}, "transactions": ["delivery"], "price": "$", "location": {"address1": "6560 Fannin St", "address2": "Ste 120", "address3": "", "city": "Houston", "zip_code": "77030", "country": "US", "state": "TX", "display_address": ["6560 Fannin St", "Ste 120", "Houston, TX 77030"]}, "phone": "+17137998512", "display_phone": "(713) 799-8512", "distance": 3069.033788714773}, {"id": "3nu5x6T4XZgVrteVqfMP4g", "alias": "subway-houston-359", "name": "Subway", "image_url": "https://s3-media4.fl.yelpcdn.com/bphoto/Ce6V-0hjqG8URq-oVz5nIw/o.jpg", "is_closed": false, "url": "https://www.yelp.com/biz/subway-houston-359?adjust_creative=a2JdNtFqB-C38ga_06BHvw&utm_campaign=yelp_api_v3&utm_medium=api_v3_business_search&utm_source=a2JdNtFqB-C38ga_06BHvw", "review_count": 12, "categories": [{"alias": "sandwiches", "title": "Sandwiches"}], "rating": 3.0, "coordinates": {"latitude": 29.6927568508684, "longitude": -95.4396373076999}, "transactions": [], "price": "$", "location": {"address1": "8417 Stella Link", "address2": "Store  3", "address3": "", "city": "Houston", "zip_code": "77025", "country": "US", "state": "TX", "display_address": ["8417 Stella Link", "Store  3", "Houston, TX 77025"]}, "phone": "+17136636788", "display_phone": "(713) 663-6788", "distance": 2922.363691724136}, {"id": "PAQbTqQUrgtCSsDJ-cKkgA", "alias": "terrace-54-houston", "name": "Terrace 54", "image_url": "https://s3-media4.fl.yelpcdn.com/bphoto/AydSXeIwSBOSzXCNc4cC1A/o.jpg", "is_closed": false, "url": "https://www.yelp.com/biz/terrace-54-houston?adjust_creative=a2JdNtFqB-C38ga_06BHvw&utm_campaign=yelp_api_v3&utm_medium=api_v3_business_search&utm_source=a2JdNtFqB-C38ga_06BHvw", "review_count": 10, "categories": [{"alias": "newamerican", "title": "American (New)"}, {"alias": "breakfast_brunch", "title": "Breakfast & Brunch"}, {"alias": "beerbar", "title": "Beer Bar"}], "rating": 3.5, "coordinates": {"latitude": 29.70969, "longitude": -95.40163}, "transactions": ["delivery", "pickup"], "location": {"address1": "1709 Dryden Rd", "address2": "", "address3": "The Westin Houston Medical Center", "city": "Houston", "zip_code": "77030", "country": "US", "state": "TX", "display_address": ["1709 Dryden Rd", "The Westin Houston Medical Center", "Houston, TX 77030"]}, "phone": "+17137302404", "display_phone": "(713) 730-2404", "distance": 2917.9252695375426}, {"id": "CSTEGSoMGefNpuG1w0hUng", "alias": "maxs-restaurant-houston-3", "name": "Max's Restaurant", "image_url": "https://s3-media1.fl.yelpcdn.com/bphoto/XIQ3dGIbGt_oby3dglJdWA/o.jpg", "is_closed": false, "url": "https://www.yelp.com/biz/maxs-restaurant-houston-3?adjust_creative=a2JdNtFqB-C38ga_06BHvw&utm_campaign=yelp_api_v3&utm_medium=api_v3_business_search&utm_source=a2JdNtFqB-C38ga_06BHvw", "review_count": 25, "categories": [{"alias": "filipino", "title": "Filipino"}], "rating": 2.5, "coordinates": {"latitude": 29.69317, "longitude": -95.41426}, "transactions": [], "location": {"address1": "8011 South Main St", "address2": "Ste 100", "address3": "", "city": "Houston", "zip_code": "77025", "country": "US", "state": "TX", "display_address": ["8011 South Main St", "Ste 100", "Houston, TX 77025"]}, "phone": "+17136647227", "display_phone": "(713) 664-7227", "distance": 996.3200600636076}, {"id": "xB2thX8PXmswvG6saJkLuA", "alias": "wendys-houston-10", "name": "Wendy's", "image_url": "https://s3-media3.fl.yelpcdn.com/bphoto/Ks4lxZb5Sn2dkkkbIr91EA/o.jpg", "is_closed": false, "url": "https://www.yelp.com/biz/wendys-houston-10?adjust_creative=a2JdNtFqB-C38ga_06BHvw&utm_campaign=yelp_api_v3&utm_medium=api_v3_business_search&utm_source=a2JdNtFqB-C38ga_06BHvw", "review_count": 45, "categories": [{"alias": "burgers", "title": "Burgers"}, {"alias": "hotdogs", "title": "Fast Food"}], "rating": 2.5, "coordinates": {"latitude": 29.682023, "longitude": -95.4247556}, "transactions": ["delivery"], "price": "$", "location": {"address1": "9500 South Main Street", "address2": "", "address3": "", "city": "Houston", "zip_code": "77025", "country": "US", "state": "TX", "display_address": ["9500 South Main Street", "Houston, TX 77025"]}, "phone": "+17136617134", "display_phone": "(713) 661-7134", "distance": 1378.045920095648}, {"id": "fZGW1uY38LFF6A-nOB-gwg", "alias": "patriot-cafe-houston", "name": "Patriot Cafe", "image_url": "https://s3-media1.fl.yelpcdn.com/bphoto/53kGZ46K74-ezs_OG_Dz1A/o.jpg", "is_closed": false, "url": "https://www.yelp.com/biz/patriot-cafe-houston?adjust_creative=a2JdNtFqB-C38ga_06BHvw&utm_campaign=yelp_api_v3&utm_medium=api_v3_business_search&utm_source=a2JdNtFqB-C38ga_06BHvw", "review_count": 8, "categories": [{"alias": "cafes", "title": "Cafes"}], "rating": 3.5, "coordinates": {"latitude": 29.7000202, "longitude": -95.3889802}, "transactions": ["delivery"], "price": "$", "location": {"address1": "2002 Holcombe", "address2": "", "address3": "", "city": "Houston", "zip_code": "77030", "country": "US", "state": "TX", "display_address": ["2002 Holcombe", "Houston, TX 77030"]}, "phone": "+17137947133", "display_phone": "(713) 794-7133", "distance": 2710.9811515663096}, {"id": "dTg1Ng09O9pIvRcIr_SK5Q", "alias": "checkers-houston-11", "name": "Checkers", "image_url": "https://s3-media1.fl.yelpcdn.com/bphoto/YE8GeoAMpkswZ3amy_INUg/o.jpg", "is_closed": false, "url": "https://www.yelp.com/biz/checkers-houston-11?adjust_creative=a2JdNtFqB-C38ga_06BHvw&utm_campaign=yelp_api_v3&utm_medium=api_v3_business_search&utm_source=a2JdNtFqB-C38ga_06BHvw", "review_count": 37, "categories": [{"alias": "hotdogs", "title": "Fast Food"}, {"alias": "burgers", "title": "Burgers"}], "rating": 2.0, "coordinates": {"latitude": 29.67927, "longitude": -95.39418}, "transactions": ["delivery"], "price": "$", "location": {"address1": "8610 Almeda Rd", "address2": "", "address3": null, "city": "Houston", "zip_code": "77054", "country": "US", "state": "TX", "display_address": ["8610 Almeda Rd", "Houston, TX 77054"]}, "phone": "+18327672414", "display_phone": "(832) 767-2414", "distance": 1710.0119353872262}, {"id": "SLro53YjUoGrbp6ESBOHgg", "alias": "john-p-mcgovern-tmc-commons-houston", "name": "John P. McGovern TMC Commons", "image_url": "https://s3-media3.fl.yelpcdn.com/bphoto/76iRP4p6P0lW3NVMsj3GPA/o.jpg", "is_closed": false, "url": "https://www.yelp.com/biz/john-p-mcgovern-tmc-commons-houston?adjust_creative=a2JdNtFqB-C38ga_06BHvw&utm_campaign=yelp_api_v3&utm_medium=api_v3_business_search&utm_source=a2JdNtFqB-C38ga_06BHvw", "review_count": 15, "categories": [{"alias": "medcenters", "title": "Medical Centers"}, {"alias": "food_court", "title": "Food Court"}], "rating": 2.5, "coordinates": {"latitude": 29.7094306945801, "longitude": -95.3979644775391}, "transactions": [], "price": "$", "location": {"address1": "6550 Bertner Ave", "address2": "", "address3": "", "city": "Houston", "zip_code": "77030", "country": "US", "state": "TX", "display_address": ["6550 Bertner Ave", "Houston, TX 77030"]}, "phone": "", "display_phone": "", "distance": 3036.3815060971656}, {"id": "cFXmLQu0PpOPV2IRLl_xxQ", "alias": "sonic-drive-in-houston-76", "name": "Sonic Drive-In", "image_url": "https://s3-media3.fl.yelpcdn.com/bphoto/1lFcOAeZjl3X4wa1Vm-eAg/o.jpg", "is_closed": false, "url": "https://www.yelp.com/biz/sonic-drive-in-houston-76?adjust_creative=a2JdNtFqB-C38ga_06BHvw&utm_campaign=yelp_api_v3&utm_medium=api_v3_business_search&utm_source=a2JdNtFqB-C38ga_06BHvw", "review_count": 72, "categories": [{"alias": "hotdogs", "title": "Fast Food"}, {"alias": "burgers", "title": "Burgers"}, {"alias": "icecream", "title": "Ice Cream & Frozen Yogurt"}], "rating": 2.0, "coordinates": {"latitude": 29.6913837, "longitude": -95.4169015}, "transactions": [], "price": "$", "location": {"address1": "8504 Main St", "address2": "", "address3": "", "city": "Houston", "zip_code": "77025", "country": "US", "state": "TX", "display_address": ["8504 Main St", "Houston, TX 77025"]}, "phone": "+17136680287", "display_phone": "(713) 668-0287", "distance": 944.6412980185959}, {"id": "07EL5-Emy63sGCjr8SgXBw", "alias": "the-market-place-houston-3", "name": "The Market Place", "image_url": "https://s3-media4.fl.yelpcdn.com/bphoto/dC_cMz9xjfR5qIyXMeUPCA/o.jpg", "is_closed": false, "url": "https://www.yelp.com/biz/the-market-place-houston-3?adjust_creative=a2JdNtFqB-C38ga_06BHvw&utm_campaign=yelp_api_v3&utm_medium=api_v3_business_search&utm_source=a2JdNtFqB-C38ga_06BHvw", "review_count": 9, "categories": [{"alias": "cafeteria", "title": "Cafeteria"}, {"alias": "diners", "title": "Diners"}], "rating": 3.0, "coordinates": {"latitude": 29.7115325927734, "longitude": -95.4001541137695}, "transactions": [], "price": "$$", "location": {"address1": "6550 Fannin St", "address2": "", "address3": "", "city": "Houston", "zip_code": "77030", "country": "US", "state": "TX", "display_address": ["6550 Fannin St", "Houston, TX 77030"]}, "phone": "+17137902571", "display_phone": "(713) 790-2571", "distance": 3149.951331578023}, {"id": "RdKqF-tE6CWtUwtCJ2Mrpw", "alias": "chick-fil-a-houston-33", "name": "Chick-fil-A", "image_url": "https://s3-media2.fl.yelpcdn.com/bphoto/AVd2bnqfwhcTo5lu8tL_3g/o.jpg", "is_closed": false, "url": "https://www.yelp.com/biz/chick-fil-a-houston-33?adjust_creative=a2JdNtFqB-C38ga_06BHvw&utm_campaign=yelp_api_v3&utm_medium=api_v3_business_search&utm_source=a2JdNtFqB-C38ga_06BHvw", "review_count": 6, "categories": [{"alias": "hotdogs", "title": "Fast Food"}, {"alias": "chickenshop", "title": "Chicken Shop"}, {"alias": "sandwiches", "title": "Sandwiches"}], "rating": 3.5, "coordinates": {"latitude": 29.7095188, "longitude": -95.3977498}, "transactions": [], "price": "$", "location": {"address1": "6550 Bertner Ave", "address2": "", "address3": "", "city": "Houston", "zip_code": "77030", "country": "US", "state": "TX", "display_address": ["6550 Bertner Ave", "Houston, TX 77030"]}, "phone": "+17137490477", "display_phone": "(713) 749-0477", "distance": 3033.071582156625}, {"id": "ssPJucGYwbzbLaIfejCcqQ", "alias": "the-french-corner-cafe-houston", "name": "The French Corner Cafe", "image_url": "https://s3-media3.fl.yelpcdn.com/bphoto/917QCMPkFKS70TmcAiHwQg/o.jpg", "is_closed": false, "url": "https://www.yelp.com/biz/the-french-corner-cafe-houston?adjust_creative=a2JdNtFqB-C38ga_06BHvw&utm_campaign=yelp_api_v3&utm_medium=api_v3_business_search&utm_source=a2JdNtFqB-C38ga_06BHvw", "review_count": 17, "categories": [{"alias": "sandwiches", "title": "Sandwiches"}, {"alias": "delis", "title": "Delis"}, {"alias": "pizza", "title": "Pizza"}], "rating": 2.5, "coordinates": {"latitude": 29.692135, "longitude": -95.4138901}, "transactions": ["delivery"], "price": "$", "location": {"address1": "1104 Old Spanish Tr", "address2": "", "address3": "", "city": "Houston", "zip_code": "77054", "country": "US", "state": "TX", "display_address": ["1104 Old Spanish Tr", "Houston, TX 77054"]}, "phone": "+17135009103", "display_phone": "(713) 500-9103", "distance": 875.5899818705161}, {"id": "5kQO573smQbkqXpW_RdM_Q", "alias": "citadel-bbq-houston", "name": "Citadel BBQ", "image_url": "https://s3-media4.fl.yelpcdn.com/bphoto/iaSHfxdJVGoAPUSe7cww1Q/o.jpg", "is_closed": false, "url": "https://www.yelp.com/biz/citadel-bbq-houston?adjust_creative=a2JdNtFqB-C38ga_06BHvw&utm_campaign=yelp_api_v3&utm_medium=api_v3_business_search&utm_source=a2JdNtFqB-C38ga_06BHvw", "review_count": 11, "categories": [{"alias": "bbq", "title": "Barbeque"}, {"alias": "southern", "title": "Southern"}], "rating": 3.0, "coordinates": {"latitude": 29.7099952, "longitude": -95.40170287295676}, "transactions": ["delivery", "pickup"], "location": {"address1": "6601 Main St", "address2": "", "address3": null, "city": "Houston", "zip_code": "77030", "country": "US", "state": "TX", "display_address": ["6601 Main St", "Houston, TX 77030"]}, "phone": "+13464443227", "display_phone": "(346) 444-3227", "distance": 2945.3700498809685}, {"id": "ET3NC8RKs_HpmsWm0in4bA", "alias": "murphys-deli-houston-71", "name": "Murphy's Deli", "image_url": "https://s3-media4.fl.yelpcdn.com/bphoto/L3ZWYDBSZIOz1sPF_08FeQ/o.jpg", "is_closed": false, "url": "https://www.yelp.com/biz/murphys-deli-houston-71?adjust_creative=a2JdNtFqB-C38ga_06BHvw&utm_campaign=yelp_api_v3&utm_medium=api_v3_business_search&utm_source=a2JdNtFqB-C38ga_06BHvw", "review_count": 12, "categories": [{"alias": "sandwiches", "title": "Sandwiches"}, {"alias": "salad", "title": "Salad"}, {"alias": "breakfast_brunch", "title": "Breakfast & Brunch"}], "rating": 3.0, "coordinates": {"latitude": 29.71078, "longitude": -95.40048}, "transactions": ["delivery"], "price": "$$", "location": {"address1": "6560 Fannin", "address2": "Ste 250", "address3": "", "city": "Houston", "zip_code": "77030", "country": "US", "state": "TX", "display_address": ["6560 Fannin", "Ste 250", "Houston, TX 77030"]}, "phone": "+17137950863", "display_phone": "(713) 795-0863", "distance": 3060.550650073983}, {"id": "jOhmACsXS4dnQbZANMlJgg", "alias": "popeyes-louisiana-kitchen-houston-10", "name": "Popeyes Louisiana Kitchen", "image_url": "https://s3-media2.fl.yelpcdn.com/bphoto/2x2r99vNC2at64dczWEcbw/o.jpg", "is_closed": false, "url": "https://www.yelp.com/biz/popeyes-louisiana-kitchen-houston-10?adjust_creative=a2JdNtFqB-C38ga_06BHvw&utm_campaign=yelp_api_v3&utm_medium=api_v3_business_search&utm_source=a2JdNtFqB-C38ga_06BHvw", "review_count": 57, "categories": [{"alias": "chicken_wings", "title": "Chicken Wings"}, {"alias": "hotdogs", "title": "Fast Food"}], "rating": 2.0, "coordinates": {"latitude": 29.68628, "longitude": -95.42133}, "transactions": ["delivery"], "price": "$", "location": {"address1": "9120 Main St", "address2": "", "address3": "", "city": "Houston", "zip_code": "77025", "country": "US", "state": "TX", "display_address": ["9120 Main St", "Houston, TX 77025"]}, "phone": "+17136649805", "display_phone": "(713) 664-9805", "distance": 1033.5876039546774}, {"id": "iLZTW72FKjGNNhQV9kgWPQ", "alias": "pizza-hut-houston-15", "name": "Pizza Hut", "image_url": "https://s3-media3.fl.yelpcdn.com/bphoto/D0CMXY8a3Vhf8ReMYPTPTg/o.jpg", "is_closed": false, "url": "https://www.yelp.com/biz/pizza-hut-houston-15?adjust_creative=a2JdNtFqB-C38ga_06BHvw&utm_campaign=yelp_api_v3&utm_medium=api_v3_business_search&utm_source=a2JdNtFqB-C38ga_06BHvw", "review_count": 40, "categories": [{"alias": "pizza", "title": "Pizza"}, {"alias": "italian", "title": "Italian"}, {"alias": "chicken_wings", "title": "Chicken Wings"}], "rating": 2.0, "coordinates": {"latitude": 29.7065440570791, "longitude": -95.4053185216617}, "transactions": ["delivery"], "price": "$", "location": {"address1": "2100 W Holcombe Blvd", "address2": "", "address3": "", "city": "Houston", "zip_code": "77030", "country": "US", "state": "TX", "display_address": ["2100 W Holcombe Blvd", "Houston, TX 77030"]}, "phone": "+17135212266", "display_phone": "(713) 521-2266", "distance": 2484.273935781949}, {"id": "TmUKRJhi3pFsNlpo2XYITQ", "alias": "murphys-deli-houston-6", "name": "Murphy's Deli", "image_url": "https://s3-media1.fl.yelpcdn.com/bphoto/Px9UDHWwQEEz1oaxmEgv9Q/o.jpg", "is_closed": false, "url": "https://www.yelp.com/biz/murphys-deli-houston-6?adjust_creative=a2JdNtFqB-C38ga_06BHvw&utm_campaign=yelp_api_v3&utm_medium=api_v3_business_search&utm_source=a2JdNtFqB-C38ga_06BHvw", "review_count": 13, "categories": [{"alias": "salad", "title": "Salad"}, {"alias": "sandwiches", "title": "Sandwiches"}, {"alias": "breakfast_brunch", "title": "Breakfast & Brunch"}], "rating": 2.5, "coordinates": {"latitude": 29.70916, "longitude": -95.40203}, "transactions": ["delivery"], "price": "$$", "location": {"address1": "6624 Fannin", "address2": "Ste. 160", "address3": "", "city": "Houston", "zip_code": "77030", "country": "US", "state": "TX", "display_address": ["6624 Fannin", "Ste. 160", "Houston, TX 77030"]}, "phone": "+17137991917", "display_phone": "(713) 799-1917", "distance": 2850.2275593984873}, {"id": "IEIjD9vTEct__0cD3mBc4g", "alias": "taco-bell-houston-8", "name": "Taco Bell", "image_url": "https://s3-media2.fl.yelpcdn.com/bphoto/W7mvrjsivfnGqL66U02SCA/o.jpg", "is_closed": false, "url": "https://www.yelp.com/biz/taco-bell-houston-8?adjust_creative=a2JdNtFqB-C38ga_06BHvw&utm_campaign=yelp_api_v3&utm_medium=api_v3_business_search&utm_source=a2JdNtFqB-C38ga_06BHvw", "review_count": 24, "categories": [{"alias": "mexican", "title": "Mexican"}, {"alias": "hotdogs", "title": "Fast Food"}], "rating": 2.5, "coordinates": {"latitude": 29.67687617, "longitude": -95.42693717}, "transactions": ["delivery"], "price": "$", "location": {"address1": "3155 S Loop West", "address2": "", "address3": "", "city": "Houston", "zip_code": "77054", "country": "US", "state": "TX", "display_address": ["3155 S Loop West", "Houston, TX 77054"]}, "phone": "+17135926777", "display_phone": "(713) 592-6777", "distance": 1787.3940786431542}, {"id": "z5tw66Ppc0c95dM_uqkj7Q", "alias": "golden-corral-buffet-and-grill-houston", "name": "Golden Corral Buffet and Grill", "image_url": "https://s3-media3.fl.yelpcdn.com/bphoto/1q3A4SYe41w-aN5jSKh-gw/o.jpg", "is_closed": false, "url": "https://www.yelp.com/biz/golden-corral-buffet-and-grill-houston?adjust_creative=a2JdNtFqB-C38ga_06BHvw&utm_campaign=yelp_api_v3&utm_medium=api_v3_business_search&utm_source=a2JdNtFqB-C38ga_06BHvw", "review_count": 75, "categories": [{"alias": "tradamerican", "title": "American (Traditional)"}, {"alias": "buffets", "title": "Buffets"}], "rating": 2.0, "coordinates": {"latitude": 29.676632, "longitude": -95.426033}, "transactions": [], "price": "$$", "location": {"address1": "3033 South Loop West", "address2": "", "address3": "", "city": "Houston", "zip_code": "77054", "country": "US", "state": "TX", "display_address": ["3033 South Loop West", "Houston, TX 77054"]}, "phone": "+17138391700", "display_phone": "(713) 839-1700", "distance": 1719.1171317386672}, {"id": "2nivq7l-SbZWXAYb37TuVg", "alias": "antones-famous-poboys-medical-center-houston-3", "name": "Antone's Famous Po'Boys - Medical Center", "image_url": "https://s3-media3.fl.yelpcdn.com/bphoto/uwDP-pYOl-Gp-6z-BwgwAg/o.jpg", "is_closed": false, "url": "https://www.yelp.com/biz/antones-famous-poboys-medical-center-houston-3?adjust_creative=a2JdNtFqB-C38ga_06BHvw&utm_campaign=yelp_api_v3&utm_medium=api_v3_business_search&utm_source=a2JdNtFqB-C38ga_06BHvw", "review_count": 8, "categories": [{"alias": "sandwiches", "title": "Sandwiches"}, {"alias": "cajun", "title": "Cajun/Creole"}], "rating": 3.0, "coordinates": {"latitude": 29.7092541, "longitude": -95.4015053}, "transactions": ["delivery", "pickup"], "location": {"address1": "6618 Fannin St", "address2": null, "address3": "", "city": "Houston", "zip_code": "77030", "country": "US", "state": "TX", "display_address": ["6618 Fannin St", "Houston, TX 77030"]}, "phone": "+18327671873", "display_phone": "(832) 767-1873", "distance": 2914.426766651108}, {"id": "XmzRkGt7Po_4MVj7mM73pQ", "alias": "papa-johns-pizza-houston-30", "name": "Papa John's Pizza", "image_url": "https://s3-media3.fl.yelpcdn.com/bphoto/t7x9-HJp9BzZJYEoGL6Guw/o.jpg", "is_closed": false, "url": "https://www.yelp.com/biz/papa-johns-pizza-houston-30?adjust_creative=a2JdNtFqB-C38ga_06BHvw&utm_campaign=yelp_api_v3&utm_medium=api_v3_business_search&utm_source=a2JdNtFqB-C38ga_06BHvw", "review_count": 47, "categories": [{"alias": "pizza", "title": "Pizza"}], "rating": 2.0, "coordinates": {"latitude": 29.6928004724742, "longitude": -95.4163366183444}, "transactions": ["delivery"], "price": "$", "location": {"address1": "8200 S Main St", "address2": "Ste 200", "address3": null, "city": "Houston", "zip_code": "77025", "country": "US", "state": "TX", "display_address": ["8200 S Main St", "Ste 200", "Houston, TX 77025"]}, "phone": "+17136610845", "display_phone": "(713) 661-0845", "distance": 1043.8173317399767}, {"id": "ee-ARtgV9BPH5Y8NRCdhqQ", "alias": "md-anderson-cafe-houston", "name": "MD Anderson Cafe", "image_url": "https://s3-media4.fl.yelpcdn.com/bphoto/cDAJ4FK5bChZgwqfm6h5Zw/o.jpg", "is_closed": false, "url": "https://www.yelp.com/biz/md-anderson-cafe-houston?adjust_creative=a2JdNtFqB-C38ga_06BHvw&utm_campaign=yelp_api_v3&utm_medium=api_v3_business_search&utm_source=a2JdNtFqB-C38ga_06BHvw", "review_count": 22, "categories": [{"alias": "cafes", "title": "Cafes"}], "rating": 2.0, "coordinates": {"latitude": 29.7051823931028, "longitude": -95.4000377655029}, "transactions": [], "price": "$", "location": {"address1": "1220 Holcombe Blvd,", "address2": "", "address3": "MD Anderson Cancer Center Mays Clinic", "city": "Houston", "zip_code": "77002", "country": "US", "state": "TX", "display_address": ["1220 Holcombe Blvd,", "MD Anderson Cancer Center Mays Clinic", "Houston, TX 77002"]}, "phone": "", "display_phone": "", "distance": 2502.664199535816}, {"id": "Tu8goYmXVGXlJHYVMCSeww", "alias": "subway-houston-20", "name": "Subway", "image_url": "https://s3-media3.fl.yelpcdn.com/bphoto/T6VTgIhrLKKTmpUT7fDyxw/o.jpg", "is_closed": false, "url": "https://www.yelp.com/biz/subway-houston-20?adjust_creative=a2JdNtFqB-C38ga_06BHvw&utm_campaign=yelp_api_v3&utm_medium=api_v3_business_search&utm_source=a2JdNtFqB-C38ga_06BHvw", "review_count": 12, "categories": [{"alias": "sandwiches", "title": "Sandwiches"}, {"alias": "hotdogs", "title": "Fast Food"}], "rating": 2.5, "coordinates": {"latitude": 29.7076511383057, "longitude": -95.4012145996094}, "transactions": [], "price": "$", "location": {"address1": "6621 Fannin St", "address2": "", "address3": "", "city": "Houston", "zip_code": "77030", "country": "US", "state": "TX", "display_address": ["6621 Fannin St", "Houston, TX 77030"]}, "phone": "+18328226368", "display_phone": "(832) 822-6368", "distance": 2768.234575921709}, {"id": "WFQnIjEngV-WkEo4jyEIZg", "alias": "schlotzskys-houston-5", "name": "Schlotzsky's", "image_url": "https://s3-media2.fl.yelpcdn.com/bphoto/1Z7BHNc3E7_r0wJ2SbCGBg/o.jpg", "is_closed": false, "url": "https://www.yelp.com/biz/schlotzskys-houston-5?adjust_creative=a2JdNtFqB-C38ga_06BHvw&utm_campaign=yelp_api_v3&utm_medium=api_v3_business_search&utm_source=a2JdNtFqB-C38ga_06BHvw", "review_count": 16, "categories": [{"alias": "delis", "title": "Delis"}, {"alias": "sandwiches", "title": "Sandwiches"}, {"alias": "catering", "title": "Caterers"}], "rating": 2.5, "coordinates": {"latitude": 29.6927901, "longitude": -95.4163421}, "transactions": ["pickup", "delivery"], "price": "$", "location": {"address1": "8200 South Main St", "address2": "Ste 100", "address3": "", "city": "Houston", "zip_code": "77025", "country": "US", "state": "TX", "display_address": ["8200 South Main St", "Ste 100", "Houston, TX 77025"]}, "phone": "+17136650011", "display_phone": "(713) 665-0011", "distance": 1043.095003853918}, {"id": "tPmvZJbPupcl9Ih_6WcrZg", "alias": "pizza-hut-houston-30", "name": "Pizza Hut", "image_url": "https://s3-media4.fl.yelpcdn.com/bphoto/wGReZx1r04GdC8tgzteofg/o.jpg", "is_closed": false, "url": "https://www.yelp.com/biz/pizza-hut-houston-30?adjust_creative=a2JdNtFqB-C38ga_06BHvw&utm_campaign=yelp_api_v3&utm_medium=api_v3_business_search&utm_source=a2JdNtFqB-C38ga_06BHvw", "review_count": 31, "categories": [{"alias": "pizza", "title": "Pizza"}], "rating": 2.0, "coordinates": {"latitude": 29.70540249008971, "longitude": -95.440864}, "transactions": ["delivery"], "price": "$", "location": {"address1": "4001 Bellaire Blvd", "address2": "", "address3": "", "city": "Houston", "zip_code": "77025", "country": "US", "state": "TX", "display_address": ["4001 Bellaire Blvd", "Houston, TX 77025"]}, "phone": "+17136642222", "display_phone": "(713) 664-2222", "distance": 3701.6720266877624}, {"id": "FOaYXKxwCnZyMp8I7eG90w", "alias": "fajitas-to-go-and-delivery-houston", "name": "Fajitas TO-GO & Delivery", "image_url": "https://s3-media3.fl.yelpcdn.com/bphoto/NtAG4ZoQGuv7fRPrzbHtgg/o.jpg", "is_closed": false, "url": "https://www.yelp.com/biz/fajitas-to-go-and-delivery-houston?adjust_creative=a2JdNtFqB-C38ga_06BHvw&utm_campaign=yelp_api_v3&utm_medium=api_v3_business_search&utm_source=a2JdNtFqB-C38ga_06BHvw", "review_count": 4, "categories": [{"alias": "mexican", "title": "Mexican"}], "rating": 3.5, "coordinates": {"latitude": 29.6753402799368, "longitude": -95.4291933774948}, "transactions": ["pickup", "delivery"], "location": {"address1": "10021 S Main St", "address2": "Ste B-7", "address3": "", "city": "Houston", "zip_code": "77025", "country": "US", "state": "TX", "display_address": ["10021 S Main St", "Ste B-7", "Houston, TX 77025"]}, "phone": "+12818883964", "display_phone": "(281) 888-3964", "distance": 2003.7952885704553}, {"id": "kSUjsN2kKnqMXdfRhX-5GA", "alias": "texas-halal-bbq-state-houston", "name": "Texas Halal BBQ State", "image_url": "https://s3-media1.fl.yelpcdn.com/bphoto/GVbR2ZY9Ukf5u7x3dZ9ZgQ/o.jpg", "is_closed": false, "url": "https://www.yelp.com/biz/texas-halal-bbq-state-houston?adjust_creative=a2JdNtFqB-C38ga_06BHvw&utm_campaign=yelp_api_v3&utm_medium=api_v3_business_search&utm_source=a2JdNtFqB-C38ga_06BHvw", "review_count": 2, "categories": [{"alias": "foodtrucks", "title": "Food Trucks"}, {"alias": "halal", "title": "Halal"}, {"alias": "bbq", "title": "Barbeque"}], "rating": 4.5, "coordinates": {"latitude": 29.698423, "longitude": -95.386491}, "transactions": ["delivery"], "location": {"address1": "2802 Old Spanish Trl", "address2": "", "address3": null, "city": "Houston", "zip_code": "77054", "country": "US", "state": "TX", "display_address": ["2802 Old Spanish Trl", "Houston, TX 77054"]}, "phone": "+13463042765", "display_phone": "(346) 304-2765", "distance": 2801.7357161519926}, {"id": "GZFv_hN1v4wdVFYBQm8Jaw", "alias": "ajs-sandwich-shop-houston", "name": "Aj's Sandwich Shop", "image_url": "https://s3-media2.fl.yelpcdn.com/bphoto/o4pc-h83nBD0fPbqC2D4wg/o.jpg", "is_closed": false, "url": "https://www.yelp.com/biz/ajs-sandwich-shop-houston?adjust_creative=a2JdNtFqB-C38ga_06BHvw&utm_campaign=yelp_api_v3&utm_medium=api_v3_business_search&utm_source=a2JdNtFqB-C38ga_06BHvw", "review_count": 2, "categories": [{"alias": "sandwiches", "title": "Sandwiches"}, {"alias": "burgers", "title": "Burgers"}, {"alias": "delis", "title": "Delis"}], "rating": 4.5, "coordinates": {"latitude": 29.6796817779541, "longitude": -95.4207916259766}, "transactions": ["delivery"], "price": "$", "location": {"address1": "2646 S Lp W", "address2": "", "address3": "", "city": "Houston", "zip_code": "77054", "country": "US", "state": "TX", "display_address": ["2646 S Lp W", "Houston, TX 77054"]}, "phone": "+17136673530", "display_phone": "(713) 667-3530", "distance": 1130.9967946200768}, {"id": "lp4BLoKTdzYs_tKYFUSDiw", "alias": "papa-johns-pizza-houston-13", "name": "Papa John's Pizza", "image_url": "https://s3-media3.fl.yelpcdn.com/bphoto/f15fXlPylTNtykcCweblbQ/o.jpg", "is_closed": false, "url": "https://www.yelp.com/biz/papa-johns-pizza-houston-13?adjust_creative=a2JdNtFqB-C38ga_06BHvw&utm_campaign=yelp_api_v3&utm_medium=api_v3_business_search&utm_source=a2JdNtFqB-C38ga_06BHvw", "review_count": 7, "categories": [{"alias": "pizza", "title": "Pizza"}], "rating": 3.0, "coordinates": {"latitude": 29.7097666, "longitude": -95.4020586}, "transactions": [], "price": "$", "location": {"address1": "6611 Main St", "address2": "", "address3": "", "city": "Houston", "zip_code": "77030", "country": "US", "state": "TX", "display_address": ["6611 Main St", "Houston, TX 77030"]}, "phone": "+17137940077", "display_phone": "(713) 794-0077", "distance": 2919.007435762307}, {"id": "QyenbXXPWeBPOBChFQdAAA", "alias": "trellis-houston", "name": "Trellis", "image_url": "https://s3-media4.fl.yelpcdn.com/bphoto/MzpPYatBvwsHVfqPcKHo9Q/o.jpg", "is_closed": false, "url": "https://www.yelp.com/biz/trellis-houston?adjust_creative=a2JdNtFqB-C38ga_06BHvw&utm_campaign=yelp_api_v3&utm_medium=api_v3_business_search&utm_source=a2JdNtFqB-C38ga_06BHvw", "review_count": 6, "categories": [{"alias": "tradamerican", "title": "American (Traditional)"}], "rating": 3.0, "coordinates": {"latitude": 29.6904375233068, "longitude": -95.411479416068}, "transactions": ["delivery"], "location": {"address1": "8111 Kirby Dr", "address2": "", "address3": "", "city": "Houston", "zip_code": "77054", "country": "US", "state": "TX", "display_address": ["8111 Kirby Dr", "Houston, TX 77054"]}, "phone": "+17137901900", "display_phone": "(713) 790-1900", "distance": 638.5967403288224}, {"id": "STPI0_ADFFTCMhch_lXgQg", "alias": "subway-houston-452", "name": "Subway", "image_url": "https://s3-media2.fl.yelpcdn.com/bphoto/T_IFiXibFFLGhQY6NNff0Q/o.jpg", "is_closed": false, "url": "https://www.yelp.com/biz/subway-houston-452?adjust_creative=a2JdNtFqB-C38ga_06BHvw&utm_campaign=yelp_api_v3&utm_medium=api_v3_business_search&utm_source=a2JdNtFqB-C38ga_06BHvw", "review_count": 21, "categories": [{"alias": "sandwiches", "title": "Sandwiches"}], "rating": 2.0, "coordinates": {"latitude": 29.6993521, "longitude": -95.3860574}, "transactions": ["pickup", "delivery"], "price": "$", "location": {"address1": "2803 Old Spanish Trl", "address2": "", "address3": "", "city": "Houston", "zip_code": "77030", "country": "US", "state": "TX", "display_address": ["2803 Old Spanish Trl", "Houston, TX 77030"]}, "phone": "+17137418980", "display_phone": "(713) 741-8980", "distance": 2893.760012792937}, {"id": "gKQrt6XKRvuB27LJf49Jug", "alias": "dominos-pizza-houston-98", "name": "Domino's Pizza", "image_url": "https://s3-media3.fl.yelpcdn.com/bphoto/E3fNLoxzVSVX8jIGXeGQmw/o.jpg", "is_closed": false, "url": "https://www.yelp.com/biz/dominos-pizza-houston-98?adjust_creative=a2JdNtFqB-C38ga_06BHvw&utm_campaign=yelp_api_v3&utm_medium=api_v3_business_search&utm_source=a2JdNtFqB-C38ga_06BHvw", "review_count": 19, "categories": [{"alias": "pizza", "title": "Pizza"}, {"alias": "chicken_wings", "title": "Chicken Wings"}, {"alias": "sandwiches", "title": "Sandwiches"}], "rating": 2.0, "coordinates": {"latitude": 29.68836, "longitude": -95.39119}, "transactions": [], "price": "$", "location": {"address1": "7810 Almeda Rd", "address2": "", "address3": null, "city": "Houston", "zip_code": "77054", "country": "US", "state": "TX", "display_address": ["7810 Almeda Rd", "Houston, TX 77054"]}, "phone": "+18329688080", "display_phone": "(832) 968-8080", "distance": 1940.5378231724467}, {"id": "w_ZLcLd-m73amZlUlB9LuA", "alias": "mcdonalds-houston-146", "name": "McDonald's", "image_url": "https://s3-media3.fl.yelpcdn.com/bphoto/SvDVNomcRS4fkxcviutdCQ/o.jpg", "is_closed": false, "url": "https://www.yelp.com/biz/mcdonalds-houston-146?adjust_creative=a2JdNtFqB-C38ga_06BHvw&utm_campaign=yelp_api_v3&utm_medium=api_v3_business_search&utm_source=a2JdNtFqB-C38ga_06BHvw", "review_count": 29, "categories": [{"alias": "hotdogs", "title": "Fast Food"}, {"alias": "burgers", "title": "Burgers"}, {"alias": "coffee", "title": "Coffee & Tea"}], "rating": 2.0, "coordinates": {"latitude": 29.705647, "longitude": -95.411641}, "transactions": ["delivery"], "price": "$", "location": {"address1": "2249 W Holcombe Blvd", "address2": "", "address3": "", "city": "Houston", "zip_code": "77030", "country": "US", "state": "TX", "display_address": ["2249 W Holcombe Blvd", "Houston, TX 77030"]}, "phone": "+17136685882", "display_phone": "(713) 668-5882", "distance": 2328.0598459200373}, {"id": "4uiilonKL8bjLp8vphUa0A", "alias": "kfc-houston-48", "name": "KFC", "image_url": "https://s3-media3.fl.yelpcdn.com/bphoto/F2s0GO33-7GYxXb2rduKpQ/o.jpg", "is_closed": false, "url": "https://www.yelp.com/biz/kfc-houston-48?adjust_creative=a2JdNtFqB-C38ga_06BHvw&utm_campaign=yelp_api_v3&utm_medium=api_v3_business_search&utm_source=a2JdNtFqB-C38ga_06BHvw", "review_count": 55, "categories": [{"alias": "chicken_wings", "title": "Chicken Wings"}, {"alias": "hotdogs", "title": "Fast Food"}, {"alias": "chickenshop", "title": "Chicken Shop"}], "rating": 1.5, "coordinates": {"latitude": 29.6816144725238, "longitude": -95.4250153859372}, "transactions": ["pickup", "delivery"], "price": "$", "location": {"address1": "9510 Main St", "address2": "", "address3": "", "city": "Houston", "zip_code": "77025", "country": "US", "state": "TX", "display_address": ["9510 Main St", "Houston, TX 77025"]}, "phone": "+17136691515", "display_phone": "(713) 669-1515", "distance": 1412.9702075363462}, {"id": "EYQD23YtB__W8Ty26voP9A", "alias": "arbys-houston-20", "name": "Arby's", "image_url": "https://s3-media2.fl.yelpcdn.com/bphoto/l2v-NsXW9IeMfRcBOZPp6Q/o.jpg", "is_closed": false, "url": "https://www.yelp.com/biz/arbys-houston-20?adjust_creative=a2JdNtFqB-C38ga_06BHvw&utm_campaign=yelp_api_v3&utm_medium=api_v3_business_search&utm_source=a2JdNtFqB-C38ga_06BHvw", "review_count": 20, "categories": [{"alias": "sandwiches", "title": "Sandwiches"}, {"alias": "hotdogs", "title": "Fast Food"}], "rating": 2.0, "coordinates": {"latitude": 29.676789, "longitude": -95.426493}, "transactions": [], "price": "$", "location": {"address1": "3055  S Lp W", "address2": "", "address3": null, "city": "Houston", "zip_code": "77054", "country": "US", "state": "TX", "display_address": ["3055  S Lp W", "Houston, TX 77054"]}, "phone": "+18005992729", "display_phone": "(800) 599-2729", "distance": 1751.2341774151805}, {"id": "c37GrUpI2BDbEgnhN0aC2g", "alias": "burger-king-houston-21", "name": "Burger King", "image_url": "https://s3-media4.fl.yelpcdn.com/bphoto/Mv9CEmkUt-BeJG1LREku9Q/o.jpg", "is_closed": false, "url": "https://www.yelp.com/biz/burger-king-houston-21?adjust_creative=a2JdNtFqB-C38ga_06BHvw&utm_campaign=yelp_api_v3&utm_medium=api_v3_business_search&utm_source=a2JdNtFqB-C38ga_06BHvw", "review_count": 18, "categories": [{"alias": "hotdogs", "title": "Fast Food"}, {"alias": "burgers", "title": "Burgers"}], "rating": 2.0, "coordinates": {"latitude": 29.67984, "longitude": -95.40247}, "transactions": ["delivery"], "price": "$", "location": {"address1": "1620 S Loop W", "address2": "", "address3": "", "city": "Houston", "zip_code": "77054", "country": "US", "state": "TX", "display_address": ["1620 S Loop W", "Houston, TX 77054"]}, "phone": "+17137909848", "display_phone": "(713) 790-9848", "distance": 975.8741691154994}, {"id": "5dAs1kICcXfrULlb22LYsQ", "alias": "pizza-hut-houston-157", "name": "Pizza Hut", "image_url": "https://s3-media3.fl.yelpcdn.com/bphoto/461oEnl3mNwUoUkbzEzSlA/o.jpg", "is_closed": false, "url": "https://www.yelp.com/biz/pizza-hut-houston-157?adjust_creative=a2JdNtFqB-C38ga_06BHvw&utm_campaign=yelp_api_v3&utm_medium=api_v3_business_search&utm_source=a2JdNtFqB-C38ga_06BHvw", "review_count": 30, "categories": [{"alias": "pizza", "title": "Pizza"}, {"alias": "italian", "title": "Italian"}, {"alias": "chicken_wings", "title": "Chicken Wings"}], "rating": 1.5, "coordinates": {"latitude": 29.6918483057553, "longitude": -95.4121851515379}, "transactions": ["delivery"], "price": "$", "location": {"address1": "8057 Kirby Dr", "address2": "Ste B", "address3": "", "city": "Houston", "zip_code": "77054", "country": "US", "state": "TX", "display_address": ["8057 Kirby Dr", "Ste B", "Houston, TX 77054"]}, "phone": "+13469983776", "display_phone": "(346) 998-3776", "distance": 803.1010013932713}, {"id": "crL4WuwSZY6hTYhD6DWSFQ", "alias": "mcdonalds-houston-120", "name": "McDonald's", "image_url": "https://s3-media4.fl.yelpcdn.com/bphoto/87N1NoY0Hd3MT-dtHtTPHw/o.jpg", "is_closed": false, "url": "https://www.yelp.com/biz/mcdonalds-houston-120?adjust_creative=a2JdNtFqB-C38ga_06BHvw&utm_campaign=yelp_api_v3&utm_medium=api_v3_business_search&utm_source=a2JdNtFqB-C38ga_06BHvw", "review_count": 42, "categories": [{"alias": "hotdogs", "title": "Fast Food"}, {"alias": "burgers", "title": "Burgers"}, {"alias": "coffee", "title": "Coffee & Tea"}], "rating": 1.5, "coordinates": {"latitude": 29.6783939038384, "longitude": -95.425980091095}, "transactions": ["delivery"], "price": "$", "location": {"address1": "9805 S Main", "address2": "", "address3": "", "city": "Houston", "zip_code": "77025", "country": "US", "state": "TX", "display_address": ["9805 S Main", "Houston, TX 77025"]}, "phone": "+17133499001", "display_phone": "(713) 349-9001", "distance": 1623.6776799883505}, {"id": "VVm7g_TIkvjc8BIrNUVDUA", "alias": "jack-in-the-box-houston-117", "name": "Jack in the Box", "image_url": "https://s3-media1.fl.yelpcdn.com/bphoto/Nr1lYf4vxAOkb4TTJM0xJA/o.jpg", "is_closed": false, "url": "https://www.yelp.com/biz/jack-in-the-box-houston-117?adjust_creative=a2JdNtFqB-C38ga_06BHvw&utm_campaign=yelp_api_v3&utm_medium=api_v3_business_search&utm_source=a2JdNtFqB-C38ga_06BHvw", "review_count": 22, "categories": [{"alias": "burgers", "title": "Burgers"}, {"alias": "hotdogs", "title": "Fast Food"}, {"alias": "tacos", "title": "Tacos"}], "rating": 2.0, "coordinates": {"latitude": 29.6904527533822, "longitude": -95.4168149828911}, "transactions": ["delivery"], "price": "$", "location": {"address1": "8767 S Main St", "address2": "", "address3": "", "city": "Houston", "zip_code": "77025", "country": "US", "state": "TX", "display_address": ["8767 S Main St", "Houston, TX 77025"]}, "phone": "+12815047520", "display_phone": "(281) 504-7520", "distance": 860.2200253293872}, {"id": "n1crH2Cg8Pb7UQ-bt0jLjQ", "alias": "mcdonalds-houston-18", "name": "McDonald's", "image_url": "https://s3-media3.fl.yelpcdn.com/bphoto/Pj62KNZaCkAVNDO2i4phdw/o.jpg", "is_closed": false, "url": "https://www.yelp.com/biz/mcdonalds-houston-18?adjust_creative=a2JdNtFqB-C38ga_06BHvw&utm_campaign=yelp_api_v3&utm_medium=api_v3_business_search&utm_source=a2JdNtFqB-C38ga_06BHvw", "review_count": 22, "categories": [{"alias": "hotdogs", "title": "Fast Food"}, {"alias": "burgers", "title": "Burgers"}, {"alias": "coffee", "title": "Coffee & Tea"}], "rating": 2.0, "coordinates": {"latitude": 29.707769, "longitude": -95.400899}, "transactions": ["delivery"], "price": "$", "location": {"address1": "6621 Fannin St", "address2": "", "address3": "", "city": "Houston", "zip_code": "77030", "country": "US", "state": "TX", "display_address": ["6621 Fannin St", "Houston, TX 77030"]}, "phone": "+17137901482", "display_phone": "(713) 790-1482", "distance": 2736.452291303143}, {"id": "P8fyFwD9P7fdhh96cStoMg", "alias": "bertner-avenue-cafe-houston", "name": "Bertner Avenue Cafe", "image_url": "https://s3-media2.fl.yelpcdn.com/bphoto/D-ioeE-1jhzXoZU_ZRcEAw/o.jpg", "is_closed": false, "url": "https://www.yelp.com/biz/bertner-avenue-cafe-houston?adjust_creative=a2JdNtFqB-C38ga_06BHvw&utm_campaign=yelp_api_v3&utm_medium=api_v3_business_search&utm_source=a2JdNtFqB-C38ga_06BHvw", "review_count": 11, "categories": [{"alias": "tradamerican", "title": "American (Traditional)"}], "rating": 2.5, "coordinates": {"latitude": 29.707819, "longitude": -95.400512}, "transactions": [], "price": "$", "location": {"address1": "6720 Bertner Ave", "address2": "", "address3": "St. Luke's Hospital", "city": "Houston", "zip_code": "77030", "country": "US", "state": "TX", "display_address": ["6720 Bertner Ave", "St. Luke's Hospital", "Houston, TX 77030"]}, "phone": "+18323551000", "display_phone": "(832) 355-1000", "distance": 2754.9647787160875}, {"id": "Q1kfUsjuyFr8vgdTf9v6Yw", "alias": "waterfall-cafe-houston", "name": "Waterfall Cafe", "image_url": "https://s3-media3.fl.yelpcdn.com/bphoto/U9fKACtzfe1HA3jGH8I_zw/o.jpg", "is_closed": false, "url": "https://www.yelp.com/biz/waterfall-cafe-houston?adjust_creative=a2JdNtFqB-C38ga_06BHvw&utm_campaign=yelp_api_v3&utm_medium=api_v3_business_search&utm_source=a2JdNtFqB-C38ga_06BHvw", "review_count": 11, "categories": [{"alias": "breakfast_brunch", "title": "Breakfast & Brunch"}], "rating": 2.5, "coordinates": {"latitude": 29.704734294782, "longitude": -95.4000309995026}, "transactions": [], "price": "$", "location": {"address1": "Md Anderson Cancer Center Inside Mays Clinic", "address2": "", "address3": "1155 Pressler", "city": "Houston", "zip_code": "77030", "country": "US", "state": "TX", "display_address": ["Md Anderson Cancer Center Inside Mays Clinic", "1155 Pressler", "Houston, TX 77030"]}, "phone": "", "display_phone": "", "distance": 2457.7348991695}, {"id": "ZiutTjUkhYY68bR1_l7ETQ", "alias": "mcdonalds-houston-68", "name": "McDonald's", "image_url": "https://s3-media3.fl.yelpcdn.com/bphoto/BoFf-prjtnJ8BU-fVPbBAg/o.jpg", "is_closed": false, "url": "https://www.yelp.com/biz/mcdonalds-houston-68?adjust_creative=a2JdNtFqB-C38ga_06BHvw&utm_campaign=yelp_api_v3&utm_medium=api_v3_business_search&utm_source=a2JdNtFqB-C38ga_06BHvw", "review_count": 66, "categories": [{"alias": "hotdogs", "title": "Fast Food"}, {"alias": "burgers", "title": "Burgers"}, {"alias": "coffee", "title": "Coffee & Tea"}], "rating": 1.5, "coordinates": {"latitude": 29.6783076241416, "longitude": -95.4026102228272}, "transactions": ["delivery"], "price": "$", "location": {"address1": "1619 S Lp W", "address2": "", "address3": "", "city": "Houston", "zip_code": "77054", "country": "US", "state": "TX", "display_address": ["1619 S Lp W", "Houston, TX 77054"]}, "phone": "+17137976446", "display_phone": "(713) 797-6446", "distance": 1067.5813127752292}, {"id": "kvq8qBsa7zAHzFlnw8tGOQ", "alias": "la-cocina-houston", "name": "La Cocina", "image_url": "https://s3-media2.fl.yelpcdn.com/bphoto/4uL0TuyZPveYosPxGY7bmQ/o.jpg", "is_closed": false, "url": "https://www.yelp.com/biz/la-cocina-houston?adjust_creative=a2JdNtFqB-C38ga_06BHvw&utm_campaign=yelp_api_v3&utm_medium=api_v3_business_search&utm_source=a2JdNtFqB-C38ga_06BHvw", "review_count": 2, "categories": [{"alias": "newmexican", "title": "New Mexican Cuisine"}], "rating": 4.0, "coordinates": {"latitude": 29.709504, "longitude": -95.397697}, "transactions": [], "location": {"address1": "6550 Bertner Ave", "address2": "", "address3": null, "city": "Houston", "zip_code": "77030", "country": "US", "state": "TX", "display_address": ["6550 Bertner Ave", "Houston, TX 77030"]}, "phone": "", "display_phone": "", "distance": 3033.705107355101}, {"id": "3RCTC-y67Z1avL-2e1cBQQ", "alias": "subway-houston-377", "name": "Subway", "image_url": "https://s3-media4.fl.yelpcdn.com/bphoto/AODdcSnDSIJVv5XpMZ_V3A/o.jpg", "is_closed": false, "url": "https://www.yelp.com/biz/subway-houston-377?adjust_creative=a2JdNtFqB-C38ga_06BHvw&utm_campaign=yelp_api_v3&utm_medium=api_v3_business_search&utm_source=a2JdNtFqB-C38ga_06BHvw", "review_count": 26, "categories": [{"alias": "sandwiches", "title": "Sandwiches"}], "rating": 1.5, "coordinates": {"latitude": 29.6961574959668, "longitude": -95.4005723116394}, "transactions": ["pickup", "delivery"], "price": "$", "location": {"address1": "1801 Old Spanish Trl", "address2": "", "address3": "", "city": "Houston", "zip_code": "77054", "country": "US", "state": "TX", "display_address": ["1801 Old Spanish Trl", "Houston, TX 77054"]}, "phone": "+17137969400", "display_phone": "(713) 796-9400", "distance": 1612.2208456566254}, {"id": "UDJSOMhza1SBYCo8yKpaNQ", "alias": "burger-king-houston-37", "name": "Burger King", "image_url": "https://s3-media3.fl.yelpcdn.com/bphoto/aLF1TpGHFjVPgbxqeuKkOg/o.jpg", "is_closed": false, "url": "https://www.yelp.com/biz/burger-king-houston-37?adjust_creative=a2JdNtFqB-C38ga_06BHvw&utm_campaign=yelp_api_v3&utm_medium=api_v3_business_search&utm_source=a2JdNtFqB-C38ga_06BHvw", "review_count": 21, "categories": [{"alias": "hotdogs", "title": "Fast Food"}, {"alias": "burgers", "title": "Burgers"}], "rating": 1.5, "coordinates": {"latitude": 29.683073, "longitude": -95.422742}, "transactions": ["delivery"], "price": "$", "location": {"address1": "9349 S Main", "address2": "", "address3": "", "city": "Houston", "zip_code": "77025", "country": "US", "state": "TX", "display_address": ["9349 S Main", "Houston, TX 77025"]}, "phone": "+17136617041", "display_phone": "(713) 661-7041", "distance": 1170.2234313979905}, {"id": "r0Dlvvp7G_8WA7xxGELuAA", "alias": "tandoori-nites-houston", "name": "Tandoori Nites", "image_url": "https://s3-media2.fl.yelpcdn.com/bphoto/90vZnTR0cEytL1mgqEt7IQ/o.jpg", "is_closed": false, "url": "https://www.yelp.com/biz/tandoori-nites-houston?adjust_creative=a2JdNtFqB-C38ga_06BHvw&utm_campaign=yelp_api_v3&utm_medium=api_v3_business_search&utm_source=a2JdNtFqB-C38ga_06BHvw", "review_count": 1, "categories": [{"alias": "indpak", "title": "Indian"}, {"alias": "foodtrucks", "title": "Food Trucks"}], "rating": 5.0, "coordinates": {"latitude": 29.691153811556095, "longitude": -95.41029084473848}, "transactions": [], "location": {"address1": "1325 La Concha Ln", "address2": "", "address3": null, "city": "Houston", "zip_code": "77054", "country": "US", "state": "TX", "display_address": ["1325 La Concha Ln", "Houston, TX 77054"]}, "phone": "+17133409040", "display_phone": "(713) 340-9040", "distance": 717.0989951780123}, {"id": "7mUHh3hxnW_aRgVOLGfmzQ", "alias": "el-bullie-tacos-and-potatoes-houston", "name": "El Bullie Tacos and Potatoes", "image_url": "https://s3-media2.fl.yelpcdn.com/bphoto/5-lalg2bb04kUlI-eSlEPg/o.jpg", "is_closed": false, "url": "https://www.yelp.com/biz/el-bullie-tacos-and-potatoes-houston?adjust_creative=a2JdNtFqB-C38ga_06BHvw&utm_campaign=yelp_api_v3&utm_medium=api_v3_business_search&utm_source=a2JdNtFqB-C38ga_06BHvw", "review_count": 1, "categories": [{"alias": "foodtrucks", "title": "Food Trucks"}, {"alias": "tacos", "title": "Tacos"}], "rating": 5.0, "coordinates": {"latitude": 29.685153325488987, "longitude": -95.42768790000001}, "transactions": [], "location": {"address1": "9230 Buffalo Speedway", "address2": "", "address3": null, "city": "Houston", "zip_code": "77025", "country": "US", "state": "TX", "display_address": ["9230 Buffalo Speedway", "Houston, TX 77025"]}, "phone": "+18324233998", "display_phone": "(832) 423-3998", "distance": 1628.9197376964}, {"id": "6Ip0JbJ0y-BbCuav230Daw", "alias": "luigis-grille-and-more-houston", "name": "Luigi's Grille & More", "image_url": "https://s3-media4.fl.yelpcdn.com/bphoto/dVjikaJ9ZGMvNw9YHYUG1w/o.jpg", "is_closed": false, "url": "https://www.yelp.com/biz/luigis-grille-and-more-houston?adjust_creative=a2JdNtFqB-C38ga_06BHvw&utm_campaign=yelp_api_v3&utm_medium=api_v3_business_search&utm_source=a2JdNtFqB-C38ga_06BHvw", "review_count": 1, "categories": [{"alias": "foodtrucks", "title": "Food Trucks"}, {"alias": "mexican", "title": "Mexican"}], "rating": 5.0, "coordinates": {"latitude": 29.6933635545255, "longitude": -95.4150618240237}, "transactions": [], "location": {"address1": "4809 Main", "address2": "", "address3": "", "city": "Houston", "zip_code": "77030", "country": "US", "state": "TX", "display_address": ["4809 Main", "Houston, TX 77030"]}, "phone": "", "display_phone": "", "distance": 1044.1213700975713}, {"id": "dmfgjIGv2cZKL_71xNoSAQ", "alias": "subway-houston-379", "name": "Subway", "image_url": "https://s3-media2.fl.yelpcdn.com/bphoto/v1EFJKoM9EBzu-Ts7E3pXg/o.jpg", "is_closed": false, "url": "https://www.yelp.com/biz/subway-houston-379?adjust_creative=a2JdNtFqB-C38ga_06BHvw&utm_campaign=yelp_api_v3&utm_medium=api_v3_business_search&utm_source=a2JdNtFqB-C38ga_06BHvw", "review_count": 15, "categories": [{"alias": "sandwiches", "title": "Sandwiches"}], "rating": 2.0, "coordinates": {"latitude": 29.7054292491038, "longitude": -95.3856815045162}, "transactions": ["pickup", "delivery"], "price": "$", "location": {"address1": "2270 Holcombe Blvd", "address2": "", "address3": "", "city": "Houston", "zip_code": "77030", "country": "US", "state": "TX", "display_address": ["2270 Holcombe Blvd", "Houston, TX 77030"]}, "phone": "+17136691699", "display_phone": "(713) 669-1699", "distance": 3347.212987631997}, {"id": "hlPdwS7WtmE4gvqY0wCJtw", "alias": "burger-king-houston-17", "name": "Burger King", "image_url": "https://s3-media2.fl.yelpcdn.com/bphoto/9aYdMqHS7w9DNu61zXeU7g/o.jpg", "is_closed": false, "url": "https://www.yelp.com/biz/burger-king-houston-17?adjust_creative=a2JdNtFqB-C38ga_06BHvw&utm_campaign=yelp_api_v3&utm_medium=api_v3_business_search&utm_source=a2JdNtFqB-C38ga_06BHvw", "review_count": 20, "categories": [{"alias": "burgers", "title": "Burgers"}, {"alias": "hotdogs", "title": "Fast Food"}], "rating": 1.5, "coordinates": {"latitude": 29.706541, "longitude": -95.405928}, "transactions": ["delivery"], "price": "$", "location": {"address1": "2116 W Holcombe Blvd", "address2": "", "address3": "", "city": "Houston", "zip_code": "77030", "country": "US", "state": "TX", "display_address": ["2116 W Holcombe Blvd", "Houston, TX 77030"]}, "phone": "+17135222480", "display_phone": "(713) 522-2480", "distance": 2476.7563711746966}, {"id": "Kp3EluVITwH7an-mlMBYpQ", "alias": "chick-fil-a-houston-16", "name": "Chick-fil-A", "image_url": "https://s3-media3.fl.yelpcdn.com/bphoto/wJy51fHQIk-rvQZh7v4lMA/o.jpg", "is_closed": false, "url": "https://www.yelp.com/biz/chick-fil-a-houston-16?adjust_creative=a2JdNtFqB-C38ga_06BHvw&utm_campaign=yelp_api_v3&utm_medium=api_v3_business_search&utm_source=a2JdNtFqB-C38ga_06BHvw", "review_count": 12, "categories": [{"alias": "hotdogs", "title": "Fast Food"}, {"alias": "chickenshop", "title": "Chicken Shop"}, {"alias": "sandwiches", "title": "Sandwiches"}], "rating": 2.0, "coordinates": {"latitude": 29.707939, "longitude": -95.397616}, "transactions": [], "price": "$", "location": {"address1": "1515 Holcombe Blvd", "address2": "", "address3": "", "city": "Houston", "zip_code": "77030", "country": "US", "state": "TX", "display_address": ["1515 Holcombe Blvd", "Houston, TX 77030"]}, "phone": "+17137922646", "display_phone": "(713) 792-2646", "distance": 2880.0210731136704}, {"id": "_71hmahXFB_eJWGYYWIojQ", "alias": "subway-houston-417", "name": "Subway", "image_url": "https://s3-media1.fl.yelpcdn.com/bphoto/iGulK4qLL7JeeWJeBe-oMA/o.jpg", "is_closed": false, "url": "https://www.yelp.com/biz/subway-houston-417?adjust_creative=a2JdNtFqB-C38ga_06BHvw&utm_campaign=yelp_api_v3&utm_medium=api_v3_business_search&utm_source=a2JdNtFqB-C38ga_06BHvw", "review_count": 15, "categories": [{"alias": "sandwiches", "title": "Sandwiches"}], "rating": 1.5, "coordinates": {"latitude": 29.6888100132259, "longitude": -95.4131736323778}, "transactions": ["pickup", "delivery"], "price": "$", "location": {"address1": "8236 Kirby Dr", "address2": "", "address3": "", "city": "Houston", "zip_code": "77054", "country": "US", "state": "TX", "display_address": ["8236 Kirby Dr", "Houston, TX 77054"]}, "phone": "+17136663263", "display_phone": "(713) 666-3263", "distance": 507.6944319030828}, {"id": "I_CGesTbYwOM_IKvuduiIg", "alias": "jack-in-the-box-houston-26", "name": "Jack in the Box", "image_url": "https://s3-media3.fl.yelpcdn.com/bphoto/vNO73gQVtFGeLZzAc019Mg/o.jpg", "is_closed": false, "url": "https://www.yelp.com/biz/jack-in-the-box-houston-26?adjust_creative=a2JdNtFqB-C38ga_06BHvw&utm_campaign=yelp_api_v3&utm_medium=api_v3_business_search&utm_source=a2JdNtFqB-C38ga_06BHvw", "review_count": 17, "categories": [{"alias": "hotdogs", "title": "Fast Food"}, {"alias": "burgers", "title": "Burgers"}, {"alias": "tacos", "title": "Tacos"}], "rating": 1.5, "coordinates": {"latitude": 29.7062971632331, "longitude": -95.4396764}, "transactions": ["delivery"], "price": "$", "location": {"address1": "3908 Bellaire Blvd", "address2": "", "address3": "", "city": "Houston", "zip_code": "77025", "country": "US", "state": "TX", "display_address": ["3908 Bellaire Blvd", "Houston, TX 77025"]}, "phone": "+12815047520", "display_phone": "(281) 504-7520", "distance": 3676.6003516032447}, {"id": "3OtifIu-Lh7m5zqnUTa4iQ", "alias": "general-joe-chopstix-houston", "name": "General Joe Chopstix", "image_url": "", "is_closed": false, "url": "https://www.yelp.com/biz/general-joe-chopstix-houston?adjust_creative=a2JdNtFqB-C38ga_06BHvw&utm_campaign=yelp_api_v3&utm_medium=api_v3_business_search&utm_source=a2JdNtFqB-C38ga_06BHvw", "review_count": 4, "categories": [{"alias": "chinese", "title": "Chinese"}], "rating": 2.5, "coordinates": {"latitude": 29.6910376, "longitude": -95.4128214}, "transactions": ["delivery"], "location": {"address1": "8130 Kirby Dr", "address2": "", "address3": "", "city": "Houston", "zip_code": "77054", "country": "US", "state": "TX", "display_address": ["8130 Kirby Dr", "Houston, TX 77054"]}, "phone": "+17136662619", "display_phone": "(713) 666-2619", "distance": 758.3516112145361}, {"id": "poh3J89BQJAG2Fsi-PcPFA", "alias": "the-french-corner-houston-3", "name": "The French Corner", "image_url": "", "is_closed": false, "url": "https://www.yelp.com/biz/the-french-corner-houston-3?adjust_creative=a2JdNtFqB-C38ga_06BHvw&utm_campaign=yelp_api_v3&utm_medium=api_v3_business_search&utm_source=a2JdNtFqB-C38ga_06BHvw", "review_count": 3, "categories": [{"alias": "tradamerican", "title": "American (Traditional)"}], "rating": 2.5, "coordinates": {"latitude": 29.6920112321443, "longitude": -95.4139758634656}, "transactions": [], "location": {"address1": "1919 S Braeswood Blvd", "address2": "", "address3": "", "city": "Houston", "zip_code": "77030", "country": "US", "state": "TX", "display_address": ["1919 S Braeswood Blvd", "Houston, TX 77030"]}, "phone": "+18328242865", "display_phone": "(832) 824-2865", "distance": 865.5176502609281}, {"id": "z0OYEDil0IhyJn2BOJXmDg", "alias": "jack-in-the-box-houston-19", "name": "Jack in the Box", "image_url": "https://s3-media4.fl.yelpcdn.com/bphoto/fg-BHpNc3bkQfoCKP1iWdQ/o.jpg", "is_closed": false, "url": "https://www.yelp.com/biz/jack-in-the-box-houston-19?adjust_creative=a2JdNtFqB-C38ga_06BHvw&utm_campaign=yelp_api_v3&utm_medium=api_v3_business_search&utm_source=a2JdNtFqB-C38ga_06BHvw", "review_count": 10, "categories": [{"alias": "burgers", "title": "Burgers"}, {"alias": "hotdogs", "title": "Fast Food"}, {"alias": "tacos", "title": "Tacos"}], "rating": 1.5, "coordinates": {"latitude": 29.6582296747891, "longitude": -95.3853489}, "transactions": [], "price": "$", "location": {"address1": "2709 Reed Rd", "address2": "", "address3": "", "city": "Houston", "zip_code": "77051", "country": "US", "state": "TX", "display_address": ["2709 Reed Rd", "Houston, TX 77051"]}, "phone": "+17132640832", "display_phone": "(713) 264-0832", "distance": 3839.2603284845986}, {"id": "doz_K0tK4ZbDn-opK_-UEg", "alias": "pizza-hut-delphi-5", "name": "Pizza Hut", "image_url": "https://s3-media1.fl.yelpcdn.com/bphoto/W4PEJMqc05B2ikIq9P5Unw/o.jpg", "is_closed": false, "url": "https://www.yelp.com/biz/pizza-hut-delphi-5?adjust_creative=a2JdNtFqB-C38ga_06BHvw&utm_campaign=yelp_api_v3&utm_medium=api_v3_business_search&utm_source=a2JdNtFqB-C38ga_06BHvw", "review_count": 2, "categories": [{"alias": "pizza", "title": "Pizza"}, {"alias": "italian", "title": "Italian"}, {"alias": "chicken_wings", "title": "Chicken Wings"}], "rating": 3.0, "coordinates": {"latitude": 40.5836, "longitude": -86.682359}, "transactions": [], "price": "$", "location": {"address1": "806 Bicycle Bridge Rd", "address2": "", "address3": "", "city": "Delphi", "zip_code": "46923", "country": "US", "state": "IN", "display_address": ["806 Bicycle Bridge Rd", "Delphi, IN 46923"]}, "phone": "+17655644545", "display_phone": "(765) 564-4545", "distance": 803.1010013932713}, {"id": "ZHZpGCnmVoLJuATXKys2Sw", "alias": "lubys-etc-houston-2", "name": "Luby's, etc.", "image_url": "https://s3-media3.fl.yelpcdn.com/bphoto/CAyXHZqkSlu1iyV9i1XPXg/o.jpg", "is_closed": false, "url": "https://www.yelp.com/biz/lubys-etc-houston-2?adjust_creative=a2JdNtFqB-C38ga_06BHvw&utm_campaign=yelp_api_v3&utm_medium=api_v3_business_search&utm_source=a2JdNtFqB-C38ga_06BHvw", "review_count": 4, "categories": [{"alias": "tradamerican", "title": "American (Traditional)"}], "rating": 2.5, "coordinates": {"latitude": 29.7052438, "longitude": -95.4212532}, "transactions": [], "price": "$", "location": {"address1": "2727 W Holcombe Blvd", "address2": "", "address3": "", "city": "Houston", "zip_code": "77025", "country": "US", "state": "TX", "display_address": ["2727 W Holcombe Blvd", "Houston, TX 77025"]}, "phone": "+17134420335", "display_phone": "(713) 442-0335", "distance": 2494.0346042554656}, {"id": "YANRkMFKHo6NiOTLGpDAdg", "alias": "cattlemens-houston", "name": "Cattlemens", "image_url": "https://s3-media4.fl.yelpcdn.com/bphoto/_wiEUcLh69tEi2xMjET9jw/o.jpg", "is_closed": false, "url": "https://www.yelp.com/biz/cattlemens-houston?adjust_creative=a2JdNtFqB-C38ga_06BHvw&utm_campaign=yelp_api_v3&utm_medium=api_v3_business_search&utm_source=a2JdNtFqB-C38ga_06BHvw", "review_count": 1, "categories": [{"alias": "tradamerican", "title": "American (Traditional)"}], "rating": 4.0, "coordinates": {"latitude": 29.679899, "longitude": -95.413299}, "transactions": [], "location": {"address1": "8686 Kirby Dr", "address2": "", "address3": "", "city": "Houston", "zip_code": "77054", "country": "US", "state": "TX", "display_address": ["8686 Kirby Dr", "Houston, TX 77054"]}, "phone": "", "display_phone": "", "distance": 542.28457003481}, {"id": "KMExbc1i8xoaqwDKGz3gQg", "alias": "subway-houston-304", "name": "Subway", "image_url": "", "is_closed": false, "url": "https://www.yelp.com/biz/subway-houston-304?adjust_creative=a2JdNtFqB-C38ga_06BHvw&utm_campaign=yelp_api_v3&utm_medium=api_v3_business_search&utm_source=a2JdNtFqB-C38ga_06BHvw", "review_count": 3, "categories": [{"alias": "sandwiches", "title": "Sandwiches"}, {"alias": "hotdogs", "title": "Fast Food"}], "rating": 2.5, "coordinates": {"latitude": 29.709431, "longitude": -95.397966}, "transactions": [], "price": "$", "location": {"address1": "6550 Bertner Ave", "address2": "", "address3": "", "city": "Houston", "zip_code": "77030", "country": "US", "state": "TX", "display_address": ["6550 Bertner Ave", "Houston, TX 77030"]}, "phone": "+17137490451", "display_phone": "(713) 749-0451", "distance": 3015.532875093962}, {"id": "ogp6kzaJ2lzhBarLhidoFg", "alias": "schlotskys-deli-houston", "name": "Schlotsky's Deli", "image_url": "https://s3-media3.fl.yelpcdn.com/bphoto/LHgfvqVgdDx5M19erl5mvw/o.jpg", "is_closed": false, "url": "https://www.yelp.com/biz/schlotskys-deli-houston?adjust_creative=a2JdNtFqB-C38ga_06BHvw&utm_campaign=yelp_api_v3&utm_medium=api_v3_business_search&utm_source=a2JdNtFqB-C38ga_06BHvw", "review_count": 3, "categories": [{"alias": "delis", "title": "Delis"}], "rating": 2.0, "coordinates": {"latitude": 29.692533, "longitude": -95.416451}, "transactions": [], "price": "$", "location": {"address1": "8200 S Main St", "address2": "", "address3": "", "city": "Houston", "zip_code": "77025", "country": "US", "state": "TX", "display_address": ["8200 S Main St", "Houston, TX 77025"]}, "phone": "+17136650011", "display_phone": "(713) 665-0011", "distance": 1040.4408618505113}, {"id": "4ZyNW7DFQFBsuvyNLKtPBg", "alias": "subway-houston-550", "name": "Subway", "image_url": "https://s3-media1.fl.yelpcdn.com/bphoto/CWAuIXBSSBa30HBhZ2f7kA/o.jpg", "is_closed": false, "url": "https://www.yelp.com/biz/subway-houston-550?adjust_creative=a2JdNtFqB-C38ga_06BHvw&utm_campaign=yelp_api_v3&utm_medium=api_v3_business_search&utm_source=a2JdNtFqB-C38ga_06BHvw", "review_count": 7, "categories": [{"alias": "sandwiches", "title": "Sandwiches"}], "rating": 1.5, "coordinates": {"latitude": 29.6815821669144, "longitude": -95.3924501680469}, "transactions": ["delivery", "pickup"], "price": "$", "location": {"address1": "8549 Almeda Rd", "address2": "Bldg A", "address3": null, "city": "Houston", "zip_code": "77054", "country": "US", "state": "TX", "display_address": ["8549 Almeda Rd", "Bldg A", "Houston, TX 77054"]}, "phone": "+12818889086", "display_phone": "(281) 888-9086", "distance": 1809.8406064303756}, {"id": "5JIx8r3rCNgdbYRVVhotrg", "alias": "kathrinas-cafe-roma-iii-houston", "name": "Kathrina's Cafe Roma III", "image_url": "", "is_closed": false, "url": "https://www.yelp.com/biz/kathrinas-cafe-roma-iii-houston?adjust_creative=a2JdNtFqB-C38ga_06BHvw&utm_campaign=yelp_api_v3&utm_medium=api_v3_business_search&utm_source=a2JdNtFqB-C38ga_06BHvw", "review_count": 2, "categories": [{"alias": "italian", "title": "Italian"}], "rating": 2.0, "coordinates": {"latitude": 29.7057, "longitude": -95.40354}, "transactions": [], "location": {"address1": "6900 Fannin St", "address2": "Ste 10", "address3": "", "city": "Houston", "zip_code": "77030", "country": "US", "state": "TX", "display_address": ["6900 Fannin St", "Ste 10", "Houston, TX 77030"]}, "phone": "+17137992233", "display_phone": "(713) 799-2233", "distance": 2431.4644060341543}, {"id": "YZl6swchSIwltxosdaPY2Q", "alias": "murphys-deli-houston-86", "name": "Murphy's Deli", "image_url": "https://s3-media2.fl.yelpcdn.com/bphoto/8Ov_tKi8cpOOPMM8KlUI4Q/o.jpg", "is_closed": false, "url": "https://www.yelp.com/biz/murphys-deli-houston-86?adjust_creative=a2JdNtFqB-C38ga_06BHvw&utm_campaign=yelp_api_v3&utm_medium=api_v3_business_search&utm_source=a2JdNtFqB-C38ga_06BHvw", "review_count": 2, "categories": [{"alias": "sandwiches", "title": "Sandwiches"}, {"alias": "salad", "title": "Salad"}, {"alias": "breakfast_brunch", "title": "Breakfast & Brunch"}], "rating": 2.0, "coordinates": {"latitude": 29.70641104933103, "longitude": -95.40764589999999}, "transactions": ["delivery"], "location": {"address1": "2130 W Holcombe Blvd", "address2": "Ste 110", "address3": null, "city": "Houston", "zip_code": "77030", "country": "US", "state": "TX", "display_address": ["2130 W Holcombe Blvd", "Ste 110", "Houston, TX 77030"]}, "phone": "+17136643354", "display_phone": "(713) 664-3354", "distance": 2431.278027422852}, {"id": "yfOABig9LCSVwcCMBjUjgQ", "alias": "chick-fil-a-houston-76", "name": "Chick-fil-A", "image_url": "https://s3-media2.fl.yelpcdn.com/bphoto/KiWHTO6hgUBTWRq2A9XrTA/o.jpg", "is_closed": false, "url": "https://www.yelp.com/biz/chick-fil-a-houston-76?adjust_creative=a2JdNtFqB-C38ga_06BHvw&utm_campaign=yelp_api_v3&utm_medium=api_v3_business_search&utm_source=a2JdNtFqB-C38ga_06BHvw", "review_count": 3, "categories": [{"alias": "hotdogs", "title": "Fast Food"}, {"alias": "chickenshop", "title": "Chicken Shop"}, {"alias": "sandwiches", "title": "Sandwiches"}], "rating": 1.5, "coordinates": {"latitude": 29.7067672640517, "longitude": -95.4023539514171}, "transactions": [], "price": "$", "location": {"address1": "6621 Fannin St", "address2": "Foodcourt", "address3": "MC2-3521", "city": "Houston", "zip_code": "77030", "country": "US", "state": "TX", "display_address": ["6621 Fannin St", "Foodcourt", "MC2-3521", "Houston, TX 77030"]}, "phone": "+18328220305", "display_phone": "(832) 822-0305", "distance": 2584.5173762071254}, {"id": "RQVvBCyRe6Vt3ctRR6VRxg", "alias": "crave-cafe-houston", "name": "Crave Cafe", "image_url": "", "is_closed": false, "url": "https://www.yelp.com/biz/crave-cafe-houston?adjust_creative=a2JdNtFqB-C38ga_06BHvw&utm_campaign=yelp_api_v3&utm_medium=api_v3_business_search&utm_source=a2JdNtFqB-C38ga_06BHvw", "review_count": 1, "categories": [{"alias": "newamerican", "title": "American (New)"}, {"alias": "catering", "title": "Caterers"}], "rating": 2.0, "coordinates": {"latitude": 29.69336, "longitude": -95.40296}, "transactions": ["delivery"], "location": {"address1": "7900 Fannin St", "address2": "Ste 1100", "address3": null, "city": "Houston", "zip_code": "77054", "country": "US", "state": "TX", "display_address": ["7900 Fannin St", "Ste 1100", "Houston, TX 77054"]}, "phone": "+17137910707", "display_phone": "(713) 791-0707", "distance": 1061.0613220779037}, {"id": "tjGpIlqL-69NJaNrCO5SwQ", "alias": "subway-houston-392", "name": "Subway", "image_url": "https://s3-media4.fl.yelpcdn.com/bphoto/48BSpTTA0i18BEy2URPVVw/o.jpg", "is_closed": false, "url": "https://www.yelp.com/biz/subway-houston-392?adjust_creative=a2JdNtFqB-C38ga_06BHvw&utm_campaign=yelp_api_v3&utm_medium=api_v3_business_search&utm_source=a2JdNtFqB-C38ga_06BHvw", "review_count": 2, "categories": [{"alias": "sandwiches", "title": "Sandwiches"}], "rating": 1.0, "coordinates": {"latitude": 29.6798535366164, "longitude": -95.4244074539785}, "transactions": ["delivery", "pickup"], "location": {"address1": "9569 S Main St", "address2": "Unit 110", "address3": null, "city": "Houston", "zip_code": "77025", "country": "US", "state": "TX", "display_address": ["9569 S Main St", "Unit 110", "Houston, TX 77025"]}, "phone": "+18327671216", "display_phone": "(832) 767-1216", "distance": 1418.6963173017803}, {"id": "HbNHlOaAmohZcACQY0Wd2w", "alias": "the-marketplace-houston", "name": "The Marketplace", "image_url": "", "is_closed": false, "url": "https://www.yelp.com/biz/the-marketplace-houston?adjust_creative=a2JdNtFqB-C38ga_06BHvw&utm_campaign=yelp_api_v3&utm_medium=api_v3_business_search&utm_source=a2JdNtFqB-C38ga_06BHvw", "review_count": 2, "categories": [{"alias": "cafeteria", "title": "Cafeteria"}], "rating": 1.0, "coordinates": {"latitude": 29.7083705794626, "longitude": -95.3991543129086}, "transactions": [], "price": "$", "location": {"address1": "6565 Fannin St", "address2": "", "address3": "Methodists Hospital", "city": "Houston", "zip_code": "77030", "country": "US", "state": "TX", "display_address": ["6565 Fannin St", "Methodists Hospital", "Houston, TX 77030"]}, "phone": "+17137903311", "display_phone": "(713) 790-3311", "distance": 2861.3445052117313}, {"id": "Xpeq0rN06xqrI58yqqg_7w", "alias": "fox-grill-houston", "name": "Fox Grill", "image_url": "", "is_closed": false, "url": "https://www.yelp.com/biz/fox-grill-houston?adjust_creative=a2JdNtFqB-C38ga_06BHvw&utm_campaign=yelp_api_v3&utm_medium=api_v3_business_search&utm_source=a2JdNtFqB-C38ga_06BHvw", "review_count": 1, "categories": [{"alias": "burgers", "title": "Burgers"}], "rating": 1.0, "coordinates": {"latitude": 29.6785793, "longitude": -95.4250641}, "transactions": [], "location": {"address1": "9882 Buffalo Speedway", "address2": "", "address3": "", "city": "Houston", "zip_code": "77025", "country": "US", "state": "TX", "display_address": ["9882 Buffalo Speedway", "Houston, TX 77025"]}, "phone": "", "display_phone": "", "distance": 1558.3111500900359}, {"id": "_vq_58tSBPVhVNCl3FhK2g", "alias": "quiznos-houston-68", "name": "Quiznos", "image_url": "https://s3-media1.fl.yelpcdn.com/bphoto/A2LLgmcod8kUcSOD5FAmWQ/o.jpg", "is_closed": false, "url": "https://www.yelp.com/biz/quiznos-houston-68?adjust_creative=a2JdNtFqB-C38ga_06BHvw&utm_campaign=yelp_api_v3&utm_medium=api_v3_business_search&utm_source=a2JdNtFqB-C38ga_06BHvw", "review_count": 1, "categories": [{"alias": "hotdogs", "title": "Fast Food"}, {"alias": "sandwiches", "title": "Sandwiches"}], "rating": 1.0, "coordinates": {"latitude": 29.686247080498646, "longitude": -95.41231593816065}, "transactions": ["delivery"], "location": {"address1": "8701 Kirby Dr", "address2": null, "address3": null, "city": "Houston", "zip_code": "77054", "country": "US", "state": "TX", "display_address": ["8701 Kirby Dr", "Houston, TX 77054"]}, "phone": "+18326672515", "display_phone": "(832) 667-2515", "distance": 221.98952097916728}], "absolute total": 189, "total": 189}