{"league": "NFL", "team": "Miami Dolphins", "stadium": "Hard Rock Stadium", "stadium latitude": 25.958056, "stadium longitude": -80.238889, "radius": "3000 meters", "city": "Miami Gardens", "state": "Florida", "businesses": [{"id": "36lXiYX_Uua9QVO5GAHGBw", "alias": "antonios-pizzeria-miramar-3", "name": "Antonio's Pizzeria", "image_url": "https://s3-media3.fl.yelpcdn.com/bphoto/zkHrMnk58d7jaziy2wpidg/o.jpg", "is_closed": false, "url": "https://www.yelp.com/biz/antonios-pizzeria-miramar-3?adjust_creative=a2JdNtFqB-C38ga_06BHvw&utm_campaign=yelp_api_v3&utm_medium=api_v3_business_search&utm_source=a2JdNtFqB-C38ga_06BHvw", "review_count": 195, "categories": [{"alias": "pizza", "title": "Pizza"}, {"alias": "italian", "title": "Italian"}], "rating": 4.5, "coordinates": {"latitude": 25.981259502229, "longitude": -80.2259710616457}, "transactions": ["delivery"], "price": "$", "location": {"address1": "6890 Miramar Pkwy", "address2": "", "address3": "", "city": "Miramar", "zip_code": "33023", "country": "US", "state": "FL", "display_address": ["6890 Miramar Pkwy", "Miramar, FL 33023"]}, "phone": "+19549663332", "display_phone": "(954) 966-3332", "distance": 2885.237036252135}, {"id": "DUfyVfMrDWb9USnq0rllKA", "alias": "sundays-eatery-miami-gardens", "name": "Sunday's Eatery", "image_url": "https://s3-media1.fl.yelpcdn.com/bphoto/6Qi-Md0Lp19iYCHp93U6fg/o.jpg", "is_closed": false, "url": "https://www.yelp.com/biz/sundays-eatery-miami-gardens?adjust_creative=a2JdNtFqB-C38ga_06BHvw&utm_campaign=yelp_api_v3&utm_medium=api_v3_business_search&utm_source=a2JdNtFqB-C38ga_06BHvw", "review_count": 184, "categories": [{"alias": "soulfood", "title": "Soul Food"}, {"alias": "southern", "title": "Southern"}, {"alias": "breakfast_brunch", "title": "Breakfast & Brunch"}], "rating": 4.5, "coordinates": {"latitude": 25.96459, "longitude": -80.24585}, "transactions": ["delivery"], "price": "$$", "location": {"address1": "2675 NW 207th St", "address2": null, "address3": "", "city": "Miami Gardens", "zip_code": "33056", "country": "US", "state": "FL", "display_address": ["2675 NW 207th St", "Miami Gardens, FL 33056"]}, "phone": "+13056219600", "display_phone": "(305) 621-9600", "distance": 998.3633467718425}, {"id": "wWdDGEHEPEUBrRIMSi05QQ", "alias": "plaza-diner-miramar", "name": "Plaza Diner", "image_url": "https://s3-media2.fl.yelpcdn.com/bphoto/TKmBSiR6HmGi9MD1Cy1f6g/o.jpg", "is_closed": false, "url": "https://www.yelp.com/biz/plaza-diner-miramar?adjust_creative=a2JdNtFqB-C38ga_06BHvw&utm_campaign=yelp_api_v3&utm_medium=api_v3_business_search&utm_source=a2JdNtFqB-C38ga_06BHvw", "review_count": 61, "categories": [{"alias": "diners", "title": "Diners"}, {"alias": "breakfast_brunch", "title": "Breakfast & Brunch"}, {"alias": "greek", "title": "Greek"}], "rating": 4.5, "coordinates": {"latitude": 25.9805545296302, "longitude": -80.2484715836468}, "transactions": ["pickup", "delivery"], "price": "$", "location": {"address1": "3118 S University Dr", "address2": "", "address3": "", "city": "Miramar", "zip_code": "33025", "country": "US", "state": "FL", "display_address": ["3118 S University Dr", "Miramar, FL 33025"]}, "phone": "+19544352225", "display_phone": "(954) 435-2225", "distance": 2678.8542250939145}, {"id": "BPuUgGUANCr85TtxHUWByw", "alias": "world-famous-miami-gardens", "name": "World Famous", "image_url": "https://s3-media2.fl.yelpcdn.com/bphoto/Pp_sut9uTqC-aerZhrCpsw/o.jpg", "is_closed": false, "url": "https://www.yelp.com/biz/world-famous-miami-gardens?adjust_creative=a2JdNtFqB-C38ga_06BHvw&utm_campaign=yelp_api_v3&utm_medium=api_v3_business_search&utm_source=a2JdNtFqB-C38ga_06BHvw", "review_count": 138, "categories": [{"alias": "seafood", "title": "Seafood"}, {"alias": "breakfast_brunch", "title": "Breakfast & Brunch"}, {"alias": "cheesesteaks", "title": "Cheesesteaks"}], "rating": 4.0, "coordinates": {"latitude": 25.95109, "longitude": -80.2450747042894}, "transactions": ["pickup", "delivery"], "price": "$$", "location": {"address1": "19401 NW 27th Ave", "address2": "", "address3": null, "city": "Miami Gardens", "zip_code": "33056", "country": "US", "state": "FL", "display_address": ["19401 NW 27th Ave", "Miami Gardens, FL 33056"]}, "phone": "+13057602627", "display_phone": "(305) 760-2627", "distance": 991.1881559837101}, {"id": "9tQLHcpZl0XZqEaoyDRXzA", "alias": "king-jerk-north-miami", "name": "King Jerk", "image_url": "https://s3-media1.fl.yelpcdn.com/bphoto/lMz2VDKnX39ze5n8SLlFNg/o.jpg", "is_closed": false, "url": "https://www.yelp.com/biz/king-jerk-north-miami?adjust_creative=a2JdNtFqB-C38ga_06BHvw&utm_campaign=yelp_api_v3&utm_medium=api_v3_business_search&utm_source=a2JdNtFqB-C38ga_06BHvw", "review_count": 56, "categories": [{"alias": "newamerican", "title": "American (New)"}, {"alias": "tradamerican", "title": "American (Traditional)"}, {"alias": "bbq", "title": "Barbeque"}], "rating": 4.0, "coordinates": {"latitude": 25.9673374603152, "longitude": -80.2184487506747}, "transactions": [], "price": "$", "location": {"address1": "715 Opa Locka Blvd", "address2": "", "address3": "", "city": "North Miami", "zip_code": "33168", "country": "US", "state": "FL", "display_address": ["715 Opa Locka Blvd", "North Miami, FL 33168"]}, "phone": "+13053009682", "display_phone": "(305) 300-9682", "distance": 2289.3022371459733}, {"id": "aSQzOZMCDSnj7veIWBICWg", "alias": "lovelys-healthy-lifestyle-cuisine-miami-gardens", "name": "Lovely's Healthy Lifestyle Cuisine", "image_url": "https://s3-media2.fl.yelpcdn.com/bphoto/hmUVi5QP6MzLEJ9jrkWZPw/o.jpg", "is_closed": false, "url": "https://www.yelp.com/biz/lovelys-healthy-lifestyle-cuisine-miami-gardens?adjust_creative=a2JdNtFqB-C38ga_06BHvw&utm_campaign=yelp_api_v3&utm_medium=api_v3_business_search&utm_source=a2JdNtFqB-C38ga_06BHvw", "review_count": 74, "categories": [{"alias": "seafood", "title": "Seafood"}, {"alias": "sandwiches", "title": "Sandwiches"}, {"alias": "tradamerican", "title": "American (Traditional)"}], "rating": 4.0, "coordinates": {"latitude": 25.9412621, "longitude": -80.2314835}, "transactions": ["pickup", "delivery"], "price": "$$", "location": {"address1": "1806 NW 183rd St", "address2": "", "address3": "", "city": "Miami Gardens", "zip_code": "33056", "country": "US", "state": "FL", "display_address": ["1806 NW 183rd St", "Miami Gardens, FL 33056"]}, "phone": "+13056217977", "display_phone": "(305) 621-7977", "distance": 2015.3421860330227}, {"id": "Ehu-0l73f5NqCB0Y0qcXyA", "alias": "naz-roti-palace-miramar", "name": "Naz Roti Palace", "image_url": "https://s3-media1.fl.yelpcdn.com/bphoto/CDIDIMEfPKjSZVMxEPFb4A/o.jpg", "is_closed": false, "url": "https://www.yelp.com/biz/naz-roti-palace-miramar?adjust_creative=a2JdNtFqB-C38ga_06BHvw&utm_campaign=yelp_api_v3&utm_medium=api_v3_business_search&utm_source=a2JdNtFqB-C38ga_06BHvw", "review_count": 48, "categories": [{"alias": "trinidadian", "title": "Trinidadian"}], "rating": 4.0, "coordinates": {"latitude": 25.9847149, "longitude": -80.21409}, "transactions": [], "price": "$", "location": {"address1": "6329 Miramar Pkwy", "address2": "", "address3": "", "city": "Miramar", "zip_code": "33023", "country": "US", "state": "FL", "display_address": ["6329 Miramar Pkwy", "Miramar, FL 33023"]}, "phone": "+19549873964", "display_phone": "(954) 987-3964", "distance": 3897.6583065803266}, {"id": "xMYFhMil1Al91h8NtSzfqQ", "alias": "lornas-caribbean-and-american-grille-miami-gardens", "name": "Lorna's Caribbean and American Grille", "image_url": "https://s3-media2.fl.yelpcdn.com/bphoto/_vvzX1Qc3cF3XsS7MXQMTw/o.jpg", "is_closed": false, "url": "https://www.yelp.com/biz/lornas-caribbean-and-american-grille-miami-gardens?adjust_creative=a2JdNtFqB-C38ga_06BHvw&utm_campaign=yelp_api_v3&utm_medium=api_v3_business_search&utm_source=a2JdNtFqB-C38ga_06BHvw", "review_count": 89, "categories": [{"alias": "caribbean", "title": "Caribbean"}, {"alias": "tradamerican", "title": "American (Traditional)"}], "rating": 4.0, "coordinates": {"latitude": 25.9538008, "longitude": -80.2461494}, "transactions": ["pickup", "delivery"], "price": "$$", "location": {"address1": "19752 NW 27th Ave", "address2": null, "address3": "", "city": "Miami Gardens", "zip_code": "33056", "country": "US", "state": "FL", "display_address": ["19752 NW 27th Ave", "Miami Gardens, FL 33056"]}, "phone": "+13056239760", "display_phone": "(305) 623-9760", "distance": 935.6557005394382}, {"id": "YityrSJmySzROsC1Om1j-A", "alias": "la-belle-jacmelienne-cafe-miramar", "name": "La Belle Jacmelienne Cafe", "image_url": "https://s3-media3.fl.yelpcdn.com/bphoto/bBeJP8NuMkgLB1v4mFey8Q/o.jpg", "is_closed": false, "url": "https://www.yelp.com/biz/la-belle-jacmelienne-cafe-miramar?adjust_creative=a2JdNtFqB-C38ga_06BHvw&utm_campaign=yelp_api_v3&utm_medium=api_v3_business_search&utm_source=a2JdNtFqB-C38ga_06BHvw", "review_count": 52, "categories": [{"alias": "haitian", "title": "Haitian"}], "rating": 4.0, "coordinates": {"latitude": 25.9793323, "longitude": -80.2472899}, "transactions": ["delivery"], "price": "$$", "location": {"address1": "3328 South University Dr", "address2": null, "address3": "", "city": "Miramar", "zip_code": "33025", "country": "US", "state": "FL", "display_address": ["3328 South University Dr", "Miramar, FL 33025"]}, "phone": "+19543813886", "display_phone": "(954) 381-3886", "distance": 2510.452800546905}, {"id": "5ZXXbSkCvKP5MvZ6Yri2GA", "alias": "poohchellos-miramar", "name": "Poohchello's", "image_url": "https://s3-media3.fl.yelpcdn.com/bphoto/Fa5VJFTBRdY4c-Bgsw5OPg/o.jpg", "is_closed": false, "url": "https://www.yelp.com/biz/poohchellos-miramar?adjust_creative=a2JdNtFqB-C38ga_06BHvw&utm_campaign=yelp_api_v3&utm_medium=api_v3_business_search&utm_source=a2JdNtFqB-C38ga_06BHvw", "review_count": 43, "categories": [{"alias": "seafood", "title": "Seafood"}], "rating": 4.0, "coordinates": {"latitude": 25.97286, "longitude": -80.2255466666675}, "transactions": ["delivery"], "price": "$$", "location": {"address1": "4040 SW 69th Ave", "address2": "", "address3": null, "city": "Miramar", "zip_code": "33023", "country": "US", "state": "FL", "display_address": ["4040 SW 69th Ave", "Miramar, FL 33023"]}, "phone": "+19543675892", "display_phone": "(954) 367-5892", "distance": 2118.695066842392}, {"id": "8Y7nloUbnu-UJZ8kiyrhvQ", "alias": "the-licking-miami-gardens-4", "name": "The Licking", "image_url": "https://s3-media2.fl.yelpcdn.com/bphoto/Q9DVxv1RKiV_A0ciwZs9Ww/o.jpg", "is_closed": false, "url": "https://www.yelp.com/biz/the-licking-miami-gardens-4?adjust_creative=a2JdNtFqB-C38ga_06BHvw&utm_campaign=yelp_api_v3&utm_medium=api_v3_business_search&utm_source=a2JdNtFqB-C38ga_06BHvw", "review_count": 293, "categories": [{"alias": "soulfood", "title": "Soul Food"}], "rating": 3.5, "coordinates": {"latitude": 25.9353335977579, "longitude": -80.2446828624279}, "transactions": ["pickup", "delivery"], "price": "$$", "location": {"address1": "17647 NW 27th Ave", "address2": "", "address3": "", "city": "Miami Gardens", "zip_code": "33056", "country": "US", "state": "FL", "display_address": ["17647 NW 27th Ave", "Miami Gardens, FL 33056"]}, "phone": "+17865204675", "display_phone": "(786) 520-4675", "distance": 2592.1750522695284}, {"id": "MQKbF-ZmJWBtfzQWPrG21Q", "alias": "topgolf-miami-gardens", "name": "Topgolf", "image_url": "https://s3-media2.fl.yelpcdn.com/bphoto/-9LKHNc-TiLUZf4ChqSRWQ/o.jpg", "is_closed": false, "url": "https://www.yelp.com/biz/topgolf-miami-gardens?adjust_creative=a2JdNtFqB-C38ga_06BHvw&utm_campaign=yelp_api_v3&utm_medium=api_v3_business_search&utm_source=a2JdNtFqB-C38ga_06BHvw", "review_count": 614, "categories": [{"alias": "newamerican", "title": "American (New)"}, {"alias": "golf", "title": "Golf"}, {"alias": "sportsbars", "title": "Sports Bars"}], "rating": 3.0, "coordinates": {"latitude": 25.932878, "longitude": -80.209784}, "transactions": [], "price": "$$", "location": {"address1": "17321 NW 7th Ave", "address2": null, "address3": null, "city": "Miami Gardens", "zip_code": "33169", "country": "US", "state": "FL", "display_address": ["17321 NW 7th Ave", "Miami Gardens, FL 33169"]}, "phone": "+13053576151", "display_phone": "(305) 357-6151", "distance": 4038.19474607948}, {"id": "wSNcbirfi94xveyDsyk-Wg", "alias": "pretty-healthy-miami-gardens", "name": "Pretty Healthy", "image_url": "https://s3-media2.fl.yelpcdn.com/bphoto/_prH74HxY-CQ2EdLMtAd0w/o.jpg", "is_closed": false, "url": "https://www.yelp.com/biz/pretty-healthy-miami-gardens?adjust_creative=a2JdNtFqB-C38ga_06BHvw&utm_campaign=yelp_api_v3&utm_medium=api_v3_business_search&utm_source=a2JdNtFqB-C38ga_06BHvw", "review_count": 39, "categories": [{"alias": "juicebars", "title": "Juice Bars & Smoothies"}, {"alias": "wraps", "title": "Wraps"}, {"alias": "sandwiches", "title": "Sandwiches"}], "rating": 4.0, "coordinates": {"latitude": 25.93458, "longitude": -80.24514}, "transactions": ["delivery"], "location": {"address1": "17560 NW 27th Ave", "address2": null, "address3": null, "city": "Miami Gardens", "zip_code": "33056", "country": "US", "state": "FL", "display_address": ["17560 NW 27th Ave", "Miami Gardens, FL 33056"]}, "phone": "+17862905879", "display_phone": "(786) 290-5879", "distance": 2680.8239061085915}, {"id": "rLEcsu9LokNYUHqACeWT5A", "alias": "yum-yum-miami-miami-gardens", "name": "Yum Yum Miami", "image_url": "https://s3-media4.fl.yelpcdn.com/bphoto/6pMISKkv2eCJVCL7jXczwA/o.jpg", "is_closed": false, "url": "https://www.yelp.com/biz/yum-yum-miami-miami-gardens?adjust_creative=a2JdNtFqB-C38ga_06BHvw&utm_campaign=yelp_api_v3&utm_medium=api_v3_business_search&utm_source=a2JdNtFqB-C38ga_06BHvw", "review_count": 25, "categories": [{"alias": "icecream", "title": "Ice Cream & Frozen Yogurt"}, {"alias": "desserts", "title": "Desserts"}, {"alias": "waffles", "title": "Waffles"}], "rating": 4.0, "coordinates": {"latitude": 25.940854, "longitude": -80.254684}, "transactions": [], "location": {"address1": "3269 NW 183rd St", "address2": "", "address3": null, "city": "Miami Gardens", "zip_code": "33056", "country": "US", "state": "FL", "display_address": ["3269 NW 183rd St", "Miami Gardens, FL 33056"]}, "phone": "+13056273389", "display_phone": "(305) 627-3389", "distance": 2478.87923993961}, {"id": "Z5ElO4AHy08hAKDNtCj9yg", "alias": "mi-yard-miami-gardens", "name": "Mi-Yard", "image_url": "https://s3-media2.fl.yelpcdn.com/bphoto/5zNzPmgf4nglJ0-PbEmqFg/o.jpg", "is_closed": false, "url": "https://www.yelp.com/biz/mi-yard-miami-gardens?adjust_creative=a2JdNtFqB-C38ga_06BHvw&utm_campaign=yelp_api_v3&utm_medium=api_v3_business_search&utm_source=a2JdNtFqB-C38ga_06BHvw", "review_count": 17, "categories": [{"alias": "caribbean", "title": "Caribbean"}], "rating": 4.0, "coordinates": {"latitude": 25.93899, "longitude": -80.24467}, "transactions": ["pickup"], "price": "$$", "location": {"address1": "18085 NW 27th Ave", "address2": null, "address3": null, "city": "Miami Gardens", "zip_code": "33056", "country": "US", "state": "FL", "display_address": ["18085 NW 27th Ave", "Miami Gardens, FL 33056"]}, "phone": "+13056210277", "display_phone": "(305) 621-0277", "distance": 2185.399316191451}, {"id": "3laM2w9MaqAJbmd22v03WA", "alias": "macca-tree-caribbean-restaurant-miami-gardens", "name": "Macca Tree Caribbean Restaurant", "image_url": "https://s3-media2.fl.yelpcdn.com/bphoto/lzGmUvgRqO5yMWRpAiY4Yw/o.jpg", "is_closed": false, "url": "https://www.yelp.com/biz/macca-tree-caribbean-restaurant-miami-gardens?adjust_creative=a2JdNtFqB-C38ga_06BHvw&utm_campaign=yelp_api_v3&utm_medium=api_v3_business_search&utm_source=a2JdNtFqB-C38ga_06BHvw", "review_count": 22, "categories": [{"alias": "caribbean", "title": "Caribbean"}], "rating": 4.0, "coordinates": {"latitude": 25.938634, "longitude": -80.244548}, "transactions": ["delivery"], "price": "$", "location": {"address1": "18055 NW 27th Ave", "address2": "", "address3": "", "city": "Miami Gardens", "zip_code": "33056", "country": "US", "state": "FL", "display_address": ["18055 NW 27th Ave", "Miami Gardens, FL 33056"]}, "phone": "+13057496518", "display_phone": "(305) 749-6518", "distance": 2232.5164628559287}, {"id": "oOVrDAXYTm_EJJuOvtAi-Q", "alias": "d-and-g-jamaican-restaurant-miramar", "name": "D & G Jamaican Restaurant", "image_url": "https://s3-media4.fl.yelpcdn.com/bphoto/FULi49QB9_-x4eLefHaM7A/o.jpg", "is_closed": false, "url": "https://www.yelp.com/biz/d-and-g-jamaican-restaurant-miramar?adjust_creative=a2JdNtFqB-C38ga_06BHvw&utm_campaign=yelp_api_v3&utm_medium=api_v3_business_search&utm_source=a2JdNtFqB-C38ga_06BHvw", "review_count": 15, "categories": [{"alias": "caribbean", "title": "Caribbean"}], "rating": 4.0, "coordinates": {"latitude": 25.9821987, "longitude": -80.2246125}, "transactions": ["pickup", "delivery"], "price": "$", "location": {"address1": "6833 Miramar Pkwy", "address2": "", "address3": "", "city": "Miramar", "zip_code": "33023", "country": "US", "state": "FL", "display_address": ["6833 Miramar Pkwy", "Miramar, FL 33023"]}, "phone": "+19549892650", "display_phone": "(954) 989-2650", "distance": 3076.9755096251515}, {"id": "YepoKaILGYoZpRbsWjbY7A", "alias": "mobys-fish-and-chicken-miramar", "name": "Moby's Fish & Chicken", "image_url": "https://s3-media3.fl.yelpcdn.com/bphoto/xXj19H0N2l578NqmIG433w/o.jpg", "is_closed": false, "url": "https://www.yelp.com/biz/mobys-fish-and-chicken-miramar?adjust_creative=a2JdNtFqB-C38ga_06BHvw&utm_campaign=yelp_api_v3&utm_medium=api_v3_business_search&utm_source=a2JdNtFqB-C38ga_06BHvw", "review_count": 37, "categories": [{"alias": "seafood", "title": "Seafood"}], "rating": 3.5, "coordinates": {"latitude": 25.97873878479, "longitude": -80.247917175293}, "transactions": ["pickup", "delivery"], "price": "$$", "location": {"address1": "3356 S University Dr", "address2": null, "address3": null, "city": "Miramar", "zip_code": "33025", "country": "US", "state": "FL", "display_address": ["3356 S University Dr", "Miramar, FL 33025"]}, "phone": "+19544370764", "display_phone": "(954) 437-0764", "distance": 2448.7620608645784}, {"id": "j3Smia10OsnFWzxePHyNoQ", "alias": "captain-fish-and-chicken-miami-gardens-2", "name": "Captain Fish & Chicken", "image_url": "https://s3-media1.fl.yelpcdn.com/bphoto/_zYOks3F-KGFAeijUhksfA/o.jpg", "is_closed": false, "url": "https://www.yelp.com/biz/captain-fish-and-chicken-miami-gardens-2?adjust_creative=a2JdNtFqB-C38ga_06BHvw&utm_campaign=yelp_api_v3&utm_medium=api_v3_business_search&utm_source=a2JdNtFqB-C38ga_06BHvw", "review_count": 15, "categories": [{"alias": "seafood", "title": "Seafood"}, {"alias": "chicken_wings", "title": "Chicken Wings"}, {"alias": "burgers", "title": "Burgers"}], "rating": 4.0, "coordinates": {"latitude": 25.95391, "longitude": -80.26139}, "transactions": ["delivery"], "location": {"address1": "19747 NW 37th Ave", "address2": null, "address3": null, "city": "Miami Gardens", "zip_code": "33056", "country": "US", "state": "FL", "display_address": ["19747 NW 37th Ave", "Miami Gardens, FL 33056"]}, "phone": "+13056211900", "display_phone": "(305) 621-1900", "distance": 2294.299983717362}, {"id": "p0DbWgaATxlm9ZdgXGVcAg", "alias": "youngs-jamaican-restaurant-miami-gardens", "name": "Young's Jamaican Restaurant", "image_url": "https://s3-media2.fl.yelpcdn.com/bphoto/xukUO0OGGNvv8Ptlf6qgQg/o.jpg", "is_closed": false, "url": "https://www.yelp.com/biz/youngs-jamaican-restaurant-miami-gardens?adjust_creative=a2JdNtFqB-C38ga_06BHvw&utm_campaign=yelp_api_v3&utm_medium=api_v3_business_search&utm_source=a2JdNtFqB-C38ga_06BHvw", "review_count": 12, "categories": [{"alias": "caribbean", "title": "Caribbean"}, {"alias": "comfortfood", "title": "Comfort Food"}, {"alias": "importedfood", "title": "Imported Food"}], "rating": 4.5, "coordinates": {"latitude": 25.9324799, "longitude": -80.2443314}, "transactions": [], "location": {"address1": "17325 NW 27th Ave", "address2": "Ste 104", "address3": "", "city": "Miami Gardens", "zip_code": "33056", "country": "US", "state": "FL", "display_address": ["17325 NW 27th Ave", "Ste 104", "Miami Gardens, FL 33056"]}, "phone": "+13059280558", "display_phone": "(305) 928-0558", "distance": 2888.020023825011}, {"id": "74lqCFPwsFV4VQSYmDUgIw", "alias": "the-house-of-crabs-miami-gardens", "name": "The House of Crabs", "image_url": "https://s3-media3.fl.yelpcdn.com/bphoto/Y7csfz60_Uopcqvo35QpqQ/o.jpg", "is_closed": false, "url": "https://www.yelp.com/biz/the-house-of-crabs-miami-gardens?adjust_creative=a2JdNtFqB-C38ga_06BHvw&utm_campaign=yelp_api_v3&utm_medium=api_v3_business_search&utm_source=a2JdNtFqB-C38ga_06BHvw", "review_count": 10, "categories": [{"alias": "seafood", "title": "Seafood"}], "rating": 4.5, "coordinates": {"latitude": 25.936765, "longitude": -80.244372}, "transactions": ["pickup"], "location": {"address1": "17849 NW 27 Ave", "address2": null, "address3": null, "city": "Miami Gardens", "zip_code": "33056", "country": "US", "state": "FL", "display_address": ["17849 NW 27 Ave", "Miami Gardens, FL 33056"]}, "phone": "+17866572345", "display_phone": "(786) 657-2345", "distance": 2430.0948415334715}, {"id": "RBdTT-setsL912ptpGK0yA", "alias": "quickies-burgers-and-wings-miami-gardens", "name": "Quickies Burgers And Wings", "image_url": "https://s3-media2.fl.yelpcdn.com/bphoto/aaUw8OOlckf5ZZwsuS00Xw/o.jpg", "is_closed": false, "url": "https://www.yelp.com/biz/quickies-burgers-and-wings-miami-gardens?adjust_creative=a2JdNtFqB-C38ga_06BHvw&utm_campaign=yelp_api_v3&utm_medium=api_v3_business_search&utm_source=a2JdNtFqB-C38ga_06BHvw", "review_count": 26, "categories": [{"alias": "burgers", "title": "Burgers"}, {"alias": "chicken_wings", "title": "Chicken Wings"}, {"alias": "fishnchips", "title": "Fish & Chips"}], "rating": 3.5, "coordinates": {"latitude": 25.94197, "longitude": -80.24493}, "transactions": ["delivery", "pickup"], "location": {"address1": "18405 NW 27th Ave", "address2": null, "address3": "", "city": "Miami Gardens", "zip_code": "33056", "country": "US", "state": "FL", "display_address": ["18405 NW 27th Ave", "Miami Gardens, FL 33056"]}, "phone": "+17869556936", "display_phone": "(786) 955-6936", "distance": 1859.7376966894885}, {"id": "HGUoD4vuC1_VEiG7D5IyBQ", "alias": "popeyes-louisiana-kitchen-carol-city", "name": "Popeyes Louisiana Kitchen", "image_url": "https://s3-media2.fl.yelpcdn.com/bphoto/_LJvhiWctbuzj58dtJgQPQ/o.jpg", "is_closed": false, "url": "https://www.yelp.com/biz/popeyes-louisiana-kitchen-carol-city?adjust_creative=a2JdNtFqB-C38ga_06BHvw&utm_campaign=yelp_api_v3&utm_medium=api_v3_business_search&utm_source=a2JdNtFqB-C38ga_06BHvw", "review_count": 13, "categories": [{"alias": "chicken_wings", "title": "Chicken Wings"}, {"alias": "hotdogs", "title": "Fast Food"}], "rating": 4.0, "coordinates": {"latitude": 25.94081617, "longitude": -80.2552265}, "transactions": ["delivery"], "price": "$", "location": {"address1": "3285 NW 183rd St", "address2": "", "address3": "", "city": "Carol City", "zip_code": "33056", "country": "US", "state": "FL", "display_address": ["3285 NW 183rd St", "Carol City, FL 33056"]}, "phone": "+13056249715", "display_phone": "(305) 624-9715", "distance": 2513.3574301572244}, {"id": "H1i3YtZdSdy444-98D1LZg", "alias": "golden-krust-caribbean-restaurant-miami-gardens-2", "name": "Golden Krust Caribbean Restaurant", "image_url": "https://s3-media1.fl.yelpcdn.com/bphoto/8C840VEaUv7idPRXIwrTpw/o.jpg", "is_closed": false, "url": "https://www.yelp.com/biz/golden-krust-caribbean-restaurant-miami-gardens-2?adjust_creative=a2JdNtFqB-C38ga_06BHvw&utm_campaign=yelp_api_v3&utm_medium=api_v3_business_search&utm_source=a2JdNtFqB-C38ga_06BHvw", "review_count": 24, "categories": [{"alias": "bakeries", "title": "Bakeries"}, {"alias": "caribbean", "title": "Caribbean"}], "rating": 3.5, "coordinates": {"latitude": 25.942912, "longitude": -80.215715}, "transactions": ["delivery"], "price": "$", "location": {"address1": "183-16 NW 7th Ave", "address2": "", "address3": "", "city": "Miami Gardens", "zip_code": "33169", "country": "US", "state": "FL", "display_address": ["183-16 NW 7th Ave", "Miami Gardens, FL 33169"]}, "phone": "+13056559901", "display_phone": "(305) 655-9901", "distance": 2864.294834996312}, {"id": "znEZ1VlTfibUfE3FMehrOg", "alias": "hammonds-bakery-opa-locka", "name": "Hammond's Bakery", "image_url": "https://s3-media3.fl.yelpcdn.com/bphoto/pQGE_1gagjsXplSIzqccWQ/o.jpg", "is_closed": false, "url": "https://www.yelp.com/biz/hammonds-bakery-opa-locka?adjust_creative=a2JdNtFqB-C38ga_06BHvw&utm_campaign=yelp_api_v3&utm_medium=api_v3_business_search&utm_source=a2JdNtFqB-C38ga_06BHvw", "review_count": 18, "categories": [{"alias": "bakeries", "title": "Bakeries"}, {"alias": "breakfast_brunch", "title": "Breakfast & Brunch"}, {"alias": "caribbean", "title": "Caribbean"}], "rating": 3.5, "coordinates": {"latitude": 25.9370878, "longitude": -80.2449061}, "transactions": ["delivery", "pickup"], "price": "$", "location": {"address1": "17847 NW 27th Ave", "address2": "", "address3": "", "city": "Opa Locka", "zip_code": "33056", "country": "US", "state": "FL", "display_address": ["17847 NW 27th Ave", "Opa Locka, FL 33056"]}, "phone": "+13056249982", "display_phone": "(305) 624-9982", "distance": 2434.532199579415}, {"id": "5Cbtv-WaooUfoqAkgMD4vw", "alias": "golden-krust-caribbean-restaurant-miami-gardens", "name": "Golden Krust Caribbean Restaurant", "image_url": "https://s3-media2.fl.yelpcdn.com/bphoto/lDy4vxrEO78mpMjwG3oy_g/o.jpg", "is_closed": false, "url": "https://www.yelp.com/biz/golden-krust-caribbean-restaurant-miami-gardens?adjust_creative=a2JdNtFqB-C38ga_06BHvw&utm_campaign=yelp_api_v3&utm_medium=api_v3_business_search&utm_source=a2JdNtFqB-C38ga_06BHvw", "review_count": 26, "categories": [{"alias": "bakeries", "title": "Bakeries"}, {"alias": "caribbean", "title": "Caribbean"}], "rating": 3.5, "coordinates": {"latitude": 25.953047, "longitude": -80.246804}, "transactions": ["delivery", "pickup"], "price": "$$", "location": {"address1": "19664 NW 27th Ave", "address2": "", "address3": "", "city": "Miami Gardens", "zip_code": "33056", "country": "US", "state": "FL", "display_address": ["19664 NW 27th Ave", "Miami Gardens, FL 33056"]}, "phone": "+13056251060", "display_phone": "(305) 625-1060", "distance": 967.6932370585156}, {"id": "KMGUsFZu2LDtMomwwvzA6Q", "alias": "wah-lay-chinese-take-out-restaurant-miramar", "name": "Wah Lay Chinese Take-Out Restaurant", "image_url": "https://s3-media3.fl.yelpcdn.com/bphoto/c5VS-WuYFnBl9x908SPGpA/o.jpg", "is_closed": false, "url": "https://www.yelp.com/biz/wah-lay-chinese-take-out-restaurant-miramar?adjust_creative=a2JdNtFqB-C38ga_06BHvw&utm_campaign=yelp_api_v3&utm_medium=api_v3_business_search&utm_source=a2JdNtFqB-C38ga_06BHvw", "review_count": 8, "categories": [{"alias": "chinese", "title": "Chinese"}], "rating": 4.0, "coordinates": {"latitude": 25.9821449, "longitude": -80.2265666}, "transactions": ["delivery"], "location": {"address1": "6941 Miramar Pkwy", "address2": "", "address3": "", "city": "Miramar", "zip_code": "33023", "country": "US", "state": "FL", "display_address": ["6941 Miramar Pkwy", "Miramar, FL 33023"]}, "phone": "+19549663768", "display_phone": "(954) 966-3768", "distance": 3010.1772598539205}, {"id": "kAQeGBcI28N0Zsi6GHxbDQ", "alias": "otro-chin-bar-and-grill-miami-gardens", "name": "Otro Chin Bar & Grill", "image_url": "https://s3-media4.fl.yelpcdn.com/bphoto/09kUQhP2VO6fPEukB52e-A/o.jpg", "is_closed": false, "url": "https://www.yelp.com/biz/otro-chin-bar-and-grill-miami-gardens?adjust_creative=a2JdNtFqB-C38ga_06BHvw&utm_campaign=yelp_api_v3&utm_medium=api_v3_business_search&utm_source=a2JdNtFqB-C38ga_06BHvw", "review_count": 12, "categories": [{"alias": "bars", "title": "Bars"}, {"alias": "tradamerican", "title": "American (Traditional)"}, {"alias": "bbq", "title": "Barbeque"}], "rating": 3.5, "coordinates": {"latitude": 25.9432, "longitude": -80.2443388}, "transactions": ["delivery", "pickup"], "location": {"address1": "18581 NW 27th Ave", "address2": "", "address3": null, "city": "Miami Gardens", "zip_code": "33056", "country": "US", "state": "FL", "display_address": ["18581 NW 27th Ave", "Miami Gardens, FL 33056"]}, "phone": "+13054540850", "display_phone": "(305) 454-0850", "distance": 1739.4568163735405}, {"id": "eFSg6QvlykOXv8jd7opc0g", "alias": "tonys-restaurant-and-catering-miramar", "name": "Tony's Restaurant and Catering", "image_url": "https://s3-media4.fl.yelpcdn.com/bphoto/mV58_oE_ixzhvU-cGUYWkQ/o.jpg", "is_closed": false, "url": "https://www.yelp.com/biz/tonys-restaurant-and-catering-miramar?adjust_creative=a2JdNtFqB-C38ga_06BHvw&utm_campaign=yelp_api_v3&utm_medium=api_v3_business_search&utm_source=a2JdNtFqB-C38ga_06BHvw", "review_count": 8, "categories": [{"alias": "buffets", "title": "Buffets"}, {"alias": "caribbean", "title": "Caribbean"}], "rating": 4.0, "coordinates": {"latitude": 25.980366, "longitude": -80.246577}, "transactions": [], "price": "$", "location": {"address1": "7996 Miramar Pkwy", "address2": "", "address3": "", "city": "Miramar", "zip_code": "33169", "country": "US", "state": "FL", "display_address": ["7996 Miramar Pkwy", "Miramar, FL 33169"]}, "phone": "+13056559931", "display_phone": "(305) 655-9931", "distance": 2592.5758763871313}, {"id": "2rUcOzAklbD3Febse9uedA", "alias": "hong-kong-kitchen-chinese-restaurant-miramar", "name": "Hong Kong Kitchen Chinese Restaurant", "image_url": "https://s3-media2.fl.yelpcdn.com/bphoto/04iWcJJ82q0oQiCUgkv1ag/o.jpg", "is_closed": false, "url": "https://www.yelp.com/biz/hong-kong-kitchen-chinese-restaurant-miramar?adjust_creative=a2JdNtFqB-C38ga_06BHvw&utm_campaign=yelp_api_v3&utm_medium=api_v3_business_search&utm_source=a2JdNtFqB-C38ga_06BHvw", "review_count": 15, "categories": [{"alias": "chinese", "title": "Chinese"}], "rating": 3.5, "coordinates": {"latitude": 25.9793159365654, "longitude": -80.2472580224276}, "transactions": ["delivery", "pickup"], "price": "$$", "location": {"address1": "3300 S University Dr", "address2": "", "address3": "", "city": "Miramar", "zip_code": "33025", "country": "US", "state": "FL", "display_address": ["3300 S University Dr", "Miramar, FL 33025"]}, "phone": "+19544389353", "display_phone": "(954) 438-9353", "distance": 2520.301479172873}, {"id": "lxeJ-ekjQsrS5jTC2IJynQ", "alias": "sams-west-indian-store-miramar", "name": "Sam's West Indian Store", "image_url": "https://s3-media2.fl.yelpcdn.com/bphoto/KS_KQsw69chf4hFLUsYNpA/o.jpg", "is_closed": false, "url": "https://www.yelp.com/biz/sams-west-indian-store-miramar?adjust_creative=a2JdNtFqB-C38ga_06BHvw&utm_campaign=yelp_api_v3&utm_medium=api_v3_business_search&utm_source=a2JdNtFqB-C38ga_06BHvw", "review_count": 3, "categories": [{"alias": "caribbean", "title": "Caribbean"}, {"alias": "intlgrocery", "title": "International Grocery"}, {"alias": "vitaminssupplements", "title": "Vitamins & Supplements"}], "rating": 5.0, "coordinates": {"latitude": 25.980133, "longitude": -80.248799}, "transactions": ["delivery", "pickup"], "price": "$$", "location": {"address1": "3130 S University Dr", "address2": "", "address3": "", "city": "Miramar", "zip_code": "33025", "country": "US", "state": "FL", "display_address": ["3130 S University Dr", "Miramar, FL 33025"]}, "phone": "+19544361384", "display_phone": "(954) 436-1384", "distance": 2647.209840052788}, {"id": "Rkj9hC6Jgv3hrvKJm0e2Hg", "alias": "china-town-miami", "name": "China Town", "image_url": "https://s3-media2.fl.yelpcdn.com/bphoto/DefcW17cOdr9o9EHTjZHnw/o.jpg", "is_closed": false, "url": "https://www.yelp.com/biz/china-town-miami?adjust_creative=a2JdNtFqB-C38ga_06BHvw&utm_campaign=yelp_api_v3&utm_medium=api_v3_business_search&utm_source=a2JdNtFqB-C38ga_06BHvw", "review_count": 8, "categories": [{"alias": "chinese", "title": "Chinese"}], "rating": 3.5, "coordinates": {"latitude": 25.943252, "longitude": -80.215141}, "transactions": ["delivery"], "price": "$", "location": {"address1": "18344 NW 7th Ave", "address2": null, "address3": null, "city": "Miami", "zip_code": "33169", "country": "US", "state": "FL", "display_address": ["18344 NW 7th Ave", "Miami, FL 33169"]}, "phone": "+13056515553", "display_phone": "(305) 651-5553", "distance": 2889.206454211038}, {"id": "JGWsQO2PPnhA0OyXQgY3mQ", "alias": "esthers-27th-ave-opa-locka", "name": "Esther's 27th Ave", "image_url": "https://s3-media2.fl.yelpcdn.com/bphoto/DZ1jj1avZ5E-FKERg0O5vg/o.jpg", "is_closed": false, "url": "https://www.yelp.com/biz/esthers-27th-ave-opa-locka?adjust_creative=a2JdNtFqB-C38ga_06BHvw&utm_campaign=yelp_api_v3&utm_medium=api_v3_business_search&utm_source=a2JdNtFqB-C38ga_06BHvw", "review_count": 26, "categories": [{"alias": "bbq", "title": "Barbeque"}], "rating": 2.5, "coordinates": {"latitude": 25.936155, "longitude": -80.244491}, "transactions": ["delivery"], "price": "$", "location": {"address1": "17721 NW 27th Ave", "address2": "", "address3": "", "city": "Opa Locka", "zip_code": "33056", "country": "US", "state": "FL", "display_address": ["17721 NW 27th Ave", "Opa Locka, FL 33056"]}, "phone": "+13056278211", "display_phone": "(305) 627-8211", "distance": 2503.7255849760977}, {"id": "uXk5zntzAyD_4qYVaDszQw", "alias": "sonic-drive-in-miami-gardens", "name": "Sonic Drive-In", "image_url": "https://s3-media1.fl.yelpcdn.com/bphoto/NyjeHVa1xBggrwPCr9mgrw/o.jpg", "is_closed": false, "url": "https://www.yelp.com/biz/sonic-drive-in-miami-gardens?adjust_creative=a2JdNtFqB-C38ga_06BHvw&utm_campaign=yelp_api_v3&utm_medium=api_v3_business_search&utm_source=a2JdNtFqB-C38ga_06BHvw", "review_count": 93, "categories": [{"alias": "burgers", "title": "Burgers"}, {"alias": "hotdogs", "title": "Fast Food"}, {"alias": "icecream", "title": "Ice Cream & Frozen Yogurt"}], "rating": 2.0, "coordinates": {"latitude": 25.9551003, "longitude": -80.2447432}, "transactions": ["delivery", "pickup"], "price": "$", "location": {"address1": "2660 NW 199th St", "address2": "", "address3": "", "city": "Miami Gardens", "zip_code": "33056", "country": "US", "state": "FL", "display_address": ["2660 NW 199th St", "Miami Gardens, FL 33056"]}, "phone": "+13056907065", "display_phone": "(305) 690-7065", "distance": 671.2549084282359}, {"id": "EKR078QP838l3vIGePD1pQ", "alias": "joys-caribbean-restaurant-miami-gardens", "name": "Joy's Caribbean Restaurant", "image_url": "https://s3-media1.fl.yelpcdn.com/bphoto/MDh_pH-hnRC6Wa5j8eJVPA/o.jpg", "is_closed": false, "url": "https://www.yelp.com/biz/joys-caribbean-restaurant-miami-gardens?adjust_creative=a2JdNtFqB-C38ga_06BHvw&utm_campaign=yelp_api_v3&utm_medium=api_v3_business_search&utm_source=a2JdNtFqB-C38ga_06BHvw", "review_count": 5, "categories": [{"alias": "caribbean", "title": "Caribbean"}], "rating": 4.0, "coordinates": {"latitude": 25.9348750859499, "longitude": -80.2449030429125}, "transactions": [], "location": {"address1": "17647 NW 27th Ave", "address2": "", "address3": "", "city": "Miami Gardens", "zip_code": "33056", "country": "US", "state": "FL", "display_address": ["17647 NW 27th Ave", "Miami Gardens, FL 33056"]}, "phone": "+13054740079", "display_phone": "(305) 474-0079", "distance": 2637.5635604384984}, {"id": "lSfY8HUTULbLMMzvJsE5RQ", "alias": "bohio-latino-miramar", "name": "Bohio Latino", "image_url": "https://s3-media4.fl.yelpcdn.com/bphoto/YzbBBVM-EJS7PSdFf2lpwQ/o.jpg", "is_closed": false, "url": "https://www.yelp.com/biz/bohio-latino-miramar?adjust_creative=a2JdNtFqB-C38ga_06BHvw&utm_campaign=yelp_api_v3&utm_medium=api_v3_business_search&utm_source=a2JdNtFqB-C38ga_06BHvw", "review_count": 3, "categories": [{"alias": "latin", "title": "Latin American"}, {"alias": "cuban", "title": "Cuban"}, {"alias": "sandwiches", "title": "Sandwiches"}], "rating": 4.5, "coordinates": {"latitude": 25.9802155647654, "longitude": -80.2621355652809}, "transactions": ["delivery", "pickup"], "location": {"address1": "8856 Miramar Pkwy", "address2": "", "address3": "", "city": "Miramar", "zip_code": "33025", "country": "US", "state": "FL", "display_address": ["8856 Miramar Pkwy", "Miramar, FL 33025"]}, "phone": "+17542103230", "display_phone": "(754) 210-3230", "distance": 3387.0265419174084}, {"id": "cK9PHgkzG4t4HXmEZkzA6A", "alias": "china-town-ii-miami-gardens", "name": "China Town II", "image_url": "https://s3-media3.fl.yelpcdn.com/bphoto/B-BGrP-LAB37RXEoaup-7Q/o.jpg", "is_closed": false, "url": "https://www.yelp.com/biz/china-town-ii-miami-gardens?adjust_creative=a2JdNtFqB-C38ga_06BHvw&utm_campaign=yelp_api_v3&utm_medium=api_v3_business_search&utm_source=a2JdNtFqB-C38ga_06BHvw", "review_count": 14, "categories": [{"alias": "chinese", "title": "Chinese"}], "rating": 3.0, "coordinates": {"latitude": 25.952815, "longitude": -80.246769}, "transactions": ["delivery", "pickup"], "price": "$", "location": {"address1": "19658 NW 27th Ave", "address2": null, "address3": null, "city": "Miami Gardens", "zip_code": "33056", "country": "US", "state": "FL", "display_address": ["19658 NW 27th Ave", "Miami Gardens, FL 33056"]}, "phone": "+13056259992", "display_phone": "(305) 625-9992", "distance": 979.9529390304281}, {"id": "i5cJBieUmqQXxaRT-F1Ppg", "alias": "perry-wings-express-miami-gardens", "name": "Perry Wings Express", "image_url": "https://s3-media3.fl.yelpcdn.com/bphoto/u2Dj1iPVM6By4SfFzH06WA/o.jpg", "is_closed": false, "url": "https://www.yelp.com/biz/perry-wings-express-miami-gardens?adjust_creative=a2JdNtFqB-C38ga_06BHvw&utm_campaign=yelp_api_v3&utm_medium=api_v3_business_search&utm_source=a2JdNtFqB-C38ga_06BHvw", "review_count": 15, "categories": [{"alias": "chicken_wings", "title": "Chicken Wings"}, {"alias": "sandwiches", "title": "Sandwiches"}], "rating": 2.5, "coordinates": {"latitude": 25.94295, "longitude": -80.24485}, "transactions": ["pickup"], "price": "$", "location": {"address1": "18553 NW 27th Ave", "address2": "", "address3": null, "city": "Miami Gardens", "zip_code": "33056", "country": "US", "state": "FL", "display_address": ["18553 NW 27th Ave", "Miami Gardens, FL 33056"]}, "phone": "+17867049879", "display_phone": "(786) 704-9879", "distance": 1769.864701432737}, {"id": "n5D0lGOUHR7Jxgmycmu7gA", "alias": "strictly-wings-miami-gardens", "name": "Strictly Wings", "image_url": "https://s3-media4.fl.yelpcdn.com/bphoto/jHTjI12VbHSpk2WI-RIH5A/o.jpg", "is_closed": false, "url": "https://www.yelp.com/biz/strictly-wings-miami-gardens?adjust_creative=a2JdNtFqB-C38ga_06BHvw&utm_campaign=yelp_api_v3&utm_medium=api_v3_business_search&utm_source=a2JdNtFqB-C38ga_06BHvw", "review_count": 7, "categories": [{"alias": "chicken_wings", "title": "Chicken Wings"}], "rating": 3.5, "coordinates": {"latitude": 25.9428495, "longitude": -80.21573933}, "transactions": ["delivery", "pickup"], "location": {"address1": "18318 NW 7th Ave", "address2": "", "address3": null, "city": "Miami Gardens", "zip_code": "33169", "country": "US", "state": "FL", "display_address": ["18318 NW 7th Ave", "Miami Gardens, FL 33169"]}, "phone": "+13056273706", "display_phone": "(305) 627-3706", "distance": 2868.678701150869}, {"id": "b7FSvMb2QIh7p4fKuv_m6A", "alias": "snappers-fish-and-chicken-miami-gardens", "name": "Snappers Fish & Chicken", "image_url": "https://s3-media1.fl.yelpcdn.com/bphoto/kbAeLTn-p5YUKF0Nmy8XDQ/o.jpg", "is_closed": false, "url": "https://www.yelp.com/biz/snappers-fish-and-chicken-miami-gardens?adjust_creative=a2JdNtFqB-C38ga_06BHvw&utm_campaign=yelp_api_v3&utm_medium=api_v3_business_search&utm_source=a2JdNtFqB-C38ga_06BHvw", "review_count": 51, "categories": [{"alias": "seafood", "title": "Seafood"}], "rating": 2.0, "coordinates": {"latitude": 25.9389214, "longitude": -80.2454397}, "transactions": ["delivery"], "price": "$$", "location": {"address1": "17990 NW 27th Ave", "address2": null, "address3": null, "city": "Miami Gardens", "zip_code": "33056", "country": "US", "state": "FL", "display_address": ["17990 NW 27th Ave", "Miami Gardens, FL 33056"]}, "phone": "+13056218570", "display_phone": "(305) 621-8570", "distance": 2223.9897754708513}, {"id": "0M5UD7SIPIALkAN5hG_hvQ", "alias": "legends-sports-bar-and-grill-miami-gardens", "name": "Legends Sports Bar and Grill", "image_url": "https://s3-media3.fl.yelpcdn.com/bphoto/mlLSm94Gs-N8sLb7b-vSZA/o.jpg", "is_closed": false, "url": "https://www.yelp.com/biz/legends-sports-bar-and-grill-miami-gardens?adjust_creative=a2JdNtFqB-C38ga_06BHvw&utm_campaign=yelp_api_v3&utm_medium=api_v3_business_search&utm_source=a2JdNtFqB-C38ga_06BHvw", "review_count": 4, "categories": [{"alias": "bars", "title": "Bars"}, {"alias": "tradamerican", "title": "American (Traditional)"}], "rating": 4.0, "coordinates": {"latitude": 25.97113, "longitude": -80.24545}, "transactions": [], "location": {"address1": "21485 NW 27th Ave", "address2": null, "address3": null, "city": "Miami Gardens", "zip_code": "33056", "country": "US", "state": "FL", "display_address": ["21485 NW 27th Ave", "Miami Gardens, FL 33056"]}, "phone": "+13056215801", "display_phone": "(305) 621-5801", "distance": 1577.3420011576034}, {"id": "CEG2I6AMR6Ye9HQuslNBBQ", "alias": "ihop-miramar-3", "name": "IHOP", "image_url": "https://s3-media3.fl.yelpcdn.com/bphoto/g5DDEAb5o1iz1Vsjwg4mAA/o.jpg", "is_closed": false, "url": "https://www.yelp.com/biz/ihop-miramar-3?adjust_creative=a2JdNtFqB-C38ga_06BHvw&utm_campaign=yelp_api_v3&utm_medium=api_v3_business_search&utm_source=a2JdNtFqB-C38ga_06BHvw", "review_count": 27, "categories": [{"alias": "tradamerican", "title": "American (Traditional)"}, {"alias": "breakfast_brunch", "title": "Breakfast & Brunch"}, {"alias": "burgers", "title": "Burgers"}], "rating": 2.0, "coordinates": {"latitude": 25.98114, "longitude": -80.24652}, "transactions": ["pickup", "delivery"], "price": "$", "location": {"address1": "7990 Miramar Pkwy", "address2": null, "address3": "", "city": "MIRAMAR", "zip_code": "33023", "country": "US", "state": "FL", "display_address": ["7990 Miramar Pkwy", "MIRAMAR, FL 33023"]}, "phone": "+19549817489", "display_phone": "(954) 981-7489", "distance": 2677.7803226320925}, {"id": "buK3wVWifDLZZiEwEfvXKw", "alias": "dennys-miami-gardens", "name": "Denny's", "image_url": "https://s3-media3.fl.yelpcdn.com/bphoto/_t1US9d2OT_IS46aRS3f6g/o.jpg", "is_closed": false, "url": "https://www.yelp.com/biz/dennys-miami-gardens?adjust_creative=a2JdNtFqB-C38ga_06BHvw&utm_campaign=yelp_api_v3&utm_medium=api_v3_business_search&utm_source=a2JdNtFqB-C38ga_06BHvw", "review_count": 47, "categories": [{"alias": "diners", "title": "Diners"}, {"alias": "tradamerican", "title": "American (Traditional)"}, {"alias": "breakfast_brunch", "title": "Breakfast & Brunch"}], "rating": 2.0, "coordinates": {"latitude": 25.9535951410768, "longitude": -80.2464110425717}, "transactions": ["pickup", "delivery"], "price": "$", "location": {"address1": "19780 NW 27th Ave", "address2": null, "address3": null, "city": "Miami Gardens", "zip_code": "33056", "country": "US", "state": "FL", "display_address": ["19780 NW 27th Ave", "Miami Gardens, FL 33056"]}, "phone": "+13056213468", "display_phone": "(305) 621-3468", "distance": 900.8947024259783}, {"id": "EWSBiFDJgI7K2qM5q2gOCA", "alias": "snappers-fish-and-chicken-miami-5", "name": "Snappers Fish and Chicken", "image_url": "https://s3-media3.fl.yelpcdn.com/bphoto/M3vxf0HSJ83dCWrRxS8THQ/o.jpg", "is_closed": false, "url": "https://www.yelp.com/biz/snappers-fish-and-chicken-miami-5?adjust_creative=a2JdNtFqB-C38ga_06BHvw&utm_campaign=yelp_api_v3&utm_medium=api_v3_business_search&utm_source=a2JdNtFqB-C38ga_06BHvw", "review_count": 29, "categories": [{"alias": "fishnchips", "title": "Fish & Chips"}, {"alias": "chicken_wings", "title": "Chicken Wings"}], "rating": 2.0, "coordinates": {"latitude": 25.942584926808, "longitude": -80.2158431334613}, "transactions": ["delivery"], "price": "$$", "location": {"address1": "18312 NW 7th Ave", "address2": null, "address3": null, "city": "Miami", "zip_code": "33169", "country": "US", "state": "FL", "display_address": ["18312 NW 7th Ave", "Miami, FL 33169"]}, "phone": "+13057702123", "display_phone": "(305) 770-2123", "distance": 2875.552893875649}, {"id": "tJR6Dm-V5Wyz6ygT8rSL7A", "alias": "nadine-vibes-kitchen-miramar", "name": "Nadine Vibes Kitchen", "image_url": "https://s3-media2.fl.yelpcdn.com/bphoto/yfCmKYWaui2kOYO2AoFyUw/o.jpg", "is_closed": false, "url": "https://www.yelp.com/biz/nadine-vibes-kitchen-miramar?adjust_creative=a2JdNtFqB-C38ga_06BHvw&utm_campaign=yelp_api_v3&utm_medium=api_v3_business_search&utm_source=a2JdNtFqB-C38ga_06BHvw", "review_count": 8, "categories": [{"alias": "caribbean", "title": "Caribbean"}, {"alias": "seafood", "title": "Seafood"}], "rating": 3.0, "coordinates": {"latitude": 25.9847158, "longitude": -80.2131674}, "transactions": ["pickup", "delivery"], "location": {"address1": "6305 Miramar Pkwy", "address2": "", "address3": null, "city": "Miramar", "zip_code": "33023", "country": "US", "state": "FL", "display_address": ["6305 Miramar Pkwy", "Miramar, FL 33023"]}, "phone": "+17864432333", "display_phone": "(786) 443-2333", "distance": 3955.8260321926573}, {"id": "6LY2i55us6LUKS55KbHdnQ", "alias": "love-it-or-like-it-miami-gardens", "name": "Love it OR Like it", "image_url": "https://s3-media2.fl.yelpcdn.com/bphoto/g0gWB7fD_u-bguWGLlTOAw/o.jpg", "is_closed": false, "url": "https://www.yelp.com/biz/love-it-or-like-it-miami-gardens?adjust_creative=a2JdNtFqB-C38ga_06BHvw&utm_campaign=yelp_api_v3&utm_medium=api_v3_business_search&utm_source=a2JdNtFqB-C38ga_06BHvw", "review_count": 2, "categories": [{"alias": "cafes", "title": "Cafes"}], "rating": 4.5, "coordinates": {"latitude": 25.94318, "longitude": -80.24485}, "transactions": ["delivery"], "location": {"address1": "18587 NW 27th Ave", "address2": null, "address3": "", "city": "Miami Gardens", "zip_code": "33056", "country": "US", "state": "FL", "display_address": ["18587 NW 27th Ave", "Miami Gardens, FL 33056"]}, "phone": "+13059742028", "display_phone": "(305) 974-2028", "distance": 1738.2460702188037}, {"id": "1Pbvcr42eypw33g4oDDp3Q", "alias": "churchs-chicken-miami-gardens-2", "name": "Church's Chicken", "image_url": "https://s3-media4.fl.yelpcdn.com/bphoto/uBAtO_BHwZC6uxLGunpjBw/o.jpg", "is_closed": false, "url": "https://www.yelp.com/biz/churchs-chicken-miami-gardens-2?adjust_creative=a2JdNtFqB-C38ga_06BHvw&utm_campaign=yelp_api_v3&utm_medium=api_v3_business_search&utm_source=a2JdNtFqB-C38ga_06BHvw", "review_count": 10, "categories": [{"alias": "chicken_wings", "title": "Chicken Wings"}, {"alias": "hotdogs", "title": "Fast Food"}], "rating": 2.5, "coordinates": {"latitude": 25.93342, "longitude": -80.24458}, "transactions": ["pickup", "delivery"], "location": {"address1": "17495 NW 27th Ave", "address2": null, "address3": null, "city": "Miami Gardens", "zip_code": "33056", "country": "US", "state": "FL", "display_address": ["17495 NW 27th Ave", "Miami Gardens, FL 33056"]}, "phone": "+13056204097", "display_phone": "(305) 620-4097", "distance": 2802.930035950648}, {"id": "zr312oS629gd3xiayfsSaQ", "alias": "pollo-tropical-miami-gardens", "name": "Pollo Tropical", "image_url": "https://s3-media3.fl.yelpcdn.com/bphoto/CvqxzcXx0tZRjGF-TN-BWQ/o.jpg", "is_closed": false, "url": "https://www.yelp.com/biz/pollo-tropical-miami-gardens?adjust_creative=a2JdNtFqB-C38ga_06BHvw&utm_campaign=yelp_api_v3&utm_medium=api_v3_business_search&utm_source=a2JdNtFqB-C38ga_06BHvw", "review_count": 32, "categories": [{"alias": "latin", "title": "Latin American"}, {"alias": "hotdogs", "title": "Fast Food"}, {"alias": "chickenshop", "title": "Chicken Shop"}], "rating": 2.0, "coordinates": {"latitude": 25.9518999, "longitude": -80.24657}, "transactions": ["pickup", "delivery"], "price": "$", "location": {"address1": "19500 NW 27th Ave", "address2": null, "address3": null, "city": "Miami Gardens", "zip_code": "33056", "country": "US", "state": "FL", "display_address": ["19500 NW 27th Ave", "Miami Gardens, FL 33056"]}, "phone": "+13056226687", "display_phone": "(305) 622-6687", "distance": 1014.0122367135634}, {"id": "HxN7lZRGbgQ7woFk1bWq8g", "alias": "little-caesars-pizza-miramar", "name": "Little Caesars Pizza", "image_url": "https://s3-media2.fl.yelpcdn.com/bphoto/hzxT-zIFLSoP0GjEJR7pbQ/o.jpg", "is_closed": false, "url": "https://www.yelp.com/biz/little-caesars-pizza-miramar?adjust_creative=a2JdNtFqB-C38ga_06BHvw&utm_campaign=yelp_api_v3&utm_medium=api_v3_business_search&utm_source=a2JdNtFqB-C38ga_06BHvw", "review_count": 14, "categories": [{"alias": "pizza", "title": "Pizza"}, {"alias": "hotdogs", "title": "Fast Food"}], "rating": 2.0, "coordinates": {"latitude": 25.9786516, "longitude": -80.2473291}, "transactions": [], "price": "$", "location": {"address1": "3358 S. University Dr", "address2": null, "address3": null, "city": "Miramar", "zip_code": "33025", "country": "US", "state": "FL", "display_address": ["3358 S. University Dr", "Miramar, FL 33025"]}, "phone": "+19544383801", "display_phone": "(954) 438-3801", "distance": 2442.2253346841085}, {"id": "5Acsz0M7Va0Iu6ES0cNX2w", "alias": "caribbean-kitchen-305-miami-3", "name": "Caribbean Kitchen 305", "image_url": "https://s3-media4.fl.yelpcdn.com/bphoto/NscybSh3umGnHgDNhuv76g/o.jpg", "is_closed": false, "url": "https://www.yelp.com/biz/caribbean-kitchen-305-miami-3?adjust_creative=a2JdNtFqB-C38ga_06BHvw&utm_campaign=yelp_api_v3&utm_medium=api_v3_business_search&utm_source=a2JdNtFqB-C38ga_06BHvw", "review_count": 12, "categories": [{"alias": "haitian", "title": "Haitian"}], "rating": 2.5, "coordinates": {"latitude": 25.94159, "longitude": -80.21441}, "transactions": ["pickup", "delivery"], "location": {"address1": "762 NW 183rd St", "address2": null, "address3": null, "city": "Miami", "zip_code": "33169", "country": "US", "state": "FL", "display_address": ["762 NW 183rd St", "Miami, FL 33169"]}, "phone": "+13057602655", "display_phone": "(305) 760-2655", "distance": 3052.349032485658}, {"id": "t05Ib0OBb4NKDY9T4F6XDw", "alias": "little-caesars-pizza-miami-26", "name": "Little Caesars Pizza", "image_url": "https://s3-media4.fl.yelpcdn.com/bphoto/vsX25_e_5b5Uo1tSlX3Y0Q/o.jpg", "is_closed": false, "url": "https://www.yelp.com/biz/little-caesars-pizza-miami-26?adjust_creative=a2JdNtFqB-C38ga_06BHvw&utm_campaign=yelp_api_v3&utm_medium=api_v3_business_search&utm_source=a2JdNtFqB-C38ga_06BHvw", "review_count": 4, "categories": [{"alias": "pizza", "title": "Pizza"}, {"alias": "hotdogs", "title": "Fast Food"}], "rating": 3.5, "coordinates": {"latitude": 25.9307669, "longitude": -80.244568}, "transactions": [], "price": "$", "location": {"address1": "17223 N.W. 27Th Ave.", "address2": "", "address3": "", "city": "Miami", "zip_code": "33056", "country": "US", "state": "FL", "display_address": ["17223 N.W. 27Th Ave.", "Miami, FL 33056"]}, "phone": "+13056260184", "display_phone": "(305) 626-0184", "distance": 2996.499867347088}, {"id": "pWeVKFMXUa-rItVpsCPhxQ", "alias": "chop-suey-miami-gardens", "name": "Chop Suey", "image_url": "https://s3-media3.fl.yelpcdn.com/bphoto/sUzgkyKpSgEkFUgEovy8gg/o.jpg", "is_closed": false, "url": "https://www.yelp.com/biz/chop-suey-miami-gardens?adjust_creative=a2JdNtFqB-C38ga_06BHvw&utm_campaign=yelp_api_v3&utm_medium=api_v3_business_search&utm_source=a2JdNtFqB-C38ga_06BHvw", "review_count": 6, "categories": [{"alias": "chinese", "title": "Chinese"}], "rating": 2.5, "coordinates": {"latitude": 25.938502, "longitude": -80.244558}, "transactions": ["delivery"], "price": "$", "location": {"address1": "18053 NW 27th Ave", "address2": null, "address3": null, "city": "Miami Gardens", "zip_code": "33056", "country": "US", "state": "FL", "display_address": ["18053 NW 27th Ave", "Miami Gardens, FL 33056"]}, "phone": "+13056215782", "display_phone": "(305) 621-5782", "distance": 2246.9701256675316}, {"id": "tDLpg-52LMPdTtSzhL2Dqw", "alias": "luckys-miami-gardens", "name": "Lucky's", "image_url": "https://s3-media2.fl.yelpcdn.com/bphoto/4qeWEtWJYoPNohOIfnZCLA/o.jpg", "is_closed": false, "url": "https://www.yelp.com/biz/luckys-miami-gardens?adjust_creative=a2JdNtFqB-C38ga_06BHvw&utm_campaign=yelp_api_v3&utm_medium=api_v3_business_search&utm_source=a2JdNtFqB-C38ga_06BHvw", "review_count": 2, "categories": [{"alias": "pizza", "title": "Pizza"}, {"alias": "tradamerican", "title": "American (Traditional)"}], "rating": 4.0, "coordinates": {"latitude": 25.967183, "longitude": -80.24221}, "transactions": [], "location": {"address1": "21001 NW 27th Ave", "address2": "", "address3": "Calder  Casino", "city": "Miami Gardens", "zip_code": "33056", "country": "US", "state": "FL", "display_address": ["21001 NW 27th Ave", "Calder  Casino", "Miami Gardens, FL 33056"]}, "phone": "+13056251311", "display_phone": "(305) 625-1311", "distance": 1067.8024545364226}, {"id": "7xbbiNatZ5aXvmhgVwIRvA", "alias": "racks-bbq-miami-gardens", "name": "Racks BBQ", "image_url": "https://s3-media2.fl.yelpcdn.com/bphoto/l6_EHsfMsvXHWKHE7PdVmQ/o.jpg", "is_closed": false, "url": "https://www.yelp.com/biz/racks-bbq-miami-gardens?adjust_creative=a2JdNtFqB-C38ga_06BHvw&utm_campaign=yelp_api_v3&utm_medium=api_v3_business_search&utm_source=a2JdNtFqB-C38ga_06BHvw", "review_count": 1, "categories": [{"alias": "foodtrucks", "title": "Food Trucks"}, {"alias": "bbq", "title": "Barbeque"}], "rating": 5.0, "coordinates": {"latitude": 25.9459247589111, "longitude": -80.2397537231445}, "transactions": [], "location": {"address1": "", "address2": null, "address3": "", "city": "Miami Gardens", "zip_code": "33056", "country": "US", "state": "FL", "display_address": ["Miami Gardens, FL 33056"]}, "phone": "+17865088252", "display_phone": "(786) 508-8252", "distance": 468.0032344537648}, {"id": "cchC-YBfgVTjhKTdQ2CBGg", "alias": "brothers-bbq-pit-miami-gardens", "name": "Brothers BBQ Pit", "image_url": "https://s3-media4.fl.yelpcdn.com/bphoto/pUan2ul3OJQKdJEWw9fORg/o.jpg", "is_closed": false, "url": "https://www.yelp.com/biz/brothers-bbq-pit-miami-gardens?adjust_creative=a2JdNtFqB-C38ga_06BHvw&utm_campaign=yelp_api_v3&utm_medium=api_v3_business_search&utm_source=a2JdNtFqB-C38ga_06BHvw", "review_count": 1, "categories": [{"alias": "bbq", "title": "Barbeque"}], "rating": 5.0, "coordinates": {"latitude": 25.94001, "longitude": -80.26056}, "transactions": ["pickup", "delivery"], "location": {"address1": "3600 NW 183rd St", "address2": null, "address3": "", "city": "Miami Gardens", "zip_code": "33056", "country": "US", "state": "FL", "display_address": ["3600 NW 183rd St", "Miami Gardens, FL 33056"]}, "phone": "+17869165942", "display_phone": "(786) 916-5942", "distance": 2955.8722346780696}, {"id": "trSWos11lmqFH3suIEBjVw", "alias": "dockers-bar-and-grill-miramar", "name": "Dockers Bar & Grill", "image_url": "https://s3-media1.fl.yelpcdn.com/bphoto/vGrpkOY7qeB1MGNTluEyaw/o.jpg", "is_closed": false, "url": "https://www.yelp.com/biz/dockers-bar-and-grill-miramar?adjust_creative=a2JdNtFqB-C38ga_06BHvw&utm_campaign=yelp_api_v3&utm_medium=api_v3_business_search&utm_source=a2JdNtFqB-C38ga_06BHvw", "review_count": 5, "categories": [{"alias": "newamerican", "title": "American (New)"}], "rating": 2.5, "coordinates": {"latitude": 25.98412, "longitude": -80.21407}, "transactions": [], "price": "$$$", "location": {"address1": "6330 Miramar Pkwy", "address2": null, "address3": null, "city": "Miramar", "zip_code": "33023", "country": "US", "state": "FL", "display_address": ["6330 Miramar Pkwy", "Miramar, FL 33023"]}, "phone": "+19548943625", "display_phone": "(954) 894-3625", "distance": 3820.6534611238685}, {"id": "y0-iKnN7cZ4zRikXxDNmTQ", "alias": "mcdonalds-carol-city-2", "name": "McDonald's", "image_url": "https://s3-media3.fl.yelpcdn.com/bphoto/wv6nYfC6qSt5cASm7QQbqQ/o.jpg", "is_closed": false, "url": "https://www.yelp.com/biz/mcdonalds-carol-city-2?adjust_creative=a2JdNtFqB-C38ga_06BHvw&utm_campaign=yelp_api_v3&utm_medium=api_v3_business_search&utm_source=a2JdNtFqB-C38ga_06BHvw", "review_count": 22, "categories": [{"alias": "hotdogs", "title": "Fast Food"}, {"alias": "burgers", "title": "Burgers"}, {"alias": "coffee", "title": "Coffee & Tea"}], "rating": 1.5, "coordinates": {"latitude": 25.94016, "longitude": -80.24572}, "transactions": ["delivery"], "price": "$", "location": {"address1": "18250 NW 27th Ave", "address2": null, "address3": null, "city": "Carol City", "zip_code": "33056", "country": "US", "state": "FL", "display_address": ["18250 NW 27th Ave", "Carol City, FL 33056"]}, "phone": "+13056247010", "display_phone": "(305) 624-7010", "distance": 2101.4009468407394}, {"id": "CdoQu3m-GLphFt3K_C9OKA", "alias": "taco-bell-miramar", "name": "Taco Bell", "image_url": "https://s3-media2.fl.yelpcdn.com/bphoto/2X2MngfkjLzvaVITgCCifw/o.jpg", "is_closed": false, "url": "https://www.yelp.com/biz/taco-bell-miramar?adjust_creative=a2JdNtFqB-C38ga_06BHvw&utm_campaign=yelp_api_v3&utm_medium=api_v3_business_search&utm_source=a2JdNtFqB-C38ga_06BHvw", "review_count": 8, "categories": [{"alias": "mexican", "title": "Mexican"}, {"alias": "hotdogs", "title": "Fast Food"}], "rating": 2.0, "coordinates": {"latitude": 25.97563, "longitude": -80.24663}, "transactions": ["delivery"], "price": "$", "location": {"address1": "3650 Utopia Drive", "address2": "", "address3": "", "city": "Miramar", "zip_code": "33023", "country": "US", "state": "FL", "display_address": ["3650 Utopia Drive", "Miramar, FL 33023"]}, "phone": "+19548943510", "display_phone": "(954) 894-3510", "distance": 2101.789147495844}, {"id": "fAjdqbCKQ8NDffRpRgnv2g", "alias": "selebritys-soul-food-miami-gardens", "name": "Selebrity's Soul Food", "image_url": "https://s3-media4.fl.yelpcdn.com/bphoto/H0cdrgVnQA9rqxu_bUn2eA/o.jpg", "is_closed": false, "url": "https://www.yelp.com/biz/selebritys-soul-food-miami-gardens?adjust_creative=a2JdNtFqB-C38ga_06BHvw&utm_campaign=yelp_api_v3&utm_medium=api_v3_business_search&utm_source=a2JdNtFqB-C38ga_06BHvw", "review_count": 2, "categories": [{"alias": "southern", "title": "Southern"}, {"alias": "seafood", "title": "Seafood"}, {"alias": "soulfood", "title": "Soul Food"}], "rating": 3.5, "coordinates": {"latitude": 25.9400351, "longitude": -80.2603032}, "transactions": ["delivery"], "location": {"address1": "3610 NW 183rd St", "address2": null, "address3": "", "city": "Miami Gardens", "zip_code": "33056", "country": "US", "state": "FL", "display_address": ["3610 NW 183rd St", "Miami Gardens, FL 33056"]}, "phone": "+13054675817", "display_phone": "(305) 467-5817", "distance": 2971.793710309776}, {"id": "dh2H9wq9VTwpln6akJezUg", "alias": "checkers-carol-city", "name": "Checkers", "image_url": "https://s3-media3.fl.yelpcdn.com/bphoto/83aX10OFeYXjQ6_4LN29WQ/o.jpg", "is_closed": false, "url": "https://www.yelp.com/biz/checkers-carol-city?adjust_creative=a2JdNtFqB-C38ga_06BHvw&utm_campaign=yelp_api_v3&utm_medium=api_v3_business_search&utm_source=a2JdNtFqB-C38ga_06BHvw", "review_count": 19, "categories": [{"alias": "hotdogs", "title": "Fast Food"}, {"alias": "burgers", "title": "Burgers"}], "rating": 1.5, "coordinates": {"latitude": 25.9414, "longitude": -80.24447}, "transactions": ["delivery"], "price": "$$", "location": {"address1": "2645 NW 183rd St", "address2": null, "address3": null, "city": "Carol City", "zip_code": "33056", "country": "US", "state": "FL", "display_address": ["2645 NW 183rd St", "Carol City, FL 33056"]}, "phone": "+13056242205", "display_phone": "(305) 624-2205", "distance": 1933.4985617419102}, {"id": "mINp7vkpsW4gjXNGU4etHg", "alias": "mcdonalds-miramar-5", "name": "McDonald's", "image_url": "https://s3-media1.fl.yelpcdn.com/bphoto/RqVEeSwjAndhza1qhowgaA/o.jpg", "is_closed": false, "url": "https://www.yelp.com/biz/mcdonalds-miramar-5?adjust_creative=a2JdNtFqB-C38ga_06BHvw&utm_campaign=yelp_api_v3&utm_medium=api_v3_business_search&utm_source=a2JdNtFqB-C38ga_06BHvw", "review_count": 22, "categories": [{"alias": "hotdogs", "title": "Fast Food"}, {"alias": "burgers", "title": "Burgers"}, {"alias": "coffee", "title": "Coffee & Tea"}], "rating": 1.5, "coordinates": {"latitude": 25.9841282085091, "longitude": -80.2111601829528}, "transactions": ["delivery"], "price": "$", "location": {"address1": "6204 Miramar Pkwy", "address2": "", "address3": "", "city": "Miramar", "zip_code": "33023", "country": "US", "state": "FL", "display_address": ["6204 Miramar Pkwy", "Miramar, FL 33023"]}, "phone": "+19549666118", "display_phone": "(954) 966-6118", "distance": 4011.0300689416827}, {"id": "JcYv1KdFibXqKnKvp51FfQ", "alias": "wendys-miramar", "name": "Wendy's", "image_url": "https://s3-media2.fl.yelpcdn.com/bphoto/KYlxVKrTJ0toZzE89RLwdQ/o.jpg", "is_closed": false, "url": "https://www.yelp.com/biz/wendys-miramar?adjust_creative=a2JdNtFqB-C38ga_06BHvw&utm_campaign=yelp_api_v3&utm_medium=api_v3_business_search&utm_source=a2JdNtFqB-C38ga_06BHvw", "review_count": 18, "categories": [{"alias": "hotdogs", "title": "Fast Food"}, {"alias": "burgers", "title": "Burgers"}], "rating": 1.5, "coordinates": {"latitude": 25.9748229980469, "longitude": -80.2460098266602}, "transactions": ["delivery"], "price": "$", "location": {"address1": "3750 Utopia Dr", "address2": "", "address3": "", "city": "Miramar", "zip_code": "33023", "country": "US", "state": "FL", "display_address": ["3750 Utopia Dr", "Miramar, FL 33023"]}, "phone": "+19549650218", "display_phone": "(954) 965-0218", "distance": 2008.292478135407}, {"id": "mp4aKXonHiKSHEj1U_i-dg", "alias": "the-buffet-miami-gardens-2", "name": "The Buffet", "image_url": "https://s3-media2.fl.yelpcdn.com/bphoto/VeYOo3NEIPz_hhiNY8T8aA/o.jpg", "is_closed": false, "url": "https://www.yelp.com/biz/the-buffet-miami-gardens-2?adjust_creative=a2JdNtFqB-C38ga_06BHvw&utm_campaign=yelp_api_v3&utm_medium=api_v3_business_search&utm_source=a2JdNtFqB-C38ga_06BHvw", "review_count": 3, "categories": [{"alias": "buffets", "title": "Buffets"}], "rating": 2.5, "coordinates": {"latitude": 25.967264, "longitude": -80.241966}, "transactions": [], "location": {"address1": "21001 NW 27th Ave", "address2": "", "address3": "Calder  Casino", "city": "Miami Gardens", "zip_code": "33056", "country": "US", "state": "FL", "display_address": ["21001 NW 27th Ave", "Calder  Casino", "Miami Gardens, FL 33056"]}, "phone": "+13056251311", "display_phone": "(305) 625-1311", "distance": 1069.0939877695519}, {"id": "LvvpKNj92ddKp2brx0Apyg", "alias": "mcdonalds-miramar-6", "name": "McDonald's", "image_url": "https://s3-media1.fl.yelpcdn.com/bphoto/tFYJlrLwKlZoGWA0b6vj_A/o.jpg", "is_closed": false, "url": "https://www.yelp.com/biz/mcdonalds-miramar-6?adjust_creative=a2JdNtFqB-C38ga_06BHvw&utm_campaign=yelp_api_v3&utm_medium=api_v3_business_search&utm_source=a2JdNtFqB-C38ga_06BHvw", "review_count": 22, "categories": [{"alias": "burgers", "title": "Burgers"}, {"alias": "hotdogs", "title": "Fast Food"}, {"alias": "coffee", "title": "Coffee & Tea"}], "rating": 1.5, "coordinates": {"latitude": 25.9793263877995, "longitude": -80.2476494712823}, "transactions": ["delivery"], "price": "$", "location": {"address1": "3306 S University Dr", "address2": "", "address3": "", "city": "Miramar", "zip_code": "33025", "country": "US", "state": "FL", "display_address": ["3306 S University Dr", "Miramar, FL 33025"]}, "phone": "+19544361872", "display_phone": "(954) 436-1872", "distance": 2522.0885826952563}, {"id": "sH_p0fy6bS35PxjNX7XEUQ", "alias": "dominos-pizza-carol-city", "name": "Domino's Pizza", "image_url": "https://s3-media4.fl.yelpcdn.com/bphoto/WEZgPs7jf3wE0Pu8aV55gA/o.jpg", "is_closed": false, "url": "https://www.yelp.com/biz/dominos-pizza-carol-city?adjust_creative=a2JdNtFqB-C38ga_06BHvw&utm_campaign=yelp_api_v3&utm_medium=api_v3_business_search&utm_source=a2JdNtFqB-C38ga_06BHvw", "review_count": 22, "categories": [{"alias": "pizza", "title": "Pizza"}, {"alias": "chicken_wings", "title": "Chicken Wings"}, {"alias": "sandwiches", "title": "Sandwiches"}], "rating": 1.5, "coordinates": {"latitude": 25.936647, "longitude": -80.244849}, "transactions": [], "price": "$", "location": {"address1": "17854 NW 27th Ave", "address2": "", "address3": "", "city": "Carol City", "zip_code": "33056", "country": "US", "state": "FL", "display_address": ["17854 NW 27th Ave", "Carol City, FL 33056"]}, "phone": "+13056238999", "display_phone": "(305) 623-8999", "distance": 2454.0227633765207}, {"id": "XjoP5v0lUpaBiDYuDAWecw", "alias": "wendys-miami-gardens", "name": "Wendy's", "image_url": "https://s3-media3.fl.yelpcdn.com/bphoto/Cy3l0Y9vjdGW9qdTDodvjg/o.jpg", "is_closed": false, "url": "https://www.yelp.com/biz/wendys-miami-gardens?adjust_creative=a2JdNtFqB-C38ga_06BHvw&utm_campaign=yelp_api_v3&utm_medium=api_v3_business_search&utm_source=a2JdNtFqB-C38ga_06BHvw", "review_count": 10, "categories": [{"alias": "burgers", "title": "Burgers"}, {"alias": "hotdogs", "title": "Fast Food"}], "rating": 1.5, "coordinates": {"latitude": 25.93986, "longitude": -80.24471}, "transactions": ["delivery"], "price": "$", "location": {"address1": "18181 Nw 27Th Ave", "address2": null, "address3": null, "city": "Miami Gardens", "zip_code": "33056", "country": "US", "state": "FL", "display_address": ["18181 Nw 27Th Ave", "Miami Gardens, FL 33056"]}, "phone": "+13056210670", "display_phone": "(305) 621-0670", "distance": 2105.6562193349923}, {"id": "jjhUhpNSUzSsoeMdebbHog", "alias": "subway-miramar-19", "name": "Subway", "image_url": "https://s3-media1.fl.yelpcdn.com/bphoto/I3VJzN2KtJPIcfvi-cTJag/o.jpg", "is_closed": false, "url": "https://www.yelp.com/biz/subway-miramar-19?adjust_creative=a2JdNtFqB-C38ga_06BHvw&utm_campaign=yelp_api_v3&utm_medium=api_v3_business_search&utm_source=a2JdNtFqB-C38ga_06BHvw", "review_count": 2, "categories": [{"alias": "sandwiches", "title": "Sandwiches"}], "rating": 3.0, "coordinates": {"latitude": 25.9847980734726, "longitude": -80.2105076382796}, "transactions": ["delivery", "pickup"], "price": "$", "location": {"address1": "6161 Miramar Pkwy", "address2": "Ste 200", "address3": "", "city": "Miramar", "zip_code": "33023", "country": "US", "state": "FL", "display_address": ["6161 Miramar Pkwy", "Ste 200", "Miramar, FL 33023"]}, "phone": "+19548943013", "display_phone": "(954) 894-3013", "distance": 4109.94392189449}, {"id": "QO5mvdnUwDEhvhWanfyNgg", "alias": "kfc-miami-gardens", "name": "KFC", "image_url": "https://s3-media2.fl.yelpcdn.com/bphoto/SMqoVlIg1Ir6sIKe6RGDVQ/o.jpg", "is_closed": false, "url": "https://www.yelp.com/biz/kfc-miami-gardens?adjust_creative=a2JdNtFqB-C38ga_06BHvw&utm_campaign=yelp_api_v3&utm_medium=api_v3_business_search&utm_source=a2JdNtFqB-C38ga_06BHvw", "review_count": 2, "categories": [{"alias": "hotdogs", "title": "Fast Food"}, {"alias": "chicken_wings", "title": "Chicken Wings"}, {"alias": "chickenshop", "title": "Chicken Shop"}], "rating": 3.0, "coordinates": {"latitude": 25.9359074879145, "longitude": -80.2447572300768}, "transactions": ["delivery", "pickup"], "price": "$", "location": {"address1": "17701 NW 27th Ave", "address2": null, "address3": null, "city": "Miami Gardens", "zip_code": "33056", "country": "US", "state": "FL", "display_address": ["17701 NW 27th Ave", "Miami Gardens, FL 33056"]}, "phone": "+13056201341", "display_phone": "(305) 620-1341", "distance": 2531.728248398346}, {"id": "AyT1dJAtLyepa3A2_yStKA", "alias": "family-tree-concept-miami", "name": "Family Tree Concept", "image_url": "https://s3-media2.fl.yelpcdn.com/bphoto/wxBUdAutADFwku78HSwbVA/o.jpg", "is_closed": false, "url": "https://www.yelp.com/biz/family-tree-concept-miami?adjust_creative=a2JdNtFqB-C38ga_06BHvw&utm_campaign=yelp_api_v3&utm_medium=api_v3_business_search&utm_source=a2JdNtFqB-C38ga_06BHvw", "review_count": 1, "categories": [{"alias": "restaurants", "title": "Restaurants"}], "rating": 4.0, "coordinates": {"latitude": 25.9416122436523, "longitude": -80.2184219360352}, "transactions": [], "location": {"address1": "950 NW 183rd St", "address2": null, "address3": null, "city": "Miami", "zip_code": "33169", "country": "US", "state": "FL", "display_address": ["950 NW 183rd St", "Miami, FL 33169"]}, "phone": "+13052494620", "display_phone": "(305) 249-4620", "distance": 2744.3404641143097}, {"id": "0n-SFMKrL6-PyJguzR484g", "alias": "donnas-caribbean-restaurant-miami-gardens-3", "name": "Donna's Caribbean Restaurant", "image_url": "https://s3-media1.fl.yelpcdn.com/bphoto/EHQsOF_igDJROzLK0tyhQQ/o.jpg", "is_closed": false, "url": "https://www.yelp.com/biz/donnas-caribbean-restaurant-miami-gardens-3?adjust_creative=a2JdNtFqB-C38ga_06BHvw&utm_campaign=yelp_api_v3&utm_medium=api_v3_business_search&utm_source=a2JdNtFqB-C38ga_06BHvw", "review_count": 5, "categories": [{"alias": "caribbean", "title": "Caribbean"}, {"alias": "breakfast_brunch", "title": "Breakfast & Brunch"}], "rating": 2.0, "coordinates": {"latitude": 25.940157, "longitude": -80.245570242405}, "transactions": ["delivery", "pickup"], "location": {"address1": "18198 NW 27th Ave", "address2": "", "address3": null, "city": "Miami Gardens", "zip_code": "33169", "country": "US", "state": "FL", "display_address": ["18198 NW 27th Ave", "Miami Gardens, FL 33169"]}, "phone": "+13059524189", "display_phone": "(305) 952-4189", "distance": 2099.3925774995814}, {"id": "cM06q551z8H7tq3C8GQlkg", "alias": "china-town-north-miami", "name": "China Town", "image_url": "https://s3-media3.fl.yelpcdn.com/bphoto/XT66WrJyPcpJxlt87GsE1Q/o.jpg", "is_closed": false, "url": "https://www.yelp.com/biz/china-town-north-miami?adjust_creative=a2JdNtFqB-C38ga_06BHvw&utm_campaign=yelp_api_v3&utm_medium=api_v3_business_search&utm_source=a2JdNtFqB-C38ga_06BHvw", "review_count": 3, "categories": [{"alias": "chinese", "title": "Chinese"}], "rating": 2.5, "coordinates": {"latitude": 25.943255, "longitude": -80.215147}, "transactions": ["delivery"], "location": {"address1": "715 NW 119th St", "address2": null, "address3": null, "city": "North Miami", "zip_code": "33168", "country": "US", "state": "FL", "display_address": ["715 NW 119th St", "North Miami, FL 33168"]}, "phone": "+13056887838", "display_phone": "(305) 688-7838", "distance": 2888.5233626491054}, {"id": "jOOwJss3BEb765pMxx4U2w", "alias": "esthers-restaurant-miami-gardens", "name": "Esther's Restaurant", "image_url": "", "is_closed": false, "url": "https://www.yelp.com/biz/esthers-restaurant-miami-gardens?adjust_creative=a2JdNtFqB-C38ga_06BHvw&utm_campaign=yelp_api_v3&utm_medium=api_v3_business_search&utm_source=a2JdNtFqB-C38ga_06BHvw", "review_count": 3, "categories": [{"alias": "soulfood", "title": "Soul Food"}], "rating": 2.5, "coordinates": {"latitude": 25.9362106, "longitude": -80.2446976}, "transactions": ["delivery"], "location": {"address1": "17751 NW 27th Ave", "address2": "", "address3": "", "city": "Miami Gardens", "zip_code": "33056", "country": "US", "state": "FL", "display_address": ["17751 NW 27th Ave", "Miami Gardens, FL 33056"]}, "phone": "+13056278211", "display_phone": "(305) 627-8211", "distance": 2504.1277430151854}, {"id": "MDt54kbLAHt-KRhbW4vNIg", "alias": "burger-king-carol-city", "name": "Burger King", "image_url": "https://s3-media2.fl.yelpcdn.com/bphoto/L9htM31SuZLXUKxAc5JhUQ/o.jpg", "is_closed": false, "url": "https://www.yelp.com/biz/burger-king-carol-city?adjust_creative=a2JdNtFqB-C38ga_06BHvw&utm_campaign=yelp_api_v3&utm_medium=api_v3_business_search&utm_source=a2JdNtFqB-C38ga_06BHvw", "review_count": 10, "categories": [{"alias": "burgers", "title": "Burgers"}, {"alias": "hotdogs", "title": "Fast Food"}], "rating": 1.5, "coordinates": {"latitude": 25.93821, "longitude": -80.244775}, "transactions": ["delivery"], "price": "$", "location": {"address1": "17951 Nw 27th Ave", "address2": null, "address3": null, "city": "Carol City", "zip_code": "33056", "country": "US", "state": "FL", "display_address": ["17951 Nw 27th Ave", "Carol City, FL 33056"]}, "phone": "+13056248822", "display_phone": "(305) 624-8822", "distance": 2281.9466664389174}, {"id": "Zl4wywEI1XB28wYne_8cjQ", "alias": "just-salad-miami-gardens", "name": "Just Salad", "image_url": "https://s3-media3.fl.yelpcdn.com/bphoto/a6LEjULBTn7Bz5KRDAkFfA/o.jpg", "is_closed": false, "url": "https://www.yelp.com/biz/just-salad-miami-gardens?adjust_creative=a2JdNtFqB-C38ga_06BHvw&utm_campaign=yelp_api_v3&utm_medium=api_v3_business_search&utm_source=a2JdNtFqB-C38ga_06BHvw", "review_count": 2, "categories": [{"alias": "pizza", "title": "Pizza"}], "rating": 2.5, "coordinates": {"latitude": 25.957879, "longitude": -80.238778}, "transactions": [], "location": {"address1": "347 Don Shula Dr", "address2": "Section 142", "address3": null, "city": "Miami Gardens", "zip_code": "33056", "country": "US", "state": "FL", "display_address": ["347 Don Shula Dr", "Section 142", "Miami Gardens, FL 33056"]}, "phone": "", "display_phone": "", "distance": 22.59455449283269}, {"id": "qWWm3HQzYQPYzEW_NMJYIg", "alias": "bamboche-take-out-miramar", "name": "Bamboche Take Out", "image_url": "", "is_closed": false, "url": "https://www.yelp.com/biz/bamboche-take-out-miramar?adjust_creative=a2JdNtFqB-C38ga_06BHvw&utm_campaign=yelp_api_v3&utm_medium=api_v3_business_search&utm_source=a2JdNtFqB-C38ga_06BHvw", "review_count": 3, "categories": [{"alias": "caribbean", "title": "Caribbean"}], "rating": 2.0, "coordinates": {"latitude": 25.98412, "longitude": -80.21361}, "transactions": [], "location": {"address1": "6320 Miramar Pkwy", "address2": "", "address3": "", "city": "Miramar", "zip_code": "33023", "country": "US", "state": "FL", "display_address": ["6320 Miramar Pkwy", "Miramar, FL 33023"]}, "phone": "+19549630502", "display_phone": "(954) 963-0502", "distance": 3839.6013719825096}, {"id": "dEAxPJWUxnclWtJvaWse9g", "alias": "pizza-hut-miramar-5", "name": "Pizza Hut", "image_url": "https://s3-media3.fl.yelpcdn.com/bphoto/JhagWVmcwajLypDSNoDrqg/o.jpg", "is_closed": false, "url": "https://www.yelp.com/biz/pizza-hut-miramar-5?adjust_creative=a2JdNtFqB-C38ga_06BHvw&utm_campaign=yelp_api_v3&utm_medium=api_v3_business_search&utm_source=a2JdNtFqB-C38ga_06BHvw", "review_count": 5, "categories": [{"alias": "pizza", "title": "Pizza"}, {"alias": "italian", "title": "Italian"}, {"alias": "chicken_wings", "title": "Chicken Wings"}], "rating": 1.5, "coordinates": {"latitude": 25.982911, "longitude": -80.225643}, "transactions": ["delivery"], "price": "$", "location": {"address1": "6845 Miramar Pkwy", "address2": "", "address3": "", "city": "Miramar", "zip_code": "33023", "country": "US", "state": "FL", "display_address": ["6845 Miramar Pkwy", "Miramar, FL 33023"]}, "phone": "+19549833882", "display_phone": "(954) 983-3882", "distance": 3059.554100336388}, {"id": "mOJ9hZWS1GTg16p3j78SnQ", "alias": "subway-miami-gardens-6", "name": "Subway", "image_url": "https://s3-media1.fl.yelpcdn.com/bphoto/5JgeAI40tYW8falZznjd_Q/o.jpg", "is_closed": false, "url": "https://www.yelp.com/biz/subway-miami-gardens-6?adjust_creative=a2JdNtFqB-C38ga_06BHvw&utm_campaign=yelp_api_v3&utm_medium=api_v3_business_search&utm_source=a2JdNtFqB-C38ga_06BHvw", "review_count": 3, "categories": [{"alias": "sandwiches", "title": "Sandwiches"}], "rating": 1.5, "coordinates": {"latitude": 25.9542510595425, "longitude": -80.2464150283779}, "transactions": ["delivery", "pickup"], "price": "$", "location": {"address1": "19872 NW 27th Ave", "address2": "", "address3": "", "city": "Miami Gardens", "zip_code": "33056", "country": "US", "state": "FL", "display_address": ["19872 NW 27th Ave", "Miami Gardens, FL 33056"]}, "phone": "+13056231240", "display_phone": "(305) 623-1240", "distance": 863.2336418027579}, {"id": "odGVEBiWiSbzyEzONg47Zg", "alias": "mcdonalds-miami-gardens-5", "name": "McDonald's", "image_url": "", "is_closed": false, "url": "https://www.yelp.com/biz/mcdonalds-miami-gardens-5?adjust_creative=a2JdNtFqB-C38ga_06BHvw&utm_campaign=yelp_api_v3&utm_medium=api_v3_business_search&utm_source=a2JdNtFqB-C38ga_06BHvw", "review_count": 5, "categories": [{"alias": "burgers", "title": "Burgers"}, {"alias": "hotdogs", "title": "Fast Food"}, {"alias": "coffee", "title": "Coffee & Tea"}], "rating": 1.0, "coordinates": {"latitude": 25.9529030003102, "longitude": -80.2437007427216}, "transactions": ["delivery"], "price": "$", "location": {"address1": "19501 NW 27th Ave", "address2": "", "address3": "", "city": "Miami Gardens", "zip_code": "33056", "country": "US", "state": "FL", "display_address": ["19501 NW 27th Ave", "Miami Gardens, FL 33056"]}, "phone": "+13056276638", "display_phone": "(305) 627-6638", "distance": 748.1615093870696}, {"id": "-ZS7bEI1_rYdX6BoeebhQg", "alias": "taco-bell-miami-gardens-4", "name": "Taco Bell", "image_url": "https://s3-media2.fl.yelpcdn.com/bphoto/YfYD3ZOui2CU3PZJkg4BNw/o.jpg", "is_closed": false, "url": "https://www.yelp.com/biz/taco-bell-miami-gardens-4?adjust_creative=a2JdNtFqB-C38ga_06BHvw&utm_campaign=yelp_api_v3&utm_medium=api_v3_business_search&utm_source=a2JdNtFqB-C38ga_06BHvw", "review_count": 7, "categories": [{"alias": "mexican", "title": "Mexican"}, {"alias": "hotdogs", "title": "Fast Food"}], "rating": 1.0, "coordinates": {"latitude": 25.937546, "longitude": -80.245302}, "transactions": ["delivery"], "price": "$", "location": {"address1": "17950 NW 27th Ave", "address2": null, "address3": null, "city": "Miami Gardens", "zip_code": "33056", "country": "US", "state": "FL", "display_address": ["17950 NW 27th Ave", "Miami Gardens, FL 33056"]}, "phone": "+13056289886", "display_phone": "(305) 628-9886", "distance": 2369.0310809578477}, {"id": "fbP6W0O9uDt7L-OJoZM6hg", "alias": "ackee-tree-grill-miramar", "name": "Ackee Tree Grill", "image_url": "https://s3-media3.fl.yelpcdn.com/bphoto/R-DIyuX7bsfu5D0zHLxI2Q/o.jpg", "is_closed": false, "url": "https://www.yelp.com/biz/ackee-tree-grill-miramar?adjust_creative=a2JdNtFqB-C38ga_06BHvw&utm_campaign=yelp_api_v3&utm_medium=api_v3_business_search&utm_source=a2JdNtFqB-C38ga_06BHvw", "review_count": 1, "categories": [{"alias": "caribbean", "title": "Caribbean"}], "rating": 2.0, "coordinates": {"latitude": 25.980192450504028, "longitude": -80.262293}, "transactions": [], "location": {"address1": "8874 Miramar Pkwy", "address2": null, "address3": "", "city": "Miramar", "zip_code": "33025", "country": "US", "state": "FL", "display_address": ["8874 Miramar Pkwy", "Miramar, FL 33025"]}, "phone": "+19545890768", "display_phone": "(954) 589-0768", "distance": 3395.9809872831565}, {"id": "t4gi7HCbvMDTDW7fR9qvHA", "alias": "burger-king-miami-gardens-2", "name": "Burger King", "image_url": "https://s3-media1.fl.yelpcdn.com/bphoto/Z_C274NE9JJp2w4FQyIlXg/o.jpg", "is_closed": false, "url": "https://www.yelp.com/biz/burger-king-miami-gardens-2?adjust_creative=a2JdNtFqB-C38ga_06BHvw&utm_campaign=yelp_api_v3&utm_medium=api_v3_business_search&utm_source=a2JdNtFqB-C38ga_06BHvw", "review_count": 3, "categories": [{"alias": "hotdogs", "title": "Fast Food"}, {"alias": "burgers", "title": "Burgers"}], "rating": 1.0, "coordinates": {"latitude": 25.95438846102836, "longitude": -80.26131824010848}, "transactions": [], "location": {"address1": "3600 NW 199th St", "address2": "", "address3": null, "city": "Miami Gardens", "zip_code": "33056", "country": "US", "state": "FL", "display_address": ["3600 NW 199th St", "Miami Gardens, FL 33056"]}, "phone": "+13059523951", "display_phone": "(305) 952-3951", "distance": 2279.2212145672383}, {"id": "6tkUG86JPiuhXuSDaGvASA", "alias": "kfc-taco-bell-miramar", "name": "KFC/Taco Bell", "image_url": "https://s3-media1.fl.yelpcdn.com/bphoto/cn8lBEw5DD0EzFqtUkhp7A/o.jpg", "is_closed": false, "url": "https://www.yelp.com/biz/kfc-taco-bell-miramar?adjust_creative=a2JdNtFqB-C38ga_06BHvw&utm_campaign=yelp_api_v3&utm_medium=api_v3_business_search&utm_source=a2JdNtFqB-C38ga_06BHvw", "review_count": 2, "categories": [{"alias": "hotdogs", "title": "Fast Food"}, {"alias": "chicken_wings", "title": "Chicken Wings"}, {"alias": "chickenshop", "title": "Chicken Shop"}], "rating": 1.0, "coordinates": {"latitude": 25.975261, "longitude": -80.2462117779446}, "transactions": ["pickup", "delivery"], "price": "$", "location": {"address1": "3650 Utopia Drive", "address2": "", "address3": "", "city": "Miramar", "zip_code": "33023", "country": "US", "state": "FL", "display_address": ["3650 Utopia Drive", "Miramar, FL 33023"]}, "phone": "+19548943510", "display_phone": "(954) 894-3510", "distance": 2048.3850591682312}, {"id": "WW56NNNtxyIyK1sqJn6DkA", "alias": "pizza-hut-miami-gardens-2", "name": "Pizza Hut", "image_url": "https://s3-media2.fl.yelpcdn.com/bphoto/D9lk1OGBKqnolmBfjVYI-Q/o.jpg", "is_closed": false, "url": "https://www.yelp.com/biz/pizza-hut-miami-gardens-2?adjust_creative=a2JdNtFqB-C38ga_06BHvw&utm_campaign=yelp_api_v3&utm_medium=api_v3_business_search&utm_source=a2JdNtFqB-C38ga_06BHvw", "review_count": 1, "categories": [{"alias": "chicken_wings", "title": "Chicken Wings"}, {"alias": "pizza", "title": "Pizza"}], "rating": 1.0, "coordinates": {"latitude": 25.94075792117841, "longitude": -80.25970397480246}, "transactions": [], "location": {"address1": "3477 NW 183rd St", "address2": null, "address3": "", "city": "Miami Gardens", "zip_code": "33056", "country": "US", "state": "FL", "display_address": ["3477 NW 183rd St", "Miami Gardens, FL 33056"]}, "phone": "+13054050316", "display_phone": "(305) 405-0316", "distance": 2833.8931049468456}, {"id": "NUFqIBabNWj5Vrc0TW_snA", "alias": "taco-bell-miramar-3", "name": "Taco Bell", "image_url": "https://s3-media3.fl.yelpcdn.com/bphoto/7eWwrEWRS_PVIdZGSPwleg/o.jpg", "is_closed": false, "url": "https://www.yelp.com/biz/taco-bell-miramar-3?adjust_creative=a2JdNtFqB-C38ga_06BHvw&utm_campaign=yelp_api_v3&utm_medium=api_v3_business_search&utm_source=a2JdNtFqB-C38ga_06BHvw", "review_count": 1, "categories": [{"alias": "mexican", "title": "Mexican"}, {"alias": "hotdogs", "title": "Fast Food"}], "rating": 1.0, "coordinates": {"latitude": 25.9823, "longitude": -80.22659}, "transactions": ["delivery"], "location": {"address1": "6961 Miramar Parkway", "address2": null, "address3": null, "city": "Miramar", "zip_code": "33023", "country": "US", "state": "FL", "display_address": ["6961 Miramar Parkway", "Miramar, FL 33023"]}, "phone": "", "display_phone": "", "distance": 2949.229811808737}, {"id": "JTnARSskvGcm6YzDeYiG4g", "alias": "la-mia-pizza-and-wings-miramar-2", "name": "La Mia Pizza & Wings", "image_url": "https://s3-media1.fl.yelpcdn.com/bphoto/XUfKWVBzlIA8QI-fQRg4JQ/o.jpg", "is_closed": false, "url": "https://www.yelp.com/biz/la-mia-pizza-and-wings-miramar-2?adjust_creative=a2JdNtFqB-C38ga_06BHvw&utm_campaign=yelp_api_v3&utm_medium=api_v3_business_search&utm_source=a2JdNtFqB-C38ga_06BHvw", "review_count": 1, "categories": [{"alias": "pizza", "title": "Pizza"}, {"alias": "chicken_wings", "title": "Chicken Wings"}], "rating": 1.0, "coordinates": {"latitude": 25.973645, "longitude": -80.245854}, "transactions": ["pickup", "delivery"], "location": {"address1": "7990 Riviera Blvd", "address2": "", "address3": null, "city": "Miramar", "zip_code": "33023", "country": "US", "state": "FL", "display_address": ["7990 Riviera Blvd", "Miramar, FL 33023"]}, "phone": "+17866761819", "display_phone": "(786) 676-1819", "distance": 1868.0348128815883}, {"id": "WEvVAirrUMyiq6_yEC3Wog", "alias": "shake-n-burger-miami-gardens", "name": "Shake n' Burger", "image_url": "", "is_closed": false, "url": "https://www.yelp.com/biz/shake-n-burger-miami-gardens?adjust_creative=a2JdNtFqB-C38ga_06BHvw&utm_campaign=yelp_api_v3&utm_medium=api_v3_business_search&utm_source=a2JdNtFqB-C38ga_06BHvw", "review_count": 1, "categories": [{"alias": "burgers", "title": "Burgers"}], "rating": 1.0, "coordinates": {"latitude": 25.957866, "longitude": -80.238771}, "transactions": [], "location": {"address1": "347 Don Shula Dr", "address2": "", "address3": null, "city": "Miami Gardens", "zip_code": "33056", "country": "US", "state": "FL", "display_address": ["347 Don Shula Dr", "Miami Gardens, FL 33056"]}, "phone": "", "display_phone": "", "distance": 24.20267106121918}, {"id": "v96pmw7FAS_u2TD_3vncSw", "alias": "subway-miami-224", "name": "Subway", "image_url": "https://s3-media3.fl.yelpcdn.com/bphoto/TIh4SyY6r7CFBaOTLwxwbQ/o.jpg", "is_closed": false, "url": "https://www.yelp.com/biz/subway-miami-224?adjust_creative=a2JdNtFqB-C38ga_06BHvw&utm_campaign=yelp_api_v3&utm_medium=api_v3_business_search&utm_source=a2JdNtFqB-C38ga_06BHvw", "review_count": 1, "categories": [{"alias": "sandwiches", "title": "Sandwiches"}], "rating": 1.0, "coordinates": {"latitude": 25.9426302704816, "longitude": -80.2141050453056}, "transactions": [], "location": {"address1": "701 NW 183rd St", "address2": null, "address3": null, "city": "Miami", "zip_code": "33169", "country": "US", "state": "FL", "display_address": ["701 NW 183rd St", "Miami, FL 33169"]}, "phone": "+13054937521", "display_phone": "(305) 493-7521", "distance": 3013.7235125409193}], "absolute total": 87, "total": 87}