{"league": "NFL", "team": "New England Patriots", "stadium": "Gillette Stadium", "stadium latitude": 42.091, "stadium longitude": -71.264, "radius": "3000 meters", "city": "Foxborough", "state": "Massachusetts", "businesses": [{"id": "LgkfP2Kedi5tQfE07-8Hhw", "alias": "novatos-bar-and-grill-norfolk", "name": "Novatos Bar and Grill", "image_url": "https://s3-media1.fl.yelpcdn.com/bphoto/Beg5qGnDcbrlxkyAfhYxxw/o.jpg", "is_closed": false, "url": "https://www.yelp.com/biz/novatos-bar-and-grill-norfolk?adjust_creative=a2JdNtFqB-C38ga_06BHvw&utm_campaign=yelp_api_v3&utm_medium=api_v3_business_search&utm_source=a2JdNtFqB-C38ga_06BHvw", "review_count": 134, "categories": [{"alias": "seafood", "title": "Seafood"}, {"alias": "newamerican", "title": "American (New)"}, {"alias": "bars", "title": "Bars"}], "rating": 4.0, "coordinates": {"latitude": 42.090666, "longitude": -71.299934}, "transactions": ["delivery"], "price": "$$", "location": {"address1": "218 Dedham St", "address2": "", "address3": "", "city": "Norfolk", "zip_code": "02056", "country": "US", "state": "MA", "display_address": ["218 Dedham St", "Norfolk, MA 02056"]}, "phone": "+15083845122", "display_phone": "(508) 384-5122", "distance": 2965.35473672534}, {"id": "NGXRuimmph74ukpTSSvwWw", "alias": "bapu-gs-gourmet-kebabs-and-sandwiches-foxborough", "name": "Bapu G's Gourmet Kebabs and Sandwiches", "image_url": "https://s3-media2.fl.yelpcdn.com/bphoto/YuuVtC1T7Fq6Bj_jKAsa5A/o.jpg", "is_closed": false, "url": "https://www.yelp.com/biz/bapu-gs-gourmet-kebabs-and-sandwiches-foxborough?adjust_creative=a2JdNtFqB-C38ga_06BHvw&utm_campaign=yelp_api_v3&utm_medium=api_v3_business_search&utm_source=a2JdNtFqB-C38ga_06BHvw", "review_count": 42, "categories": [{"alias": "indpak", "title": "Indian"}, {"alias": "kebab", "title": "Kebab"}, {"alias": "wraps", "title": "Wraps"}], "rating": 4.5, "coordinates": {"latitude": 42.100952, "longitude": -71.261294}, "transactions": ["delivery", "pickup"], "location": {"address1": "29 Washington St Foxborough Ma 02035", "address2": null, "address3": "", "city": "Foxborough", "zip_code": "02035", "country": "US", "state": "MA", "display_address": ["29 Washington St Foxborough Ma 02035", "Foxborough, MA 02035"]}, "phone": "+17742156065", "display_phone": "(774) 215-6065", "distance": 1123.311755147535}, {"id": "lP7MuhI0tIMp7ai2MjZI1A", "alias": "union-straw-foxborough", "name": "Union Straw", "image_url": "https://s3-media3.fl.yelpcdn.com/bphoto/Ba629eMoFAo7-rXQsgnRzg/o.jpg", "is_closed": false, "url": "https://www.yelp.com/biz/union-straw-foxborough?adjust_creative=a2JdNtFqB-C38ga_06BHvw&utm_campaign=yelp_api_v3&utm_medium=api_v3_business_search&utm_source=a2JdNtFqB-C38ga_06BHvw", "review_count": 206, "categories": [{"alias": "newamerican", "title": "American (New)"}], "rating": 4.0, "coordinates": {"latitude": 42.066001, "longitude": -71.249476}, "transactions": ["delivery", "pickup"], "price": "$$", "location": {"address1": "8 Mechanic St", "address2": "", "address3": "", "city": "Foxborough", "zip_code": "02035", "country": "US", "state": "MA", "display_address": ["8 Mechanic St", "Foxborough, MA 02035"]}, "phone": "+17742153377", "display_phone": "(774) 215-3377", "distance": 3027.197127614891}, {"id": "4XHgPQweYSvnYv7W5TtdCA", "alias": "the-commons-neighborhood-eatery-foxboro-2", "name": "The Commons Neighborhood Eatery", "image_url": "https://s3-media1.fl.yelpcdn.com/bphoto/KhaDoxrY1fYtXuuuGbBknw/o.jpg", "is_closed": false, "url": "https://www.yelp.com/biz/the-commons-neighborhood-eatery-foxboro-2?adjust_creative=a2JdNtFqB-C38ga_06BHvw&utm_campaign=yelp_api_v3&utm_medium=api_v3_business_search&utm_source=a2JdNtFqB-C38ga_06BHvw", "review_count": 99, "categories": [{"alias": "breakfast_brunch", "title": "Breakfast & Brunch"}, {"alias": "burgers", "title": "Burgers"}, {"alias": "tradamerican", "title": "American (Traditional)"}], "rating": 4.0, "coordinates": {"latitude": 42.063894, "longitude": -71.249208}, "transactions": ["delivery", "pickup"], "price": "$", "location": {"address1": "20 Central St", "address2": "", "address3": "", "city": "Foxboro", "zip_code": "02035", "country": "US", "state": "MA", "display_address": ["20 Central St", "Foxboro, MA 02035"]}, "phone": "+15085434432", "display_phone": "(508) 543-4432", "distance": 3251.907689300326}, {"id": "Ma-3e2NkFbd6Y9-KI6lA-w", "alias": "tavolino-foxborough", "name": "Tavolino", "image_url": "https://s3-media4.fl.yelpcdn.com/bphoto/hR50wFdVStSAUWKvTDBYKw/o.jpg", "is_closed": false, "url": "https://www.yelp.com/biz/tavolino-foxborough?adjust_creative=a2JdNtFqB-C38ga_06BHvw&utm_campaign=yelp_api_v3&utm_medium=api_v3_business_search&utm_source=a2JdNtFqB-C38ga_06BHvw", "review_count": 353, "categories": [{"alias": "italian", "title": "Italian"}, {"alias": "desserts", "title": "Desserts"}, {"alias": "wine_bars", "title": "Wine Bars"}], "rating": 3.5, "coordinates": {"latitude": 42.0920499, "longitude": -71.2683238}, "transactions": ["delivery"], "price": "$$", "location": {"address1": "274 Patriot Pl", "address2": "", "address3": "", "city": "Foxborough", "zip_code": "02035", "country": "US", "state": "MA", "display_address": ["274 Patriot Pl", "Foxborough, MA 02035"]}, "phone": "+15085436543", "display_phone": "(508) 543-6543", "distance": 361.30490835791153}, {"id": "pxfZ6m4e9ULUbdhibCEEdw", "alias": "horse-n-carriage-norfolk", "name": "Horse N' Carriage", "image_url": "https://s3-media4.fl.yelpcdn.com/bphoto/Kyudz14dRvNsdg4_Q85qew/o.jpg", "is_closed": false, "url": "https://www.yelp.com/biz/horse-n-carriage-norfolk?adjust_creative=a2JdNtFqB-C38ga_06BHvw&utm_campaign=yelp_api_v3&utm_medium=api_v3_business_search&utm_source=a2JdNtFqB-C38ga_06BHvw", "review_count": 69, "categories": [{"alias": "venues", "title": "Venues & Event Spaces"}, {"alias": "tradamerican", "title": "American (Traditional)"}, {"alias": "seafood", "title": "Seafood"}], "rating": 4.0, "coordinates": {"latitude": 42.090951, "longitude": -71.299471}, "transactions": ["delivery", "pickup"], "price": "$$", "location": {"address1": "210 Dedham St", "address2": "", "address3": "", "city": "Norfolk", "zip_code": "02056", "country": "US", "state": "MA", "display_address": ["210 Dedham St", "Norfolk, MA 02056"]}, "phone": "+15083842274", "display_phone": "(508) 384-2274", "distance": 2937.6459716046784}, {"id": "9r0z9JFHFD5k5Ar2wb2zow", "alias": "five-guys-foxborough", "name": "Five Guys", "image_url": "https://s3-media1.fl.yelpcdn.com/bphoto/s6NbxzzZRpWoj1RAOQZatg/o.jpg", "is_closed": false, "url": "https://www.yelp.com/biz/five-guys-foxborough?adjust_creative=a2JdNtFqB-C38ga_06BHvw&utm_campaign=yelp_api_v3&utm_medium=api_v3_business_search&utm_source=a2JdNtFqB-C38ga_06BHvw", "review_count": 92, "categories": [{"alias": "burgers", "title": "Burgers"}, {"alias": "hotdogs", "title": "Fast Food"}], "rating": 4.0, "coordinates": {"latitude": 42.0917022133316, "longitude": -71.2676829099655}, "transactions": ["delivery"], "price": "$", "location": {"address1": "269 Patriot Pl", "address2": "", "address3": "", "city": "Foxborough", "zip_code": "02035", "country": "US", "state": "MA", "display_address": ["269 Patriot Pl", "Foxborough, MA 02035"]}, "phone": "+15082039441", "display_phone": "(508) 203-9441", "distance": 313.7666036942001}, {"id": "2EwsGgYyNl-YKoIGBozNkw", "alias": "davios-northern-italian-steakhouse-foxborough", "name": "Davio's Northern Italian Steakhouse", "image_url": "https://s3-media3.fl.yelpcdn.com/bphoto/zdrTW6DaokQ2JV7tpegE4Q/o.jpg", "is_closed": false, "url": "https://www.yelp.com/biz/davios-northern-italian-steakhouse-foxborough?adjust_creative=a2JdNtFqB-C38ga_06BHvw&utm_campaign=yelp_api_v3&utm_medium=api_v3_business_search&utm_source=a2JdNtFqB-C38ga_06BHvw", "review_count": 297, "categories": [{"alias": "steak", "title": "Steakhouses"}, {"alias": "italian", "title": "Italian"}, {"alias": "gluten_free", "title": "Gluten-Free"}], "rating": 3.5, "coordinates": {"latitude": 42.093375, "longitude": -71.2671}, "transactions": ["delivery", "pickup"], "price": "$$$", "location": {"address1": "236 Patriot Pl", "address2": "", "address3": "", "city": "Foxborough", "zip_code": "02035", "country": "US", "state": "MA", "display_address": ["236 Patriot Pl", "Foxborough, MA 02035"]}, "phone": "+15083394810", "display_phone": "(508) 339-4810", "distance": 367.6582504471351}, {"id": "G6CjOCafQ3uVR52btT2u5w", "alias": "citizen-crust-foxborough-2", "name": "Citizen Crust", "image_url": "https://s3-media3.fl.yelpcdn.com/bphoto/MFAS14cyUqDYtIO4Fb4-Ug/o.jpg", "is_closed": false, "url": "https://www.yelp.com/biz/citizen-crust-foxborough-2?adjust_creative=a2JdNtFqB-C38ga_06BHvw&utm_campaign=yelp_api_v3&utm_medium=api_v3_business_search&utm_source=a2JdNtFqB-C38ga_06BHvw", "review_count": 65, "categories": [{"alias": "pizza", "title": "Pizza"}, {"alias": "bars", "title": "Bars"}, {"alias": "tacos", "title": "Tacos"}], "rating": 4.0, "coordinates": {"latitude": 42.09317067, "longitude": -71.26662417}, "transactions": [], "location": {"address1": "229 Patriot Pl", "address2": null, "address3": "", "city": "Foxborough", "zip_code": "02035", "country": "US", "state": "MA", "display_address": ["229 Patriot Pl", "Foxborough, MA 02035"]}, "phone": "+15085436547", "display_phone": "(508) 543-6547", "distance": 312.7631671411221}, {"id": "AhWUYVb5nrUWuebmPYn1Tw", "alias": "mai-pearl-foxboro-2", "name": "Mai Pearl", "image_url": "https://s3-media4.fl.yelpcdn.com/bphoto/6v_wKN5x44_2jD0HhOY04Q/o.jpg", "is_closed": false, "url": "https://www.yelp.com/biz/mai-pearl-foxboro-2?adjust_creative=a2JdNtFqB-C38ga_06BHvw&utm_campaign=yelp_api_v3&utm_medium=api_v3_business_search&utm_source=a2JdNtFqB-C38ga_06BHvw", "review_count": 116, "categories": [{"alias": "chinese", "title": "Chinese"}, {"alias": "sushi", "title": "Sushi Bars"}, {"alias": "japanese", "title": "Japanese"}], "rating": 3.5, "coordinates": {"latitude": 42.0736316262445, "longitude": -71.2577879682662}, "transactions": ["delivery", "pickup"], "price": "$$", "location": {"address1": "121 Main St", "address2": "Unit 450", "address3": "", "city": "Foxboro", "zip_code": "02035", "country": "US", "state": "MA", "display_address": ["121 Main St", "Unit 450", "Foxboro, MA 02035"]}, "phone": "+15086982600", "display_phone": "(508) 698-2600", "distance": 1998.1578453200248}, {"id": "JDfgBcGE9lfBcs3n2IMc7w", "alias": "red-wing-diner-walpole", "name": "Red Wing Diner", "image_url": "https://s3-media3.fl.yelpcdn.com/bphoto/0Q6H_NZc8T303QotPiJqfw/o.jpg", "is_closed": false, "url": "https://www.yelp.com/biz/red-wing-diner-walpole?adjust_creative=a2JdNtFqB-C38ga_06BHvw&utm_campaign=yelp_api_v3&utm_medium=api_v3_business_search&utm_source=a2JdNtFqB-C38ga_06BHvw", "review_count": 205, "categories": [{"alias": "pizza", "title": "Pizza"}, {"alias": "seafood", "title": "Seafood"}], "rating": 3.5, "coordinates": {"latitude": 42.107708, "longitude": -71.250024}, "transactions": ["delivery"], "price": "$$", "location": {"address1": "2235 Boston-Providence Hwy", "address2": "", "address3": "", "city": "Walpole", "zip_code": "02081", "country": "US", "state": "MA", "display_address": ["2235 Boston-Providence Hwy", "Walpole, MA 02081"]}, "phone": "+15086680453", "display_phone": "(508) 668-0453", "distance": 2186.592390300875}, {"id": "SbUYaNS0mCI1WvLpqIN0WA", "alias": "olive-and-mint-foxborough", "name": "Olive & Mint", "image_url": "https://s3-media1.fl.yelpcdn.com/bphoto/bXWSTiAXcq3v341xWMl2tQ/o.jpg", "is_closed": false, "url": "https://www.yelp.com/biz/olive-and-mint-foxborough?adjust_creative=a2JdNtFqB-C38ga_06BHvw&utm_campaign=yelp_api_v3&utm_medium=api_v3_business_search&utm_source=a2JdNtFqB-C38ga_06BHvw", "review_count": 72, "categories": [{"alias": "indpak", "title": "Indian"}, {"alias": "pizza", "title": "Pizza"}, {"alias": "newamerican", "title": "American (New)"}], "rating": 3.5, "coordinates": {"latitude": 42.1047515869141, "longitude": -71.2519989013672}, "transactions": ["delivery", "pickup"], "price": "$$", "location": {"address1": "2 Washington St", "address2": "", "address3": null, "city": "Foxborough", "zip_code": "02035", "country": "US", "state": "MA", "display_address": ["2 Washington St", "Foxborough, MA 02035"]}, "phone": "+15086682000", "display_phone": "(508) 668-2000", "distance": 1857.0459868864864}, {"id": "RS1C4CRuxs9rsjk9egazDw", "alias": "aroma-italian-pizza-and-roast-beef-norfolk", "name": "Aroma Italian Pizza & Roast Beef", "image_url": "https://s3-media2.fl.yelpcdn.com/bphoto/pFgo8vXVXgPg6Lp0JnjkWg/o.jpg", "is_closed": false, "url": "https://www.yelp.com/biz/aroma-italian-pizza-and-roast-beef-norfolk?adjust_creative=a2JdNtFqB-C38ga_06BHvw&utm_campaign=yelp_api_v3&utm_medium=api_v3_business_search&utm_source=a2JdNtFqB-C38ga_06BHvw", "review_count": 43, "categories": [{"alias": "pizza", "title": "Pizza"}, {"alias": "italian", "title": "Italian"}, {"alias": "steak", "title": "Steakhouses"}], "rating": 4.0, "coordinates": {"latitude": 42.09085, "longitude": -71.29665}, "transactions": ["delivery", "pickup"], "price": "$", "location": {"address1": "17 Pine St", "address2": "", "address3": "", "city": "Norfolk", "zip_code": "02056", "country": "US", "state": "MA", "display_address": ["17 Pine St", "Norfolk, MA 02056"]}, "phone": "+15083842922", "display_phone": "(508) 384-2922", "distance": 2687.1447478850037}, {"id": "IgcXtZT_65Yev05ZAM3ksQ", "alias": "skipjacks-best-fresh-seafood-foxboro-2", "name": "Skipjack's Best Fresh Seafood", "image_url": "https://s3-media2.fl.yelpcdn.com/bphoto/t9DiILW-_CClzqSmtQF1HQ/o.jpg", "is_closed": false, "url": "https://www.yelp.com/biz/skipjacks-best-fresh-seafood-foxboro-2?adjust_creative=a2JdNtFqB-C38ga_06BHvw&utm_campaign=yelp_api_v3&utm_medium=api_v3_business_search&utm_source=a2JdNtFqB-C38ga_06BHvw", "review_count": 298, "categories": [{"alias": "seafood", "title": "Seafood"}, {"alias": "sushi", "title": "Sushi Bars"}, {"alias": "tradamerican", "title": "American (Traditional)"}], "rating": 3.0, "coordinates": {"latitude": 42.093517345622, "longitude": -71.2662589246316}, "transactions": ["delivery"], "price": "$$$", "location": {"address1": "226 Patriot Pl", "address2": "", "address3": "", "city": "Foxboro", "zip_code": "02035", "country": "US", "state": "MA", "display_address": ["226 Patriot Pl", "Foxboro, MA 02035"]}, "phone": "+15085432200", "display_phone": "(508) 543-2200", "distance": 336.29612551499594}, {"id": "1AIwiNG1XERZnsEcLR40aQ", "alias": "primos-sandwich-shops-foxboro", "name": "Primo's Sandwich Shops", "image_url": "https://s3-media4.fl.yelpcdn.com/bphoto/91EU_-D6mxPArj2kOlcPlg/o.jpg", "is_closed": false, "url": "https://www.yelp.com/biz/primos-sandwich-shops-foxboro?adjust_creative=a2JdNtFqB-C38ga_06BHvw&utm_campaign=yelp_api_v3&utm_medium=api_v3_business_search&utm_source=a2JdNtFqB-C38ga_06BHvw", "review_count": 35, "categories": [{"alias": "sandwiches", "title": "Sandwiches"}], "rating": 4.0, "coordinates": {"latitude": 42.065567, "longitude": -71.249267}, "transactions": [], "price": "$", "location": {"address1": "6 Mechanic St", "address2": "", "address3": "", "city": "Foxboro", "zip_code": "02035", "country": "US", "state": "MA", "display_address": ["6 Mechanic St", "Foxboro, MA 02035"]}, "phone": "+15085437400", "display_phone": "(508) 543-7400", "distance": 3075.4130166751884}, {"id": "O2nvnPUr8joy2D1i8rBE0g", "alias": "mandarin-chef-foxboro", "name": "Mandarin Chef", "image_url": "https://s3-media4.fl.yelpcdn.com/bphoto/gkM-goXeBqYA3_EwSruh3Q/o.jpg", "is_closed": false, "url": "https://www.yelp.com/biz/mandarin-chef-foxboro?adjust_creative=a2JdNtFqB-C38ga_06BHvw&utm_campaign=yelp_api_v3&utm_medium=api_v3_business_search&utm_source=a2JdNtFqB-C38ga_06BHvw", "review_count": 79, "categories": [{"alias": "chinese", "title": "Chinese"}], "rating": 3.5, "coordinates": {"latitude": 42.0673294067383, "longitude": -71.2463073730469}, "transactions": [], "price": "$$", "location": {"address1": "34 Mechanic St", "address2": "", "address3": "", "city": "Foxboro", "zip_code": "02035", "country": "US", "state": "MA", "display_address": ["34 Mechanic St", "Foxboro, MA 02035"]}, "phone": "+15086983888", "display_phone": "(508) 698-3888", "distance": 3008.0213073169484}, {"id": "gOOH-Pr3R7Tiv9O8MO08Gw", "alias": "conrad-s-restaurant-foxborough", "name": "Conradâ€™s Restaurant", "image_url": "https://s3-media4.fl.yelpcdn.com/bphoto/xzrCrzrndnaLvJPegSj54A/o.jpg", "is_closed": false, "url": "https://www.yelp.com/biz/conrad-s-restaurant-foxborough?adjust_creative=a2JdNtFqB-C38ga_06BHvw&utm_campaign=yelp_api_v3&utm_medium=api_v3_business_search&utm_source=a2JdNtFqB-C38ga_06BHvw", "review_count": 36, "categories": [{"alias": "seafood", "title": "Seafood"}, {"alias": "steak", "title": "Steakhouses"}, {"alias": "tradamerican", "title": "American (Traditional)"}], "rating": 4.0, "coordinates": {"latitude": 42.074309, "longitude": -71.258744}, "transactions": [], "price": "$$", "location": {"address1": "121 Main St", "address2": "", "address3": null, "city": "Foxborough", "zip_code": "02035", "country": "US", "state": "MA", "display_address": ["121 Main St", "Foxborough, MA 02035"]}, "phone": "+15085943006", "display_phone": "(508) 594-3006", "distance": 1905.9659753838187}, {"id": "1O3lggoGzbZzkJrMqTHNGw", "alias": "six-string-grill-and-stage-foxborough", "name": "Six String Grill & Stage", "image_url": "https://s3-media3.fl.yelpcdn.com/bphoto/Ja-VRTGI3lKbaj41LksVdg/o.jpg", "is_closed": false, "url": "https://www.yelp.com/biz/six-string-grill-and-stage-foxborough?adjust_creative=a2JdNtFqB-C38ga_06BHvw&utm_campaign=yelp_api_v3&utm_medium=api_v3_business_search&utm_source=a2JdNtFqB-C38ga_06BHvw", "review_count": 82, "categories": [{"alias": "newamerican", "title": "American (New)"}, {"alias": "musicvenues", "title": "Music Venues"}, {"alias": "bars", "title": "Bars"}], "rating": 3.5, "coordinates": {"latitude": 42.09152117, "longitude": -71.2680555}, "transactions": [], "location": {"address1": "275 Patriot Pl", "address2": "", "address3": null, "city": "Foxborough", "zip_code": "02035", "country": "US", "state": "MA", "display_address": ["275 Patriot Pl", "Foxborough, MA 02035"]}, "phone": "+17742157911", "display_phone": "(774) 215-7911", "distance": 332.16356769383253}, {"id": "nKkkg3vbuSzvDTtsvgoc3w", "alias": "eastern-pearl-walpole", "name": "Eastern Pearl", "image_url": "https://s3-media2.fl.yelpcdn.com/bphoto/KxJen3pPdEaDOxY4PD70SA/o.jpg", "is_closed": false, "url": "https://www.yelp.com/biz/eastern-pearl-walpole?adjust_creative=a2JdNtFqB-C38ga_06BHvw&utm_campaign=yelp_api_v3&utm_medium=api_v3_business_search&utm_source=a2JdNtFqB-C38ga_06BHvw", "review_count": 52, "categories": [{"alias": "chinese", "title": "Chinese"}, {"alias": "sushi", "title": "Sushi Bars"}, {"alias": "japanese", "title": "Japanese"}], "rating": 3.5, "coordinates": {"latitude": 42.105445, "longitude": -71.253881}, "transactions": ["delivery", "pickup"], "price": "$$", "location": {"address1": "2275 Boston Providence Hwy", "address2": "", "address3": "", "city": "Walpole", "zip_code": "02081", "country": "US", "state": "MA", "display_address": ["2275 Boston Providence Hwy", "Walpole, MA 02081"]}, "phone": "+15088509988", "display_phone": "(508) 850-9988", "distance": 1805.679289484855}, {"id": "Lz3iBlKIr373-rM8kF4hfA", "alias": "capriottis-sandwich-shop-foxboro-2", "name": "Capriotti's Sandwich Shop", "image_url": "https://s3-media2.fl.yelpcdn.com/bphoto/oPCB8rnhV8_HMYFgnHGWkg/o.jpg", "is_closed": false, "url": "https://www.yelp.com/biz/capriottis-sandwich-shop-foxboro-2?adjust_creative=a2JdNtFqB-C38ga_06BHvw&utm_campaign=yelp_api_v3&utm_medium=api_v3_business_search&utm_source=a2JdNtFqB-C38ga_06BHvw", "review_count": 76, "categories": [{"alias": "sandwiches", "title": "Sandwiches"}], "rating": 3.5, "coordinates": {"latitude": 42.0919574, "longitude": -71.2676244}, "transactions": ["pickup"], "price": "$$", "location": {"address1": "267 Patriots Pl", "address2": "", "address3": "", "city": "Foxboro", "zip_code": "02035", "country": "US", "state": "MA", "display_address": ["267 Patriots Pl", "Foxboro, MA 02035"]}, "phone": "+17742155279", "display_phone": "(774) 215-5279", "distance": 317.44992247115454}, {"id": "M-uOtjaqn7KbNUzb9WjK_g", "alias": "olive-garden-italian-restaurant-foxboro-3", "name": "Olive Garden Italian Restaurant", "image_url": "https://s3-media1.fl.yelpcdn.com/bphoto/A6l7SNkFBthRk4nuKSDcOA/o.jpg", "is_closed": false, "url": "https://www.yelp.com/biz/olive-garden-italian-restaurant-foxboro-3?adjust_creative=a2JdNtFqB-C38ga_06BHvw&utm_campaign=yelp_api_v3&utm_medium=api_v3_business_search&utm_source=a2JdNtFqB-C38ga_06BHvw", "review_count": 91, "categories": [{"alias": "italian", "title": "Italian"}, {"alias": "salad", "title": "Salad"}, {"alias": "soup", "title": "Soup"}], "rating": 3.0, "coordinates": {"latitude": 42.08601012111, "longitude": -71.2716270671495}, "transactions": [], "price": "$$", "location": {"address1": "392 Patriot Pl", "address2": null, "address3": null, "city": "Foxboro", "zip_code": "02035", "country": "US", "state": "MA", "display_address": ["392 Patriot Pl", "Foxboro, MA 02035"]}, "phone": "+15085433967", "display_phone": "(508) 543-3967", "distance": 839.0302591694611}, {"id": "FjUwRE1LRIl7j-n_PR9hSA", "alias": "bar-louie-foxboro-foxborough-3", "name": "Bar Louie - Foxboro", "image_url": "https://s3-media3.fl.yelpcdn.com/bphoto/mOgMx-mi-61i2IyMfic-WA/o.jpg", "is_closed": false, "url": "https://www.yelp.com/biz/bar-louie-foxboro-foxborough-3?adjust_creative=a2JdNtFqB-C38ga_06BHvw&utm_campaign=yelp_api_v3&utm_medium=api_v3_business_search&utm_source=a2JdNtFqB-C38ga_06BHvw", "review_count": 581, "categories": [{"alias": "newamerican", "title": "American (New)"}, {"alias": "gastropubs", "title": "Gastropubs"}, {"alias": "venues", "title": "Venues & Event Spaces"}], "rating": 2.5, "coordinates": {"latitude": 42.0936191353226, "longitude": -71.2666211779099}, "transactions": ["pickup", "delivery"], "price": "$$", "location": {"address1": "232 Patriot Pl", "address2": "", "address3": "", "city": "Foxborough", "zip_code": "02035", "country": "US", "state": "MA", "display_address": ["232 Patriot Pl", "Foxborough, MA 02035"]}, "phone": "+15089526800", "display_phone": "(508) 952-6800", "distance": 362.76154659721}, {"id": "hKO55qimyNqLnVouvBIfog", "alias": "achilitos-taqueria-foxborough", "name": "Achilito's Taqueria", "image_url": "https://s3-media3.fl.yelpcdn.com/bphoto/q0ZHeqUI0N3H0g5p_OOjLw/o.jpg", "is_closed": false, "url": "https://www.yelp.com/biz/achilitos-taqueria-foxborough?adjust_creative=a2JdNtFqB-C38ga_06BHvw&utm_campaign=yelp_api_v3&utm_medium=api_v3_business_search&utm_source=a2JdNtFqB-C38ga_06BHvw", "review_count": 14, "categories": [{"alias": "tex-mex", "title": "Tex-Mex"}, {"alias": "mexican", "title": "Mexican"}, {"alias": "hotdogs", "title": "Fast Food"}], "rating": 4.0, "coordinates": {"latitude": 42.091867, "longitude": -71.267528}, "transactions": ["pickup", "delivery"], "location": {"address1": "265 Patriot Pl", "address2": "", "address3": null, "city": "Foxborough", "zip_code": "02035", "country": "US", "state": "MA", "display_address": ["265 Patriot Pl", "Foxborough, MA 02035"]}, "phone": "+17742150532", "display_phone": "(774) 215-0532", "distance": 313.5890484782041}, {"id": "tMXrmW3yQnw8mX4avJhxPA", "alias": "chickie-flynns-foxborough", "name": "Chickie Flynn's", "image_url": "https://s3-media4.fl.yelpcdn.com/bphoto/ztrSA8p8CBN65vdmDjFsgA/o.jpg", "is_closed": false, "url": "https://www.yelp.com/biz/chickie-flynns-foxborough?adjust_creative=a2JdNtFqB-C38ga_06BHvw&utm_campaign=yelp_api_v3&utm_medium=api_v3_business_search&utm_source=a2JdNtFqB-C38ga_06BHvw", "review_count": 43, "categories": [{"alias": "tradamerican", "title": "American (Traditional)"}], "rating": 3.5, "coordinates": {"latitude": 42.0847434997559, "longitude": -71.2755508422852}, "transactions": ["delivery"], "price": "$$", "location": {"address1": "94 Washington St", "address2": "", "address3": "", "city": "Foxborough", "zip_code": "02035", "country": "US", "state": "MA", "display_address": ["94 Washington St", "Foxborough, MA 02035"]}, "phone": "+15082039471", "display_phone": "(508) 203-9471", "distance": 1218.674531001558}, {"id": "KuMulXaQTnoC_usJyO0NAw", "alias": "saga-hibachi-steakhouse-and-sushi-bar-foxborough", "name": "Saga Hibachi Steakhouse and Sushi Bar", "image_url": "https://s3-media1.fl.yelpcdn.com/bphoto/F1lrV8J-xj1LWTt0xu1q9A/o.jpg", "is_closed": false, "url": "https://www.yelp.com/biz/saga-hibachi-steakhouse-and-sushi-bar-foxborough?adjust_creative=a2JdNtFqB-C38ga_06BHvw&utm_campaign=yelp_api_v3&utm_medium=api_v3_business_search&utm_source=a2JdNtFqB-C38ga_06BHvw", "review_count": 207, "categories": [{"alias": "sushi", "title": "Sushi Bars"}, {"alias": "japanese", "title": "Japanese"}, {"alias": "steak", "title": "Steakhouses"}], "rating": 2.5, "coordinates": {"latitude": 42.0888939, "longitude": -71.2679778}, "transactions": ["pickup", "delivery"], "price": "$$", "location": {"address1": "295 Patriot Pl", "address2": "", "address3": "", "city": "Foxborough", "zip_code": "02035", "country": "US", "state": "MA", "display_address": ["295 Patriot Pl", "Foxborough, MA 02035"]}, "phone": "+15086981888", "display_phone": "(508) 698-1888", "distance": 403.21521934824403}, {"id": "zQCiCUIEYnLtRA9_e0e_ew", "alias": "splitsville-foxborough", "name": "Splitsville", "image_url": "https://s3-media3.fl.yelpcdn.com/bphoto/igLs93O-sHLBqtUuUu_3ZA/o.jpg", "is_closed": false, "url": "https://www.yelp.com/biz/splitsville-foxborough?adjust_creative=a2JdNtFqB-C38ga_06BHvw&utm_campaign=yelp_api_v3&utm_medium=api_v3_business_search&utm_source=a2JdNtFqB-C38ga_06BHvw", "review_count": 90, "categories": [{"alias": "bowling", "title": "Bowling"}, {"alias": "newamerican", "title": "American (New)"}], "rating": 3.0, "coordinates": {"latitude": 42.093492, "longitude": -71.265906}, "transactions": ["delivery"], "price": "$$", "location": {"address1": "220 Patriot Pl", "address2": "", "address3": "", "city": "Foxborough", "zip_code": "02035", "country": "US", "state": "MA", "display_address": ["220 Patriot Pl", "Foxborough, MA 02035"]}, "phone": "+15086982695", "display_phone": "(508) 698-2695", "distance": 318.6178694991659}, {"id": "0E9Syz7PxKnGBK1Dfg8aRw", "alias": "scorpion-bar-patriot-place-foxborough", "name": "Scorpion Bar Patriot Place", "image_url": "https://s3-media2.fl.yelpcdn.com/bphoto/TrLK48MKsE5qVwzXBVk60A/o.jpg", "is_closed": false, "url": "https://www.yelp.com/biz/scorpion-bar-patriot-place-foxborough?adjust_creative=a2JdNtFqB-C38ga_06BHvw&utm_campaign=yelp_api_v3&utm_medium=api_v3_business_search&utm_source=a2JdNtFqB-C38ga_06BHvw", "review_count": 265, "categories": [{"alias": "mexican", "title": "Mexican"}, {"alias": "bars", "title": "Bars"}], "rating": 2.5, "coordinates": {"latitude": 42.092168, "longitude": -71.267345}, "transactions": ["pickup", "delivery"], "price": "$$", "location": {"address1": "253 Patriot Pl", "address2": null, "address3": "", "city": "Foxborough", "zip_code": "02035", "country": "US", "state": "MA", "display_address": ["253 Patriot Pl", "Foxborough, MA 02035"]}, "phone": "+16172741745", "display_phone": "(617) 274-1745", "distance": 305.04146210534094}, {"id": "5p_EXh4Gxld_WWDYgWo0bw", "alias": "lafayette-house-foxboro", "name": "Lafayette House", "image_url": "https://s3-media2.fl.yelpcdn.com/bphoto/QRMLSkjicVhn_RnWlwkmkQ/o.jpg", "is_closed": false, "url": "https://www.yelp.com/biz/lafayette-house-foxboro?adjust_creative=a2JdNtFqB-C38ga_06BHvw&utm_campaign=yelp_api_v3&utm_medium=api_v3_business_search&utm_source=a2JdNtFqB-C38ga_06BHvw", "review_count": 120, "categories": [{"alias": "burgers", "title": "Burgers"}, {"alias": "sandwiches", "title": "Sandwiches"}], "rating": 2.5, "coordinates": {"latitude": 42.080767437481256, "longitude": -71.28125101165665}, "transactions": ["delivery"], "price": "$$$", "location": {"address1": "109 Washington St", "address2": "", "address3": "", "city": "Foxboro", "zip_code": "02035", "country": "US", "state": "MA", "display_address": ["109 Washington St", "Foxboro, MA 02035"]}, "phone": "+15085435344", "display_phone": "(508) 543-5344", "distance": 1822.421510799183}, {"id": "dausY-2Zbn_WmzxfiPl_lw", "alias": "rally-point-inn-and-pub-foxborough", "name": "Rally Point Inn & Pub", "image_url": "https://s3-media4.fl.yelpcdn.com/bphoto/OYhrQcRTrH98S29QK9NBdw/o.jpg", "is_closed": false, "url": "https://www.yelp.com/biz/rally-point-inn-and-pub-foxborough?adjust_creative=a2JdNtFqB-C38ga_06BHvw&utm_campaign=yelp_api_v3&utm_medium=api_v3_business_search&utm_source=a2JdNtFqB-C38ga_06BHvw", "review_count": 15, "categories": [{"alias": "pizza", "title": "Pizza"}, {"alias": "sandwiches", "title": "Sandwiches"}, {"alias": "pubs", "title": "Pubs"}], "rating": 3.5, "coordinates": {"latitude": 42.0653099, "longitude": -71.24848}, "transactions": ["pickup", "delivery"], "location": {"address1": "9 Mechanic St", "address2": null, "address3": null, "city": "Foxborough", "zip_code": "02035", "country": "US", "state": "MA", "display_address": ["9 Mechanic St", "Foxborough, MA 02035"]}, "phone": "+15085435564", "display_phone": "(508) 543-5564", "distance": 3119.64204101747}, {"id": "xkEFcjo_yzzUqRq5RtAycQ", "alias": "twenty8-food-and-spirits-foxboro", "name": "Twenty8 Food & Spirits", "image_url": "https://s3-media1.fl.yelpcdn.com/bphoto/wJKMHsMAbA8mzO0BxX-oPA/o.jpg", "is_closed": false, "url": "https://www.yelp.com/biz/twenty8-food-and-spirits-foxboro?adjust_creative=a2JdNtFqB-C38ga_06BHvw&utm_campaign=yelp_api_v3&utm_medium=api_v3_business_search&utm_source=a2JdNtFqB-C38ga_06BHvw", "review_count": 73, "categories": [{"alias": "newamerican", "title": "American (New)"}], "rating": 3.0, "coordinates": {"latitude": 42.090408, "longitude": -71.268531}, "transactions": ["delivery"], "price": "$$", "location": {"address1": "28 Patriot Pl", "address2": "", "address3": "", "city": "Foxboro", "zip_code": "02035", "country": "US", "state": "MA", "display_address": ["28 Patriot Pl", "Foxboro, MA 02035"]}, "phone": "+15085435500", "display_phone": "(508) 543-5500", "distance": 368.5368144846226}, {"id": "2RtFsznDgDVvKrT5hxGlTw", "alias": "cbs-sporting-club-foxborough", "name": "CBS Sporting Club", "image_url": "https://s3-media1.fl.yelpcdn.com/bphoto/DPB8jm2_6y5D61mkN5AV9g/o.jpg", "is_closed": false, "url": "https://www.yelp.com/biz/cbs-sporting-club-foxborough?adjust_creative=a2JdNtFqB-C38ga_06BHvw&utm_campaign=yelp_api_v3&utm_medium=api_v3_business_search&utm_source=a2JdNtFqB-C38ga_06BHvw", "review_count": 62, "categories": [{"alias": "gastropubs", "title": "Gastropubs"}], "rating": 3.0, "coordinates": {"latitude": 42.0946203, "longitude": -71.2664731}, "transactions": ["pickup", "delivery"], "price": "$$", "location": {"address1": "200 Patriot Pl", "address2": null, "address3": "", "city": "Foxborough", "zip_code": "02035", "country": "US", "state": "MA", "display_address": ["200 Patriot Pl", "Foxborough, MA 02035"]}, "phone": "+16174109742", "display_phone": "(617) 410-9742", "distance": 260.4735900558743}, {"id": "MHeA0E-KhmJ_ihN_yyEGSA", "alias": "omega-pizza-foxboro", "name": "Omega Pizza", "image_url": "https://s3-media3.fl.yelpcdn.com/bphoto/cuMbG0HLdT-IcbVk5MGE5A/o.jpg", "is_closed": false, "url": "https://www.yelp.com/biz/omega-pizza-foxboro?adjust_creative=a2JdNtFqB-C38ga_06BHvw&utm_campaign=yelp_api_v3&utm_medium=api_v3_business_search&utm_source=a2JdNtFqB-C38ga_06BHvw", "review_count": 24, "categories": [{"alias": "pizza", "title": "Pizza"}], "rating": 3.5, "coordinates": {"latitude": 42.0736274719238, "longitude": -71.2600402832031}, "transactions": ["delivery"], "price": "$", "location": {"address1": "126 Main St", "address2": "", "address3": "", "city": "Foxboro", "zip_code": "02035", "country": "US", "state": "MA", "display_address": ["126 Main St", "Foxboro, MA 02035"]}, "phone": "+15085433440", "display_phone": "(508) 543-3440", "distance": 1953.9104048672507}, {"id": "UEoT055EEBSadj_0sbnXyw", "alias": "pizza-time-foxboro", "name": "Pizza Time", "image_url": "https://s3-media1.fl.yelpcdn.com/bphoto/F5wN2qMwmJX9czaxa8IoxQ/o.jpg", "is_closed": false, "url": "https://www.yelp.com/biz/pizza-time-foxboro?adjust_creative=a2JdNtFqB-C38ga_06BHvw&utm_campaign=yelp_api_v3&utm_medium=api_v3_business_search&utm_source=a2JdNtFqB-C38ga_06BHvw", "review_count": 24, "categories": [{"alias": "pizza", "title": "Pizza"}], "rating": 3.0, "coordinates": {"latitude": 42.0739402770996, "longitude": -71.2577819824219}, "transactions": ["delivery"], "price": "$", "location": {"address1": "121 Main St", "address2": "", "address3": "", "city": "Foxboro", "zip_code": "02035", "country": "US", "state": "MA", "display_address": ["121 Main St", "Foxboro, MA 02035"]}, "phone": "+15086980500", "display_phone": "(508) 698-0500", "distance": 1906.9042503733963}, {"id": "Xf8Ln0nEGNil7k3Xet0NdQ", "alias": "red-robin-gourmet-burgers-and-brews-foxboro", "name": "Red Robin Gourmet Burgers and Brews", "image_url": "https://s3-media1.fl.yelpcdn.com/bphoto/A6SKilDv_eC6-PBtKQtILw/o.jpg", "is_closed": false, "url": "https://www.yelp.com/biz/red-robin-gourmet-burgers-and-brews-foxboro?adjust_creative=a2JdNtFqB-C38ga_06BHvw&utm_campaign=yelp_api_v3&utm_medium=api_v3_business_search&utm_source=a2JdNtFqB-C38ga_06BHvw", "review_count": 109, "categories": [{"alias": "burgers", "title": "Burgers"}, {"alias": "tradamerican", "title": "American (Traditional)"}], "rating": 2.5, "coordinates": {"latitude": 42.092965, "longitude": -71.26559}, "transactions": ["pickup", "delivery"], "price": "$$", "location": {"address1": "201 Patriot Pl", "address2": null, "address3": null, "city": "Foxboro", "zip_code": "02035", "country": "US", "state": "MA", "display_address": ["201 Patriot Pl", "Foxboro, MA 02035"]}, "phone": "+15086980030", "display_phone": "(508) 698-0030", "distance": 249.49121890063628}, {"id": "5fB2BtQ5lEMiSbAI0UgXIg", "alias": "south-street-pizzeria-foxboro", "name": "South Street Pizzeria", "image_url": "https://s3-media4.fl.yelpcdn.com/bphoto/LyvwieIfH67yumZX_a_yJg/o.jpg", "is_closed": false, "url": "https://www.yelp.com/biz/south-street-pizzeria-foxboro?adjust_creative=a2JdNtFqB-C38ga_06BHvw&utm_campaign=yelp_api_v3&utm_medium=api_v3_business_search&utm_source=a2JdNtFqB-C38ga_06BHvw", "review_count": 14, "categories": [{"alias": "pizza", "title": "Pizza"}, {"alias": "italian", "title": "Italian"}], "rating": 3.5, "coordinates": {"latitude": 42.06451, "longitude": -71.24976}, "transactions": ["pickup", "delivery"], "price": "$", "location": {"address1": "16 South St", "address2": null, "address3": null, "city": "Foxboro", "zip_code": "02035", "country": "US", "state": "MA", "display_address": ["16 South St", "Foxboro, MA 02035"]}, "phone": "+15086983999", "display_phone": "(508) 698-3999", "distance": 3171.359208172338}, {"id": "hVAw2E1GEFgPU-l_z6Q0og", "alias": "papa-ginos-pizzeria-foxboro-2", "name": "Papa Gino's Pizzeria", "image_url": "https://s3-media2.fl.yelpcdn.com/bphoto/iAW2Q5HNtI4p8Uc4ZlL64g/o.jpg", "is_closed": false, "url": "https://www.yelp.com/biz/papa-ginos-pizzeria-foxboro-2?adjust_creative=a2JdNtFqB-C38ga_06BHvw&utm_campaign=yelp_api_v3&utm_medium=api_v3_business_search&utm_source=a2JdNtFqB-C38ga_06BHvw", "review_count": 15, "categories": [{"alias": "pizza", "title": "Pizza"}], "rating": 3.0, "coordinates": {"latitude": 42.10273, "longitude": -71.25861}, "transactions": ["pickup", "delivery"], "price": "$", "location": {"address1": "211 N St", "address2": "", "address3": "", "city": "Foxboro", "zip_code": "02035", "country": "US", "state": "MA", "display_address": ["211 N St", "Foxboro, MA 02035"]}, "phone": "+15085431516", "display_phone": "(508) 543-1516", "distance": 1362.5801661949722}, {"id": "XT-w-jQ3Kfl_ncWXmj9fwg", "alias": "dairy-queen-grill-and-chill-foxboro", "name": "Dairy Queen Grill & Chill", "image_url": "https://s3-media1.fl.yelpcdn.com/bphoto/lTWxZRn7QrHM2Mr7D6iQtw/o.jpg", "is_closed": false, "url": "https://www.yelp.com/biz/dairy-queen-grill-and-chill-foxboro?adjust_creative=a2JdNtFqB-C38ga_06BHvw&utm_campaign=yelp_api_v3&utm_medium=api_v3_business_search&utm_source=a2JdNtFqB-C38ga_06BHvw", "review_count": 23, "categories": [{"alias": "icecream", "title": "Ice Cream & Frozen Yogurt"}, {"alias": "burgers", "title": "Burgers"}, {"alias": "hotdogs", "title": "Fast Food"}], "rating": 2.5, "coordinates": {"latitude": 42.073468, "longitude": -71.2595911}, "transactions": [], "price": "$", "location": {"address1": "122 Main St", "address2": "", "address3": "", "city": "Foxboro", "zip_code": "02035", "country": "US", "state": "MA", "display_address": ["122 Main St", "Foxboro, MA 02035"]}, "phone": "+15085436488", "display_phone": "(508) 543-6488", "distance": 1983.1318252164554}, {"id": "q9DTFPiJsIcpOta04lg0BA", "alias": "studio-3-foxboro", "name": "Studio 3", "image_url": "https://s3-media4.fl.yelpcdn.com/bphoto/YYp1XS1NtbTjkmtNmcjoBw/o.jpg", "is_closed": false, "url": "https://www.yelp.com/biz/studio-3-foxboro?adjust_creative=a2JdNtFqB-C38ga_06BHvw&utm_campaign=yelp_api_v3&utm_medium=api_v3_business_search&utm_source=a2JdNtFqB-C38ga_06BHvw", "review_count": 17, "categories": [{"alias": "newamerican", "title": "American (New)"}], "rating": 2.0, "coordinates": {"latitude": 42.093993, "longitude": -71.266094}, "transactions": [], "price": "$$", "location": {"address1": "24 Patriot Pl", "address2": "", "address3": "", "city": "Foxboro", "zip_code": "02035", "country": "US", "state": "MA", "display_address": ["24 Patriot Pl", "Foxboro, MA 02035"]}, "phone": "+15085431450", "display_phone": "(508) 543-1450", "distance": 374.9853453465483}, {"id": "atlqtNT8XRtOem-XVZBVRg", "alias": "bytes-restaurant-foxborough", "name": "Bytes Restaurant", "image_url": "https://s3-media1.fl.yelpcdn.com/bphoto/hp-eVvrJlzbfK5ZTP0N-Vg/o.jpg", "is_closed": false, "url": "https://www.yelp.com/biz/bytes-restaurant-foxborough?adjust_creative=a2JdNtFqB-C38ga_06BHvw&utm_campaign=yelp_api_v3&utm_medium=api_v3_business_search&utm_source=a2JdNtFqB-C38ga_06BHvw", "review_count": 4, "categories": [{"alias": "pizza", "title": "Pizza"}], "rating": 3.5, "coordinates": {"latitude": 42.093842, "longitude": -71.265342}, "transactions": ["pickup", "delivery"], "location": {"address1": "23 Patriot Pl", "address2": "", "address3": null, "city": "Foxborough", "zip_code": "02035", "country": "US", "state": "MA", "display_address": ["23 Patriot Pl", "Foxborough, MA 02035"]}, "phone": "+17742150472", "display_phone": "(774) 215-0472", "distance": 348.2540221358489}, {"id": "g2YYkRWZLtqBS4xi1amWug", "alias": "mcdonalds-foxborough", "name": "McDonald's", "image_url": "https://s3-media2.fl.yelpcdn.com/bphoto/nAdNs24cbzd0qTPpUdA4-g/o.jpg", "is_closed": false, "url": "https://www.yelp.com/biz/mcdonalds-foxborough?adjust_creative=a2JdNtFqB-C38ga_06BHvw&utm_campaign=yelp_api_v3&utm_medium=api_v3_business_search&utm_source=a2JdNtFqB-C38ga_06BHvw", "review_count": 25, "categories": [{"alias": "burgers", "title": "Burgers"}, {"alias": "hotdogs", "title": "Fast Food"}, {"alias": "coffee", "title": "Coffee & Tea"}], "rating": 1.5, "coordinates": {"latitude": 42.1022513746454, "longitude": -71.2596616847532}, "transactions": ["delivery"], "price": "$", "location": {"address1": "212 North St", "address2": "", "address3": "", "city": "Foxborough", "zip_code": "02035", "country": "US", "state": "MA", "display_address": ["212 North St", "Foxborough, MA 02035"]}, "phone": "+15085430165", "display_phone": "(508) 543-0165", "distance": 1301.2928484814088}, {"id": "r5QY5Z0eekMya5Kc9QYonw", "alias": "subway-foxboro-5", "name": "Subway", "image_url": "https://s3-media1.fl.yelpcdn.com/bphoto/65mzfDQ_XhaCqokVq5wVYQ/o.jpg", "is_closed": false, "url": "https://www.yelp.com/biz/subway-foxboro-5?adjust_creative=a2JdNtFqB-C38ga_06BHvw&utm_campaign=yelp_api_v3&utm_medium=api_v3_business_search&utm_source=a2JdNtFqB-C38ga_06BHvw", "review_count": 4, "categories": [{"alias": "sandwiches", "title": "Sandwiches"}], "rating": 2.0, "coordinates": {"latitude": 42.0639047, "longitude": -71.249411}, "transactions": ["pickup", "delivery"], "price": "$", "location": {"address1": "18 Central St", "address2": null, "address3": null, "city": "Foxboro", "zip_code": "02035", "country": "US", "state": "MA", "display_address": ["18 Central St", "Foxboro, MA 02035"]}, "phone": "+15085431315", "display_phone": "(508) 543-1315", "distance": 3244.5500734467723}, {"id": "f6a6OeWMSpfgYo3OystspQ", "alias": "aroma-pizza-ngrill-foxboro", "name": "Aroma Pizza N'grill", "image_url": "", "is_closed": false, "url": "https://www.yelp.com/biz/aroma-pizza-ngrill-foxboro?adjust_creative=a2JdNtFqB-C38ga_06BHvw&utm_campaign=yelp_api_v3&utm_medium=api_v3_business_search&utm_source=a2JdNtFqB-C38ga_06BHvw", "review_count": 2, "categories": [{"alias": "pizza", "title": "Pizza"}], "rating": 2.5, "coordinates": {"latitude": 42.06435, "longitude": -71.249374}, "transactions": [], "location": {"address1": "16 South St", "address2": null, "address3": null, "city": "Foxboro", "zip_code": "02035", "country": "US", "state": "MA", "display_address": ["16 South St", "Foxboro, MA 02035"]}, "phone": "+15086983999", "display_phone": "(508) 698-3999", "distance": 3191.6754509173584}, {"id": "roXZ0dROoYjaFAmXpct33Q", "alias": "d-angelo-foxboro", "name": "D'Angelo", "image_url": "https://s3-media2.fl.yelpcdn.com/bphoto/1t75jq75MjQ2z_ptotXWdw/o.jpg", "is_closed": false, "url": "https://www.yelp.com/biz/d-angelo-foxboro?adjust_creative=a2JdNtFqB-C38ga_06BHvw&utm_campaign=yelp_api_v3&utm_medium=api_v3_business_search&utm_source=a2JdNtFqB-C38ga_06BHvw", "review_count": 2, "categories": [{"alias": "sandwiches", "title": "Sandwiches"}], "rating": 1.5, "coordinates": {"latitude": 42.1027302802552, "longitude": -71.2586100026965}, "transactions": ["pickup", "delivery"], "location": {"address1": "211 N St", "address2": null, "address3": null, "city": "Foxboro", "zip_code": "02035", "country": "US", "state": "MA", "display_address": ["211 N St", "Foxboro, MA 02035"]}, "phone": "+15085432342", "display_phone": "(508) 543-2342", "distance": 1378.0757328893005}, {"id": "4IRRwKH3uChKjE-wmTSrNg", "alias": "baristo-cafe-bar-foxborough", "name": "Baristo Cafe Bar", "image_url": "https://s3-media4.fl.yelpcdn.com/bphoto/P7D3VrmtFOL7xu7jDmJ0Ng/o.jpg", "is_closed": false, "url": "https://www.yelp.com/biz/baristo-cafe-bar-foxborough?adjust_creative=a2JdNtFqB-C38ga_06BHvw&utm_campaign=yelp_api_v3&utm_medium=api_v3_business_search&utm_source=a2JdNtFqB-C38ga_06BHvw", "review_count": 2, "categories": [{"alias": "breakfast_brunch", "title": "Breakfast & Brunch"}, {"alias": "cocktailbars", "title": "Cocktail Bars"}], "rating": 1.0, "coordinates": {"latitude": 42.09210417, "longitude": -71.26818133}, "transactions": ["pickup"], "location": {"address1": "270 Patriot Pl", "address2": "", "address3": "Inside Tavolina", "city": "Foxborough", "zip_code": "02035", "country": "US", "state": "MA", "display_address": ["270 Patriot Pl", "Inside Tavolina", "Foxborough, MA 02035"]}, "phone": "", "display_phone": "", "distance": 367.2609123316561}], "absolute total": 44, "total": 44}