{"league": "NFL", "team": "New York Giants", "stadium": "MetLife Stadium", "stadium latitude": 40.813528000000005, "stadium longitude": -74.074361, "radius": "3000 meters", "city": "East Rutherford", "state": "New Jersey", "businesses": [{"id": "6tJB7AWwVzccgJdOMWUYkQ", "alias": "samurai-sushi-east-rutherford", "name": "Samurai Sushi", "image_url": "https://s3-media4.fl.yelpcdn.com/bphoto/WIO2zepAsWP3yMr1ePKW7Q/o.jpg", "is_closed": false, "url": "https://www.yelp.com/biz/samurai-sushi-east-rutherford?adjust_creative=a2JdNtFqB-C38ga_06BHvw&utm_campaign=yelp_api_v3&utm_medium=api_v3_business_search&utm_source=a2JdNtFqB-C38ga_06BHvw", "review_count": 304, "categories": [{"alias": "japanese", "title": "Japanese"}, {"alias": "sushi", "title": "Sushi Bars"}, {"alias": "asianfusion", "title": "Asian Fusion"}], "rating": 4.5, "coordinates": {"latitude": 40.8339891469313, "longitude": -74.0975059568882}, "transactions": ["pickup"], "price": "$$", "location": {"address1": "245 Paterson Ave", "address2": null, "address3": "", "city": "East Rutherford", "zip_code": "07073", "country": "US", "state": "NJ", "display_address": ["245 Paterson Ave", "East Rutherford, NJ 07073"]}, "phone": "+12018961760", "display_phone": "(201) 896-1760", "distance": 2994.859846599405}, {"id": "PJLClxTRhh2yOfp3kvxTFg", "alias": "suprema-rutherford", "name": "Suprema", "image_url": "https://s3-media3.fl.yelpcdn.com/bphoto/4yQUVt5XDqvpcl3zTV2knQ/o.jpg", "is_closed": false, "url": "https://www.yelp.com/biz/suprema-rutherford?adjust_creative=a2JdNtFqB-C38ga_06BHvw&utm_campaign=yelp_api_v3&utm_medium=api_v3_business_search&utm_source=a2JdNtFqB-C38ga_06BHvw", "review_count": 143, "categories": [{"alias": "delis", "title": "Delis"}, {"alias": "italian", "title": "Italian"}, {"alias": "sandwiches", "title": "Sandwiches"}], "rating": 4.5, "coordinates": {"latitude": 40.8274383544922, "longitude": -74.1047973632812}, "transactions": ["pickup", "delivery"], "price": "$$", "location": {"address1": "92 Park Ave", "address2": "", "address3": null, "city": "Rutherford", "zip_code": "07070", "country": "US", "state": "NJ", "display_address": ["92 Park Ave", "Rutherford, NJ 07070"]}, "phone": "+12015311190", "display_phone": "(201) 531-1190", "distance": 2991.9875686329337}, {"id": "vYLP5X5b7w9hskxeRkk9eA", "alias": "giovannis-deli-secaucus", "name": "Giovannis Deli", "image_url": "https://s3-media1.fl.yelpcdn.com/bphoto/85X-mk1XXOeC51u7iRtzhQ/o.jpg", "is_closed": false, "url": "https://www.yelp.com/biz/giovannis-deli-secaucus?adjust_creative=a2JdNtFqB-C38ga_06BHvw&utm_campaign=yelp_api_v3&utm_medium=api_v3_business_search&utm_source=a2JdNtFqB-C38ga_06BHvw", "review_count": 232, "categories": [{"alias": "delis", "title": "Delis"}, {"alias": "italian", "title": "Italian"}], "rating": 4.5, "coordinates": {"latitude": 40.79216, "longitude": -74.06426}, "transactions": [], "price": "$", "location": {"address1": "267 Centre Ave", "address2": "", "address3": "", "city": "Secaucus", "zip_code": "07094", "country": "US", "state": "NJ", "display_address": ["267 Centre Ave", "Secaucus, NJ 07094"]}, "phone": "+12016175100", "display_phone": "(201) 617-5100", "distance": 2521.226354318808}, {"id": "EPc0k8-R7mKhpDCJ3H7arg", "alias": "natolis-secaucus", "name": "Natoli's", "image_url": "https://s3-media2.fl.yelpcdn.com/bphoto/RrFfUFF8FppL16LhscU8Wg/o.jpg", "is_closed": false, "url": "https://www.yelp.com/biz/natolis-secaucus?adjust_creative=a2JdNtFqB-C38ga_06BHvw&utm_campaign=yelp_api_v3&utm_medium=api_v3_business_search&utm_source=a2JdNtFqB-C38ga_06BHvw", "review_count": 274, "categories": [{"alias": "pizza", "title": "Pizza"}, {"alias": "italian", "title": "Italian"}, {"alias": "delis", "title": "Delis"}], "rating": 4.5, "coordinates": {"latitude": 40.79508, "longitude": -74.06316}, "transactions": [], "price": "$", "location": {"address1": "300 Clarendon St", "address2": "", "address3": "", "city": "Secaucus", "zip_code": "07094", "country": "US", "state": "NJ", "display_address": ["300 Clarendon St", "Secaucus, NJ 07094"]}, "phone": "+12018642243", "display_phone": "(201) 864-2243", "distance": 2257.539934097751}, {"id": "uVHa8BktK6jjYTaSxra-sg", "alias": "nizi-sushi-east-rutherford", "name": "Nizi Sushi", "image_url": "https://s3-media1.fl.yelpcdn.com/bphoto/09c-d3EDn55PwAYL0c9ULg/o.jpg", "is_closed": false, "url": "https://www.yelp.com/biz/nizi-sushi-east-rutherford?adjust_creative=a2JdNtFqB-C38ga_06BHvw&utm_campaign=yelp_api_v3&utm_medium=api_v3_business_search&utm_source=a2JdNtFqB-C38ga_06BHvw", "review_count": 566, "categories": [{"alias": "japanese", "title": "Japanese"}, {"alias": "sushi", "title": "Sushi Bars"}, {"alias": "salad", "title": "Salad"}], "rating": 4.5, "coordinates": {"latitude": 40.8368845110482, "longitude": -74.099494049349}, "transactions": ["delivery"], "price": "$$", "location": {"address1": "340 Paterson Ave", "address2": "", "address3": null, "city": "East Rutherford", "zip_code": "07073", "country": "US", "state": "NJ", "display_address": ["340 Paterson Ave", "East Rutherford, NJ 07073"]}, "phone": "+12018047666", "display_phone": "(201) 804-7666", "distance": 3349.206841644431}, {"id": "jeJfYLekXo3yxUpDfNukyQ", "alias": "cafe-matisse-rutherford-5", "name": "Cafe Matisse", "image_url": "https://s3-media3.fl.yelpcdn.com/bphoto/wqdtrCtHOhoV1AXDgbHG3g/o.jpg", "is_closed": false, "url": "https://www.yelp.com/biz/cafe-matisse-rutherford-5?adjust_creative=a2JdNtFqB-C38ga_06BHvw&utm_campaign=yelp_api_v3&utm_medium=api_v3_business_search&utm_source=a2JdNtFqB-C38ga_06BHvw", "review_count": 374, "categories": [{"alias": "newamerican", "title": "American (New)"}, {"alias": "french", "title": "French"}], "rating": 4.5, "coordinates": {"latitude": 40.82503, "longitude": -74.10933}, "transactions": [], "price": "$$$$", "location": {"address1": "167 Park Ave", "address2": "", "address3": "", "city": "Rutherford", "zip_code": "07070", "country": "US", "state": "NJ", "display_address": ["167 Park Ave", "Rutherford, NJ 07070"]}, "phone": "+12019352995", "display_phone": "(201) 935-2995", "distance": 3209.490736618864}, {"id": "bNn8eQFyfVecKPczLxXa8w", "alias": "kabob-on-the-cliff-rutherford", "name": "Kabob On The Cliff", "image_url": "https://s3-media3.fl.yelpcdn.com/bphoto/ka99eAEuev_jGhJRfqSiSA/o.jpg", "is_closed": false, "url": "https://www.yelp.com/biz/kabob-on-the-cliff-rutherford?adjust_creative=a2JdNtFqB-C38ga_06BHvw&utm_campaign=yelp_api_v3&utm_medium=api_v3_business_search&utm_source=a2JdNtFqB-C38ga_06BHvw", "review_count": 130, "categories": [{"alias": "kebab", "title": "Kebab"}, {"alias": "persian", "title": "Persian/Iranian"}, {"alias": "halal", "title": "Halal"}], "rating": 4.5, "coordinates": {"latitude": 40.82777, "longitude": -74.10371}, "transactions": ["pickup", "delivery"], "price": "$$", "location": {"address1": "66 Park Ave", "address2": "", "address3": null, "city": "Rutherford", "zip_code": "07070", "country": "US", "state": "NJ", "display_address": ["66 Park Ave", "Rutherford, NJ 07070"]}, "phone": "+12019330900", "display_phone": "(201) 933-0900", "distance": 2932.865458990335}, {"id": "flBpil_5irQ4CKO4FAY6gA", "alias": "greek-town-gyros-rutherford", "name": "Greek Town Gyros", "image_url": "https://s3-media3.fl.yelpcdn.com/bphoto/1kDT1FLbEAu-2Px6r2aXzQ/o.jpg", "is_closed": false, "url": "https://www.yelp.com/biz/greek-town-gyros-rutherford?adjust_creative=a2JdNtFqB-C38ga_06BHvw&utm_campaign=yelp_api_v3&utm_medium=api_v3_business_search&utm_source=a2JdNtFqB-C38ga_06BHvw", "review_count": 207, "categories": [{"alias": "greek", "title": "Greek"}, {"alias": "falafel", "title": "Falafel"}, {"alias": "wraps", "title": "Wraps"}], "rating": 4.5, "coordinates": {"latitude": 40.8270225524902, "longitude": -74.1044387817383}, "transactions": ["delivery"], "price": "$", "location": {"address1": "65 Park Ave", "address2": "", "address3": "", "city": "Rutherford", "zip_code": "07070", "country": "US", "state": "NJ", "display_address": ["65 Park Ave", "Rutherford, NJ 07070"]}, "phone": "+12016720045", "display_phone": "(201) 672-0045", "distance": 2945.246387761377}, {"id": "jai5OAkKP5kxZJnfCJ6T5Q", "alias": "rutherford-pancake-house-rutherford", "name": "Rutherford Pancake House", "image_url": "https://s3-media3.fl.yelpcdn.com/bphoto/uVD39hzy8VDJ4rok96QuOA/o.jpg", "is_closed": false, "url": "https://www.yelp.com/biz/rutherford-pancake-house-rutherford?adjust_creative=a2JdNtFqB-C38ga_06BHvw&utm_campaign=yelp_api_v3&utm_medium=api_v3_business_search&utm_source=a2JdNtFqB-C38ga_06BHvw", "review_count": 531, "categories": [{"alias": "breakfast_brunch", "title": "Breakfast & Brunch"}], "rating": 4.0, "coordinates": {"latitude": 40.82818, "longitude": -74.1027299}, "transactions": ["delivery"], "price": "$$", "location": {"address1": "40 Park Ave", "address2": "", "address3": "", "city": "Rutherford", "zip_code": "07070", "country": "US", "state": "NJ", "display_address": ["40 Park Ave", "Rutherford, NJ 07070"]}, "phone": "+12013404171", "display_phone": "(201) 340-4171", "distance": 2891.2019626337687}, {"id": "4SdvTwFkW3Qx0f_3zBN_ZA", "alias": "barelis-restaurant-and-bar-secaucus-6", "name": "Bareli's Restaurant & Bar", "image_url": "https://s3-media3.fl.yelpcdn.com/bphoto/DeitQFZDCktJWt1PigEquw/o.jpg", "is_closed": false, "url": "https://www.yelp.com/biz/barelis-restaurant-and-bar-secaucus-6?adjust_creative=a2JdNtFqB-C38ga_06BHvw&utm_campaign=yelp_api_v3&utm_medium=api_v3_business_search&utm_source=a2JdNtFqB-C38ga_06BHvw", "review_count": 143, "categories": [{"alias": "italian", "title": "Italian"}, {"alias": "bars", "title": "Bars"}, {"alias": "newamerican", "title": "American (New)"}], "rating": 4.5, "coordinates": {"latitude": 40.7912822, "longitude": -74.0548778}, "transactions": ["delivery"], "price": "$$$", "location": {"address1": "219 Rte 3 E", "address2": "", "address3": "", "city": "Secaucus", "zip_code": "07094", "country": "US", "state": "NJ", "display_address": ["219 Rte 3 E", "Secaucus, NJ 07094"]}, "phone": "+12018652766", "display_phone": "(201) 865-2766", "distance": 2967.846553991662}, {"id": "7_ZtVIXNwm1sXWaoxUyXlQ", "alias": "materas-italian-market-rutherford", "name": "Matera's Italian Market", "image_url": "https://s3-media1.fl.yelpcdn.com/bphoto/A8f3I0xIhsH_vht8p6dw3w/o.jpg", "is_closed": false, "url": "https://www.yelp.com/biz/materas-italian-market-rutherford?adjust_creative=a2JdNtFqB-C38ga_06BHvw&utm_campaign=yelp_api_v3&utm_medium=api_v3_business_search&utm_source=a2JdNtFqB-C38ga_06BHvw", "review_count": 138, "categories": [{"alias": "delis", "title": "Delis"}, {"alias": "grocery", "title": "Grocery"}, {"alias": "gourmet", "title": "Specialty Food"}], "rating": 4.5, "coordinates": {"latitude": 40.8275497828245, "longitude": -74.1038507675092}, "transactions": ["pickup", "delivery"], "price": "$$", "location": {"address1": "72 Park Ave", "address2": "", "address3": "", "city": "Rutherford", "zip_code": "07070", "country": "US", "state": "NJ", "display_address": ["72 Park Ave", "Rutherford, NJ 07070"]}, "phone": "+12014388083", "display_phone": "(201) 438-8083", "distance": 2930.6643960462507}, {"id": "fqjXp6Ii0GStc_GYGn6XuQ", "alias": "annamarias-deli-east-rutherford", "name": "Annamaria's Deli", "image_url": "https://s3-media3.fl.yelpcdn.com/bphoto/kQO6R6RQ9l67aMyfxCisTw/o.jpg", "is_closed": false, "url": "https://www.yelp.com/biz/annamarias-deli-east-rutherford?adjust_creative=a2JdNtFqB-C38ga_06BHvw&utm_campaign=yelp_api_v3&utm_medium=api_v3_business_search&utm_source=a2JdNtFqB-C38ga_06BHvw", "review_count": 35, "categories": [{"alias": "delis", "title": "Delis"}], "rating": 4.5, "coordinates": {"latitude": 40.836991, "longitude": -74.09517}, "transactions": ["pickup", "delivery"], "location": {"address1": "216 Hoboken Rd", "address2": null, "address3": "", "city": "East Rutherford", "zip_code": "07073", "country": "US", "state": "NJ", "display_address": ["216 Hoboken Rd", "East Rutherford, NJ 07073"]}, "phone": "+12014387203", "display_phone": "(201) 438-7203", "distance": 3155.784055803966}, {"id": "VuAwmtxINaFOow__CWt9lw", "alias": "veriellas-bakery-carlstadt-2", "name": "Veriella's Bakery", "image_url": "https://s3-media1.fl.yelpcdn.com/bphoto/Ri8R_pANgZi5n2_GqUWu5A/o.jpg", "is_closed": false, "url": "https://www.yelp.com/biz/veriellas-bakery-carlstadt-2?adjust_creative=a2JdNtFqB-C38ga_06BHvw&utm_campaign=yelp_api_v3&utm_medium=api_v3_business_search&utm_source=a2JdNtFqB-C38ga_06BHvw", "review_count": 62, "categories": [{"alias": "bakeries", "title": "Bakeries"}, {"alias": "breakfast_brunch", "title": "Breakfast & Brunch"}, {"alias": "cafes", "title": "Cafes"}], "rating": 4.5, "coordinates": {"latitude": 40.835805, "longitude": -74.091709}, "transactions": ["delivery"], "price": "$$", "location": {"address1": "309 Hackensack St", "address2": "", "address3": "", "city": "Carlstadt", "zip_code": "07072", "country": "US", "state": "NJ", "display_address": ["309 Hackensack St", "Carlstadt, NJ 07072"]}, "phone": "+12019335427", "display_phone": "(201) 933-5427", "distance": 2875.1870638783867}, {"id": "BC9DVugTCxNGzLr4ZhGINw", "alias": "elia-mediterranean-restaurant-east-rutherford-3", "name": "Elia Mediterranean Restaurant", "image_url": "https://s3-media1.fl.yelpcdn.com/bphoto/clWa8wfo2UjT-axZzV112w/o.jpg", "is_closed": false, "url": "https://www.yelp.com/biz/elia-mediterranean-restaurant-east-rutherford-3?adjust_creative=a2JdNtFqB-C38ga_06BHvw&utm_campaign=yelp_api_v3&utm_medium=api_v3_business_search&utm_source=a2JdNtFqB-C38ga_06BHvw", "review_count": 348, "categories": [{"alias": "mediterranean", "title": "Mediterranean"}, {"alias": "seafood", "title": "Seafood"}], "rating": 4.0, "coordinates": {"latitude": 40.8281599, "longitude": -74.09734}, "transactions": ["delivery"], "price": "$$", "location": {"address1": "240 Hackensack St", "address2": "", "address3": null, "city": "East Rutherford", "zip_code": "07073", "country": "US", "state": "NJ", "display_address": ["240 Hackensack St", "East Rutherford, NJ 07073"]}, "phone": "+12019399292", "display_phone": "(201) 939-9292", "distance": 2522.197860834883}, {"id": "evJqF34WN9Bz73j99vDTCQ", "alias": "azteca-restaurante-mexican-cuisine-rutherford", "name": "Azteca Restaurante Mexican Cuisine", "image_url": "https://s3-media3.fl.yelpcdn.com/bphoto/r5JIdKjbyrtWXDwnuJVGHA/o.jpg", "is_closed": false, "url": "https://www.yelp.com/biz/azteca-restaurante-mexican-cuisine-rutherford?adjust_creative=a2JdNtFqB-C38ga_06BHvw&utm_campaign=yelp_api_v3&utm_medium=api_v3_business_search&utm_source=a2JdNtFqB-C38ga_06BHvw", "review_count": 249, "categories": [{"alias": "mexican", "title": "Mexican"}], "rating": 4.0, "coordinates": {"latitude": 40.8279655, "longitude": -74.1017663}, "transactions": ["delivery"], "price": "$$", "location": {"address1": "15 Park Ave", "address2": null, "address3": "", "city": "Rutherford", "zip_code": "07070", "country": "US", "state": "NJ", "display_address": ["15 Park Ave", "Rutherford, NJ 07070"]}, "phone": "+12014382111", "display_phone": "(201) 438-2111", "distance": 2809.854268082003}, {"id": "sulipN61P85ISTkV-bMeFA", "alias": "medieval-times-dinner-and-tournament-lyndhurst", "name": "Medieval Times Dinner & Tournament", "image_url": "https://s3-media1.fl.yelpcdn.com/bphoto/6AuzrfvZ8fxZzUA8_aSyxQ/o.jpg", "is_closed": false, "url": "https://www.yelp.com/biz/medieval-times-dinner-and-tournament-lyndhurst?adjust_creative=a2JdNtFqB-C38ga_06BHvw&utm_campaign=yelp_api_v3&utm_medium=api_v3_business_search&utm_source=a2JdNtFqB-C38ga_06BHvw", "review_count": 732, "categories": [{"alias": "tradamerican", "title": "American (Traditional)"}, {"alias": "dinnertheater", "title": "Dinner Theater"}], "rating": 4.0, "coordinates": {"latitude": 40.807265, "longitude": -74.1069909}, "transactions": [], "price": "$$$", "location": {"address1": "149 Polito Ave", "address2": "", "address3": "", "city": "Lyndhurst", "zip_code": "07071", "country": "US", "state": "NJ", "display_address": ["149 Polito Ave", "Lyndhurst, NJ 07071"]}, "phone": "+18889356878", "display_phone": "(888) 935-6878", "distance": 2833.084030300216}, {"id": "GOLFLlO4bpndDkavbgrx9w", "alias": "paisanos-restaurant-rutherford", "name": "Paisano's Restaurant", "image_url": "https://s3-media1.fl.yelpcdn.com/bphoto/gKQ43M4AznhKdSuiFPJnXA/o.jpg", "is_closed": false, "url": "https://www.yelp.com/biz/paisanos-restaurant-rutherford?adjust_creative=a2JdNtFqB-C38ga_06BHvw&utm_campaign=yelp_api_v3&utm_medium=api_v3_business_search&utm_source=a2JdNtFqB-C38ga_06BHvw", "review_count": 666, "categories": [{"alias": "italian", "title": "Italian"}], "rating": 4.0, "coordinates": {"latitude": 40.8268255, "longitude": -74.1061557}, "transactions": ["restaurant_reservation", "delivery"], "price": "$$", "location": {"address1": "132 Park Ave", "address2": null, "address3": "", "city": "Rutherford", "zip_code": "07070", "country": "US", "state": "NJ", "display_address": ["132 Park Ave", "Rutherford, NJ 07070"]}, "phone": "+12019355755", "display_phone": "(201) 935-5755", "distance": 3056.8676170668687}, {"id": "PbTqcNu_0PLfGJMn31SXPg", "alias": "ho-ho-restaurant-east-rutherford", "name": "Ho Ho Restaurant", "image_url": "https://s3-media3.fl.yelpcdn.com/bphoto/Rx8xDP_o26EfkpXTBu2UTw/o.jpg", "is_closed": false, "url": "https://www.yelp.com/biz/ho-ho-restaurant-east-rutherford?adjust_creative=a2JdNtFqB-C38ga_06BHvw&utm_campaign=yelp_api_v3&utm_medium=api_v3_business_search&utm_source=a2JdNtFqB-C38ga_06BHvw", "review_count": 108, "categories": [{"alias": "korean", "title": "Korean"}], "rating": 4.5, "coordinates": {"latitude": 40.8337201, "longitude": -74.097194}, "transactions": ["delivery"], "price": "$$", "location": {"address1": "235 Paterson Ave", "address2": "", "address3": "", "city": "East Rutherford", "zip_code": "07073", "country": "US", "state": "NJ", "display_address": ["235 Paterson Ave", "East Rutherford, NJ 07073"]}, "phone": "+12018428787", "display_phone": "(201) 842-8787", "distance": 2953.470668955688}, {"id": "106BZ-Z5Bl9QCmuQeAtVcA", "alias": "paradiso-deli-and-cafe-moonachie", "name": "Paradiso Deli & Cafe", "image_url": "https://s3-media1.fl.yelpcdn.com/bphoto/S_2oWYGJmQrexQAzNncA9Q/o.jpg", "is_closed": false, "url": "https://www.yelp.com/biz/paradiso-deli-and-cafe-moonachie?adjust_creative=a2JdNtFqB-C38ga_06BHvw&utm_campaign=yelp_api_v3&utm_medium=api_v3_business_search&utm_source=a2JdNtFqB-C38ga_06BHvw", "review_count": 48, "categories": [{"alias": "delis", "title": "Delis"}, {"alias": "sandwiches", "title": "Sandwiches"}, {"alias": "italian", "title": "Italian"}], "rating": 4.5, "coordinates": {"latitude": 40.834124, "longitude": -74.051919}, "transactions": ["delivery"], "price": "$", "location": {"address1": "250 Moonachie Rd", "address2": null, "address3": null, "city": "Moonachie", "zip_code": "07074", "country": "US", "state": "NJ", "display_address": ["250 Moonachie Rd", "Moonachie, NJ 07074"]}, "phone": "+12018141250", "display_phone": "(201) 814-1250", "distance": 2968.290152048651}, {"id": "AY4g4h_taSTeYbiToruiKw", "alias": "caribbean-delicacies-carlstadt-2", "name": "Caribbean Delicacies", "image_url": "https://s3-media2.fl.yelpcdn.com/bphoto/qQaQDJDsrVsDRRi5tu9fLw/o.jpg", "is_closed": false, "url": "https://www.yelp.com/biz/caribbean-delicacies-carlstadt-2?adjust_creative=a2JdNtFqB-C38ga_06BHvw&utm_campaign=yelp_api_v3&utm_medium=api_v3_business_search&utm_source=a2JdNtFqB-C38ga_06BHvw", "review_count": 42, "categories": [{"alias": "caribbean", "title": "Caribbean"}, {"alias": "empanadas", "title": "Empanadas"}], "rating": 4.5, "coordinates": {"latitude": 40.839133, "longitude": -74.082794}, "transactions": ["pickup", "delivery"], "price": "$", "location": {"address1": "711 NJ-17", "address2": "", "address3": "Inside The Clock Tower Plaza", "city": "Carlstadt", "zip_code": "07072", "country": "US", "state": "NJ", "display_address": ["711 NJ-17", "Inside The Clock Tower Plaza", "Carlstadt, NJ 07072"]}, "phone": "+12013558611", "display_phone": "(201) 355-8611", "distance": 2934.228007958912}, {"id": "dgmUWtCvf9q9WHo3DruBMQ", "alias": "giannas-carlstadt", "name": "Gianna's", "image_url": "https://s3-media3.fl.yelpcdn.com/bphoto/v1j0kApwv2X974AJhwNfEQ/o.jpg", "is_closed": false, "url": "https://www.yelp.com/biz/giannas-carlstadt?adjust_creative=a2JdNtFqB-C38ga_06BHvw&utm_campaign=yelp_api_v3&utm_medium=api_v3_business_search&utm_source=a2JdNtFqB-C38ga_06BHvw", "review_count": 76, "categories": [{"alias": "italian", "title": "Italian"}], "rating": 4.5, "coordinates": {"latitude": 40.83224, "longitude": -74.05309}, "transactions": ["delivery"], "price": "$$$", "location": {"address1": "843 Washington Ave", "address2": "", "address3": "", "city": "Carlstadt", "zip_code": "07072", "country": "US", "state": "NJ", "display_address": ["843 Washington Ave", "Carlstadt, NJ 07072"]}, "phone": "+12014607997", "display_phone": "(201) 460-7997", "distance": 2765.194106073108}, {"id": "BYmQjQiBpfII13dksYeTKw", "alias": "yellowtail-japanese-bistro-rutherford", "name": "Yellowtail Japanese Bistro", "image_url": "https://s3-media3.fl.yelpcdn.com/bphoto/rx-WLP7hrr7h0Ozsh3GtKQ/o.jpg", "is_closed": false, "url": "https://www.yelp.com/biz/yellowtail-japanese-bistro-rutherford?adjust_creative=a2JdNtFqB-C38ga_06BHvw&utm_campaign=yelp_api_v3&utm_medium=api_v3_business_search&utm_source=a2JdNtFqB-C38ga_06BHvw", "review_count": 158, "categories": [{"alias": "japanese", "title": "Japanese"}, {"alias": "sushi", "title": "Sushi Bars"}, {"alias": "noodles", "title": "Noodles"}], "rating": 4.0, "coordinates": {"latitude": 40.828028, "longitude": -74.101921}, "transactions": ["pickup", "delivery"], "price": "$$", "location": {"address1": "17 Park Ave", "address2": "", "address3": null, "city": "Rutherford", "zip_code": "07070", "country": "US", "state": "NJ", "display_address": ["17 Park Ave", "Rutherford, NJ 07070"]}, "phone": "+12013720001", "display_phone": "(201) 372-0001", "distance": 2824.508283148187}, {"id": "f_CMlNaEeygehNezk23F-Q", "alias": "hot-dog-house-carlstadt", "name": "Hot Dog House", "image_url": "https://s3-media1.fl.yelpcdn.com/bphoto/KJqqtJA3hy2rhTvTX728DQ/o.jpg", "is_closed": false, "url": "https://www.yelp.com/biz/hot-dog-house-carlstadt?adjust_creative=a2JdNtFqB-C38ga_06BHvw&utm_campaign=yelp_api_v3&utm_medium=api_v3_business_search&utm_source=a2JdNtFqB-C38ga_06BHvw", "review_count": 57, "categories": [{"alias": "hotdog", "title": "Hot Dogs"}], "rating": 4.5, "coordinates": {"latitude": 40.8374051072264, "longitude": -74.0847643478957}, "transactions": ["delivery"], "price": "$", "location": {"address1": "510 State Rt 17", "address2": "", "address3": "", "city": "Carlstadt", "zip_code": "07072", "country": "US", "state": "NJ", "display_address": ["510 State Rt 17", "Carlstadt, NJ 07072"]}, "phone": "+12019355803", "display_phone": "(201) 935-5803", "distance": 2795.5902443753434}, {"id": "_YN-BOSrib5uaffslr4dzQ", "alias": "boom-boom-chicken-rutherford", "name": "Boom Boom Chicken", "image_url": "https://s3-media1.fl.yelpcdn.com/bphoto/i8BgdPyy1-XBSyetyL_bag/o.jpg", "is_closed": false, "url": "https://www.yelp.com/biz/boom-boom-chicken-rutherford?adjust_creative=a2JdNtFqB-C38ga_06BHvw&utm_campaign=yelp_api_v3&utm_medium=api_v3_business_search&utm_source=a2JdNtFqB-C38ga_06BHvw", "review_count": 204, "categories": [{"alias": "chicken_wings", "title": "Chicken Wings"}, {"alias": "korean", "title": "Korean"}], "rating": 4.0, "coordinates": {"latitude": 40.8282711252748, "longitude": -74.1025941073895}, "transactions": ["pickup", "delivery"], "price": "$$", "location": {"address1": "36 Park Ave", "address2": "", "address3": "", "city": "Rutherford", "zip_code": "07070", "country": "US", "state": "NJ", "display_address": ["36 Park Ave", "Rutherford, NJ 07070"]}, "phone": "+12014381124", "display_phone": "(201) 438-1124", "distance": 2886.460007625966}, {"id": "94srme7xJgrMEpViOOPgbQ", "alias": "yamada-sushi-rutherford", "name": "Yamada Sushi", "image_url": "https://s3-media4.fl.yelpcdn.com/bphoto/UIc8TZq-iDRbKmRkzfhmbA/o.jpg", "is_closed": false, "url": "https://www.yelp.com/biz/yamada-sushi-rutherford?adjust_creative=a2JdNtFqB-C38ga_06BHvw&utm_campaign=yelp_api_v3&utm_medium=api_v3_business_search&utm_source=a2JdNtFqB-C38ga_06BHvw", "review_count": 186, "categories": [{"alias": "sushi", "title": "Sushi Bars"}, {"alias": "japanese", "title": "Japanese"}], "rating": 4.0, "coordinates": {"latitude": 40.8273514303405, "longitude": -74.1038787355111}, "transactions": ["delivery"], "price": "$$", "location": {"address1": "55 Park Ave", "address2": null, "address3": "", "city": "Rutherford", "zip_code": "07070", "country": "US", "state": "NJ", "display_address": ["55 Park Ave", "Rutherford, NJ 07070"]}, "phone": "+12014608700", "display_phone": "(201) 460-8700", "distance": 2920.9943424695266}, {"id": "dtdpRtwlBHVzpwpROZv_rw", "alias": "sonoma-bistro-rutherford", "name": "Sonoma Bistro", "image_url": "https://s3-media3.fl.yelpcdn.com/bphoto/FH4RziJpqoZwrEHBU7zKJg/o.jpg", "is_closed": false, "url": "https://www.yelp.com/biz/sonoma-bistro-rutherford?adjust_creative=a2JdNtFqB-C38ga_06BHvw&utm_campaign=yelp_api_v3&utm_medium=api_v3_business_search&utm_source=a2JdNtFqB-C38ga_06BHvw", "review_count": 315, "categories": [{"alias": "breakfast_brunch", "title": "Breakfast & Brunch"}, {"alias": "tradamerican", "title": "American (Traditional)"}], "rating": 4.0, "coordinates": {"latitude": 40.82713, "longitude": -74.10422}, "transactions": ["pickup", "delivery"], "price": "$$", "location": {"address1": "59 Park Ave", "address2": "", "address3": "", "city": "Rutherford", "zip_code": "07070", "country": "US", "state": "NJ", "display_address": ["59 Park Ave", "Rutherford, NJ 07070"]}, "phone": "+12019357070", "display_phone": "(201) 935-7070", "distance": 2935.63362155838}, {"id": "cZR2PJw9tkFz7GSlCHuLFg", "alias": "volares-rutherford", "name": "Volares", "image_url": "https://s3-media3.fl.yelpcdn.com/bphoto/ZL4J3dB9bMn7-fnVYHg_8w/o.jpg", "is_closed": false, "url": "https://www.yelp.com/biz/volares-rutherford?adjust_creative=a2JdNtFqB-C38ga_06BHvw&utm_campaign=yelp_api_v3&utm_medium=api_v3_business_search&utm_source=a2JdNtFqB-C38ga_06BHvw", "review_count": 117, "categories": [{"alias": "italian", "title": "Italian"}], "rating": 4.0, "coordinates": {"latitude": 40.8282609, "longitude": -74.1010571}, "transactions": ["pickup", "delivery"], "price": "$$", "location": {"address1": "7 Station Sq", "address2": null, "address3": null, "city": "Rutherford", "zip_code": "07070", "country": "US", "state": "NJ", "display_address": ["7 Station Sq", "Rutherford, NJ 07070"]}, "phone": "+12019356606", "display_phone": "(201) 935-6606", "distance": 2780.3091339957796}, {"id": "PYN67roncq-uYxKWPd7ukQ", "alias": "big-bowls-little-plates-rutherford", "name": "Big Bowls Little Plates", "image_url": "https://s3-media3.fl.yelpcdn.com/bphoto/QJmlqfZvzK6ClpDsxu6-lQ/o.jpg", "is_closed": false, "url": "https://www.yelp.com/biz/big-bowls-little-plates-rutherford?adjust_creative=a2JdNtFqB-C38ga_06BHvw&utm_campaign=yelp_api_v3&utm_medium=api_v3_business_search&utm_source=a2JdNtFqB-C38ga_06BHvw", "review_count": 254, "categories": [{"alias": "ramen", "title": "Ramen"}, {"alias": "asianfusion", "title": "Asian Fusion"}, {"alias": "noodles", "title": "Noodles"}], "rating": 4.0, "coordinates": {"latitude": 40.8272857666016, "longitude": -74.1027297973633}, "transactions": ["pickup", "delivery"], "price": "$$", "location": {"address1": "16 Glen Rd", "address2": "", "address3": "", "city": "Rutherford", "zip_code": "07070", "country": "US", "state": "NJ", "display_address": ["16 Glen Rd", "Rutherford, NJ 07070"]}, "phone": "+12015144163", "display_phone": "(201) 514-4163", "distance": 2835.3354609450053}, {"id": "ZSk6oFWU7CE8yH-tVVUp8Q", "alias": "blackjack-mulligans-secaucus-secaucus", "name": "Blackjack Mulligans Secaucus", "image_url": "https://s3-media2.fl.yelpcdn.com/bphoto/3yBkNQGrItqexeHWBA6d6A/o.jpg", "is_closed": false, "url": "https://www.yelp.com/biz/blackjack-mulligans-secaucus-secaucus?adjust_creative=a2JdNtFqB-C38ga_06BHvw&utm_campaign=yelp_api_v3&utm_medium=api_v3_business_search&utm_source=a2JdNtFqB-C38ga_06BHvw", "review_count": 115, "categories": [{"alias": "irish_pubs", "title": "Irish Pub"}, {"alias": "tradamerican", "title": "American (Traditional)"}, {"alias": "sportsbars", "title": "Sports Bars"}], "rating": 4.0, "coordinates": {"latitude": 40.790836, "longitude": -74.0586258}, "transactions": ["pickup", "delivery"], "price": "$$", "location": {"address1": "146 Front St", "address2": null, "address3": "", "city": "Secaucus", "zip_code": "07094", "country": "US", "state": "NJ", "display_address": ["146 Front St", "Secaucus, NJ 07094"]}, "phone": "+12018645544", "display_phone": "(201) 864-5544", "distance": 2843.810165911573}, {"id": "c40x0H2nNwR9JyV0z2iuow", "alias": "hunkar-restaurant-carlstadt", "name": "Hunkar Restaurant", "image_url": "https://s3-media2.fl.yelpcdn.com/bphoto/rP5mirCnovmqpNHh8MiHuQ/o.jpg", "is_closed": false, "url": "https://www.yelp.com/biz/hunkar-restaurant-carlstadt?adjust_creative=a2JdNtFqB-C38ga_06BHvw&utm_campaign=yelp_api_v3&utm_medium=api_v3_business_search&utm_source=a2JdNtFqB-C38ga_06BHvw", "review_count": 125, "categories": [{"alias": "turkish", "title": "Turkish"}], "rating": 4.0, "coordinates": {"latitude": 40.83626, "longitude": -74.09202}, "transactions": ["pickup", "delivery"], "price": "$$", "location": {"address1": "319 Hackensack St", "address2": "", "address3": "", "city": "Carlstadt", "zip_code": "07072", "country": "US", "state": "NJ", "display_address": ["319 Hackensack St", "Carlstadt, NJ 07072"]}, "phone": "+12015070606", "display_phone": "(201) 507-0606", "distance": 2931.8129382799816}, {"id": "O8XXOQ1crVOjGsz1ARKCFA", "alias": "stefanos-mediterranean-grille-secaucus", "name": "Stefanos Mediterranean Grille", "image_url": "https://s3-media2.fl.yelpcdn.com/bphoto/lXcnEs5jSBDipARmXv2XiQ/o.jpg", "is_closed": false, "url": "https://www.yelp.com/biz/stefanos-mediterranean-grille-secaucus?adjust_creative=a2JdNtFqB-C38ga_06BHvw&utm_campaign=yelp_api_v3&utm_medium=api_v3_business_search&utm_source=a2JdNtFqB-C38ga_06BHvw", "review_count": 203, "categories": [{"alias": "mediterranean", "title": "Mediterranean"}, {"alias": "greek", "title": "Greek"}, {"alias": "lebanese", "title": "Lebanese"}], "rating": 4.0, "coordinates": {"latitude": 40.7864566, "longitude": -74.0454879}, "transactions": ["delivery"], "price": "$$", "location": {"address1": "700 Plaza Dr", "address2": null, "address3": null, "city": "Secaucus", "zip_code": "07094", "country": "US", "state": "NJ", "display_address": ["700 Plaza Dr", "Secaucus, NJ 07094"]}, "phone": "+12018656767", "display_phone": "(201) 865-6767", "distance": 3868.844524433507}, {"id": "LMwwufXN6Ys68GCekGJz-g", "alias": "vesta-wood-fired-east-rutherford-2", "name": "Vesta Wood Fired", "image_url": "https://s3-media2.fl.yelpcdn.com/bphoto/fL35rmPIwfW3JBxWFT2FdA/o.jpg", "is_closed": false, "url": "https://www.yelp.com/biz/vesta-wood-fired-east-rutherford-2?adjust_creative=a2JdNtFqB-C38ga_06BHvw&utm_campaign=yelp_api_v3&utm_medium=api_v3_business_search&utm_source=a2JdNtFqB-C38ga_06BHvw", "review_count": 446, "categories": [{"alias": "pizza", "title": "Pizza"}, {"alias": "bars", "title": "Bars"}, {"alias": "italian", "title": "Italian"}], "rating": 4.0, "coordinates": {"latitude": 40.83406, "longitude": -74.09035}, "transactions": ["pickup", "delivery"], "price": "$$", "location": {"address1": "64 Hoboken Rd", "address2": "", "address3": "", "city": "East Rutherford", "zip_code": "07073", "country": "US", "state": "NJ", "display_address": ["64 Hoboken Rd", "East Rutherford, NJ 07073"]}, "phone": "+12019396012", "display_phone": "(201) 939-6012", "distance": 2644.6766653578925}, {"id": "5O-JST-LT3JmQiEHd4W5uQ", "alias": "sweet-avenue-bake-shop-rutherford", "name": "Sweet Avenue Bake Shop", "image_url": "https://s3-media4.fl.yelpcdn.com/bphoto/HPxwzUD3J_OtO1LFvuzIvg/o.jpg", "is_closed": false, "url": "https://www.yelp.com/biz/sweet-avenue-bake-shop-rutherford?adjust_creative=a2JdNtFqB-C38ga_06BHvw&utm_campaign=yelp_api_v3&utm_medium=api_v3_business_search&utm_source=a2JdNtFqB-C38ga_06BHvw", "review_count": 211, "categories": [{"alias": "bakeries", "title": "Bakeries"}, {"alias": "desserts", "title": "Desserts"}, {"alias": "vegan", "title": "Vegan"}], "rating": 4.0, "coordinates": {"latitude": 40.82511, "longitude": -74.10917}, "transactions": ["delivery"], "price": "$", "location": {"address1": "153 Park Ave", "address2": "", "address3": "", "city": "Rutherford", "zip_code": "07070", "country": "US", "state": "NJ", "display_address": ["153 Park Ave", "Rutherford, NJ 07070"]}, "phone": "+12019352253", "display_phone": "(201) 935-2253", "distance": 3196.1299033402015}, {"id": "CXZReO6zwmf9j54gXY0Tog", "alias": "hot-kebabs-city-east-rutherford", "name": "Hot Kebabs City", "image_url": "https://s3-media2.fl.yelpcdn.com/bphoto/wS9wePpPZu7lJ70_KPVmEA/o.jpg", "is_closed": false, "url": "https://www.yelp.com/biz/hot-kebabs-city-east-rutherford?adjust_creative=a2JdNtFqB-C38ga_06BHvw&utm_campaign=yelp_api_v3&utm_medium=api_v3_business_search&utm_source=a2JdNtFqB-C38ga_06BHvw", "review_count": 38, "categories": [{"alias": "turkish", "title": "Turkish"}, {"alias": "mediterranean", "title": "Mediterranean"}, {"alias": "seafood", "title": "Seafood"}], "rating": 4.5, "coordinates": {"latitude": 40.833363, "longitude": -74.097152}, "transactions": ["pickup", "delivery"], "location": {"address1": "228 Paterson Ave", "address2": "", "address3": null, "city": "East Rutherford", "zip_code": "07073", "country": "US", "state": "NJ", "display_address": ["228 Paterson Ave", "East Rutherford, NJ 07073"]}, "phone": "+19086629622", "display_phone": "(908) 662-9622", "distance": 2918.9747047504557}, {"id": "FcoM3IQmOLSC3nZvX5u_EQ", "alias": "colonial-diner-lyndhurst", "name": "Colonial Diner", "image_url": "https://s3-media1.fl.yelpcdn.com/bphoto/w2X1nNBljEkFZgF6EEE4ag/o.jpg", "is_closed": false, "url": "https://www.yelp.com/biz/colonial-diner-lyndhurst?adjust_creative=a2JdNtFqB-C38ga_06BHvw&utm_campaign=yelp_api_v3&utm_medium=api_v3_business_search&utm_source=a2JdNtFqB-C38ga_06BHvw", "review_count": 301, "categories": [{"alias": "diners", "title": "Diners"}, {"alias": "breakfast_brunch", "title": "Breakfast & Brunch"}, {"alias": "tradamerican", "title": "American (Traditional)"}], "rating": 4.0, "coordinates": {"latitude": 40.8127613, "longitude": -74.1098408}, "transactions": ["pickup", "delivery"], "price": "$$", "location": {"address1": "27 Orient Way", "address2": "", "address3": "", "city": "Lyndhurst", "zip_code": "07071", "country": "US", "state": "NJ", "display_address": ["27 Orient Way", "Lyndhurst, NJ 07071"]}, "phone": "+12019353192", "display_phone": "(201) 935-3192", "distance": 2976.456107752797}, {"id": "I_qPHSRdzb1wL586pK6AFg", "alias": "biggies-carlstadt", "name": "Biggie's", "image_url": "https://s3-media4.fl.yelpcdn.com/bphoto/6gt5xOtkjyjAVG2mbJCuvA/o.jpg", "is_closed": false, "url": "https://www.yelp.com/biz/biggies-carlstadt?adjust_creative=a2JdNtFqB-C38ga_06BHvw&utm_campaign=yelp_api_v3&utm_medium=api_v3_business_search&utm_source=a2JdNtFqB-C38ga_06BHvw", "review_count": 451, "categories": [{"alias": "seafood", "title": "Seafood"}, {"alias": "sportsbars", "title": "Sports Bars"}, {"alias": "italian", "title": "Italian"}], "rating": 4.0, "coordinates": {"latitude": 40.83557, "longitude": -74.08638}, "transactions": ["pickup", "delivery"], "price": "$$", "location": {"address1": "430 Route 17 S", "address2": "", "address3": "", "city": "Carlstadt", "zip_code": "07072", "country": "US", "state": "NJ", "display_address": ["430 Route 17 S", "Carlstadt, NJ 07072"]}, "phone": "+12019334000", "display_phone": "(201) 933-4000", "distance": 2667.8107762331965}, {"id": "fb1f50Ogucihr-Cx_T1q5A", "alias": "segovia-restaurant-moonachie-2", "name": "Segovia Restaurant", "image_url": "https://s3-media4.fl.yelpcdn.com/bphoto/KwdpD6B6gkVqTrn4Xm6R0A/o.jpg", "is_closed": false, "url": "https://www.yelp.com/biz/segovia-restaurant-moonachie-2?adjust_creative=a2JdNtFqB-C38ga_06BHvw&utm_campaign=yelp_api_v3&utm_medium=api_v3_business_search&utm_source=a2JdNtFqB-C38ga_06BHvw", "review_count": 427, "categories": [{"alias": "spanish", "title": "Spanish"}, {"alias": "seafood", "title": "Seafood"}, {"alias": "tapas", "title": "Tapas Bars"}], "rating": 4.0, "coordinates": {"latitude": 40.8400085319357, "longitude": -74.0485996248338}, "transactions": ["delivery"], "price": "$$", "location": {"address1": "150 Moonachie Rd", "address2": null, "address3": "", "city": "Moonachie", "zip_code": "07074", "country": "US", "state": "NJ", "display_address": ["150 Moonachie Rd", "Moonachie, NJ 07074"]}, "phone": "+12016414266", "display_phone": "(201) 641-4266", "distance": 3656.2804495254463}, {"id": "ZbImVNrYNl3Z3PqwZ1UlLA", "alias": "pizzamore-carlstadt-2", "name": "Pizzamore", "image_url": "https://s3-media4.fl.yelpcdn.com/bphoto/tcLdn88AEwHpUuktERh2_g/o.jpg", "is_closed": false, "url": "https://www.yelp.com/biz/pizzamore-carlstadt-2?adjust_creative=a2JdNtFqB-C38ga_06BHvw&utm_campaign=yelp_api_v3&utm_medium=api_v3_business_search&utm_source=a2JdNtFqB-C38ga_06BHvw", "review_count": 21, "categories": [{"alias": "pizza", "title": "Pizza"}, {"alias": "mediterranean", "title": "Mediterranean"}], "rating": 5.0, "coordinates": {"latitude": 40.83574, "longitude": -74.08832}, "transactions": ["pickup", "delivery"], "location": {"address1": "323 Broad St", "address2": null, "address3": "", "city": "Carlstadt", "zip_code": "07072", "country": "US", "state": "NJ", "display_address": ["323 Broad St", "Carlstadt, NJ 07072"]}, "phone": "+12019391254", "display_phone": "(201) 939-1254", "distance": 2736.5152252314074}, {"id": "2AFr9Q5cfWh_lkj2ChykDg", "alias": "chef-chan-resturant-east-rutherford", "name": "Chef Chan Resturant", "image_url": "https://s3-media2.fl.yelpcdn.com/bphoto/aA4bMV_M61KMkXOZUOItRA/o.jpg", "is_closed": false, "url": "https://www.yelp.com/biz/chef-chan-resturant-east-rutherford?adjust_creative=a2JdNtFqB-C38ga_06BHvw&utm_campaign=yelp_api_v3&utm_medium=api_v3_business_search&utm_source=a2JdNtFqB-C38ga_06BHvw", "review_count": 56, "categories": [{"alias": "chinese", "title": "Chinese"}], "rating": 4.5, "coordinates": {"latitude": 40.83361543715, "longitude": -74.0973772108555}, "transactions": ["delivery"], "price": "$", "location": {"address1": "238 Paterson Ave", "address2": "", "address3": "", "city": "East Rutherford", "zip_code": "07073", "country": "US", "state": "NJ", "display_address": ["238 Paterson Ave", "East Rutherford, NJ 07073"]}, "phone": "+12019332288", "display_phone": "(201) 933-2288", "distance": 2958.1293793543687}, {"id": "Aj-v0AflLpFFju2oLB6AwQ", "alias": "il-villaggio-carlstadt", "name": "Il Villaggio", "image_url": "https://s3-media3.fl.yelpcdn.com/bphoto/BleCLB8YK1RtXZDXfyt38g/o.jpg", "is_closed": false, "url": "https://www.yelp.com/biz/il-villaggio-carlstadt?adjust_creative=a2JdNtFqB-C38ga_06BHvw&utm_campaign=yelp_api_v3&utm_medium=api_v3_business_search&utm_source=a2JdNtFqB-C38ga_06BHvw", "review_count": 119, "categories": [{"alias": "italian", "title": "Italian"}, {"alias": "venues", "title": "Venues & Event Spaces"}], "rating": 4.0, "coordinates": {"latitude": 40.839202, "longitude": -74.0832431}, "transactions": ["delivery"], "price": "$$$", "location": {"address1": "651 State Rt 17 N", "address2": "", "address3": "", "city": "Carlstadt", "zip_code": "07072", "country": "US", "state": "NJ", "display_address": ["651 State Rt 17 N", "Carlstadt, NJ 07072"]}, "phone": "+12019357733", "display_phone": "(201) 935-7733", "distance": 2903.6556707237132}, {"id": "irRF-5aowSiEycwkKGw3Jw", "alias": "pho-today-east-rutherford-east-rutherford-2", "name": "Pho Today - East Rutherford", "image_url": "https://s3-media4.fl.yelpcdn.com/bphoto/wZebYP72DYN2Knh6pODUxw/o.jpg", "is_closed": false, "url": "https://www.yelp.com/biz/pho-today-east-rutherford-east-rutherford-2?adjust_creative=a2JdNtFqB-C38ga_06BHvw&utm_campaign=yelp_api_v3&utm_medium=api_v3_business_search&utm_source=a2JdNtFqB-C38ga_06BHvw", "review_count": 167, "categories": [{"alias": "vietnamese", "title": "Vietnamese"}], "rating": 4.0, "coordinates": {"latitude": 40.83088583, "longitude": -74.09336567}, "transactions": ["delivery"], "price": "$$", "location": {"address1": "75 NJ-17", "address2": "", "address3": null, "city": "East Rutherford", "zip_code": "07073", "country": "US", "state": "NJ", "display_address": ["75 NJ-17", "East Rutherford, NJ 07073"]}, "phone": "+12014388818", "display_phone": "(201) 438-8818", "distance": 2501.4400890522606}, {"id": "SjW1Q_ZWg1wTOnSLaUyPVA", "alias": "taco-loco-east-rutherford", "name": "Taco Loco", "image_url": "https://s3-media1.fl.yelpcdn.com/bphoto/9rUHmoqu5v1RtE0S6kFUug/o.jpg", "is_closed": false, "url": "https://www.yelp.com/biz/taco-loco-east-rutherford?adjust_creative=a2JdNtFqB-C38ga_06BHvw&utm_campaign=yelp_api_v3&utm_medium=api_v3_business_search&utm_source=a2JdNtFqB-C38ga_06BHvw", "review_count": 106, "categories": [{"alias": "tacos", "title": "Tacos"}], "rating": 4.0, "coordinates": {"latitude": 40.828958, "longitude": -74.100428}, "transactions": ["pickup", "delivery"], "price": "$$", "location": {"address1": "254 Park Ave", "address2": null, "address3": "", "city": "East Rutherford", "zip_code": "07073", "country": "US", "state": "NJ", "display_address": ["254 Park Ave", "East Rutherford, NJ 07073"]}, "phone": "+12019330059", "display_phone": "(201) 933-0059", "distance": 2786.754281029035}, {"id": "Uhrv97bXuw6NCkdC66Fhng", "alias": "bonefish-grill-secaucus", "name": "Bonefish Grill", "image_url": "https://s3-media2.fl.yelpcdn.com/bphoto/mBnDHJT8z2YJeBFcl1pLEQ/o.jpg", "is_closed": false, "url": "https://www.yelp.com/biz/bonefish-grill-secaucus?adjust_creative=a2JdNtFqB-C38ga_06BHvw&utm_campaign=yelp_api_v3&utm_medium=api_v3_business_search&utm_source=a2JdNtFqB-C38ga_06BHvw", "review_count": 372, "categories": [{"alias": "seafood", "title": "Seafood"}], "rating": 3.5, "coordinates": {"latitude": 40.79132842278932, "longitude": -74.04974685603827}, "transactions": [], "price": "$$", "location": {"address1": "200 Mill Creek Dr", "address2": "", "address3": "", "city": "Secaucus", "zip_code": "07094", "country": "US", "state": "NJ", "display_address": ["200 Mill Creek Dr", "Secaucus, NJ 07094"]}, "phone": "+12018643004", "display_phone": "(201) 864-3004", "distance": 3222.6864904815557}, {"id": "508S0MCamtvfLBZyPdg-tA", "alias": "ciao-bagel-and-deli-east-rutherford", "name": "Ciao Bagel & Deli", "image_url": "https://s3-media1.fl.yelpcdn.com/bphoto/Df1uxNJxb8rHDmO49fWTOA/o.jpg", "is_closed": false, "url": "https://www.yelp.com/biz/ciao-bagel-and-deli-east-rutherford?adjust_creative=a2JdNtFqB-C38ga_06BHvw&utm_campaign=yelp_api_v3&utm_medium=api_v3_business_search&utm_source=a2JdNtFqB-C38ga_06BHvw", "review_count": 71, "categories": [{"alias": "coffee", "title": "Coffee & Tea"}, {"alias": "bagels", "title": "Bagels"}, {"alias": "delis", "title": "Delis"}], "rating": 4.0, "coordinates": {"latitude": 40.8391685, "longitude": -74.1009216}, "transactions": ["delivery"], "price": "$$", "location": {"address1": "414 Paterson Ave", "address2": "", "address3": "", "city": "East Rutherford", "zip_code": "07073", "country": "US", "state": "NJ", "display_address": ["414 Paterson Ave", "East Rutherford, NJ 07073"]}, "phone": "+12019397888", "display_phone": "(201) 939-7888", "distance": 3625.2614790776206}, {"id": "sAy-yFDnl4dJ97K5SI9x-A", "alias": "blarney-station-east-rutherford", "name": "Blarney Station", "image_url": "https://s3-media3.fl.yelpcdn.com/bphoto/Rqs86bQ55AMk7qzVKHXEdw/o.jpg", "is_closed": false, "url": "https://www.yelp.com/biz/blarney-station-east-rutherford?adjust_creative=a2JdNtFqB-C38ga_06BHvw&utm_campaign=yelp_api_v3&utm_medium=api_v3_business_search&utm_source=a2JdNtFqB-C38ga_06BHvw", "review_count": 124, "categories": [{"alias": "pubs", "title": "Pubs"}, {"alias": "irish", "title": "Irish"}], "rating": 4.0, "coordinates": {"latitude": 40.829008406004, "longitude": -74.100459446656}, "transactions": ["delivery"], "price": "$$", "location": {"address1": "258 Park Ave", "address2": "", "address3": "", "city": "East Rutherford", "zip_code": "07073", "country": "US", "state": "NJ", "display_address": ["258 Park Ave", "East Rutherford, NJ 07073"]}, "phone": "+12015310001", "display_phone": "(201) 531-0001", "distance": 2790.3204746035153}, {"id": "1YAoq6pjHASdVlArZKJAMQ", "alias": "the-new-maggies-bar-and-grill-carlstadt", "name": "The New Maggie's Bar & Grill", "image_url": "https://s3-media1.fl.yelpcdn.com/bphoto/xptGU3LXm_TqB-jwKJ394g/o.jpg", "is_closed": false, "url": "https://www.yelp.com/biz/the-new-maggies-bar-and-grill-carlstadt?adjust_creative=a2JdNtFqB-C38ga_06BHvw&utm_campaign=yelp_api_v3&utm_medium=api_v3_business_search&utm_source=a2JdNtFqB-C38ga_06BHvw", "review_count": 41, "categories": [{"alias": "bars", "title": "Bars"}, {"alias": "tradamerican", "title": "American (Traditional)"}], "rating": 4.5, "coordinates": {"latitude": 40.83863, "longitude": -74.09114}, "transactions": ["delivery"], "price": "$$", "location": {"address1": "442 Hackensack St", "address2": "", "address3": "", "city": "Carlstadt", "zip_code": "07072", "country": "US", "state": "NJ", "display_address": ["442 Hackensack St", "Carlstadt, NJ 07072"]}, "phone": "+12019399769", "display_phone": "(201) 939-9769", "distance": 3126.6583547135588}, {"id": "CNGc3NUrS642Z3pOLWRVcA", "alias": "jim-dandys-of-rutherford-rutherford", "name": "Jim Dandy's of Rutherford", "image_url": "https://s3-media3.fl.yelpcdn.com/bphoto/97WLVL4XIHolin-v2vPrcA/o.jpg", "is_closed": false, "url": "https://www.yelp.com/biz/jim-dandys-of-rutherford-rutherford?adjust_creative=a2JdNtFqB-C38ga_06BHvw&utm_campaign=yelp_api_v3&utm_medium=api_v3_business_search&utm_source=a2JdNtFqB-C38ga_06BHvw", "review_count": 95, "categories": [{"alias": "bbq", "title": "Barbeque"}, {"alias": "burgers", "title": "Burgers"}, {"alias": "wraps", "title": "Wraps"}], "rating": 4.0, "coordinates": {"latitude": 40.827253, "longitude": -74.105141}, "transactions": ["pickup", "delivery"], "price": "$$", "location": {"address1": "100 Park Ave", "address2": null, "address3": "", "city": "Rutherford", "zip_code": "07070", "country": "US", "state": "NJ", "display_address": ["100 Park Ave", "Rutherford, NJ 07070"]}, "phone": "+12018962224", "display_phone": "(201) 896-2224", "distance": 3006.2649516238466}, {"id": "WxYKoCNEMjSLW2CQab2cRg", "alias": "ondubu-rutherford", "name": "Ondubu", "image_url": "https://s3-media2.fl.yelpcdn.com/bphoto/H1LZ_S6Emg0Fun1TZvYEpQ/o.jpg", "is_closed": false, "url": "https://www.yelp.com/biz/ondubu-rutherford?adjust_creative=a2JdNtFqB-C38ga_06BHvw&utm_campaign=yelp_api_v3&utm_medium=api_v3_business_search&utm_source=a2JdNtFqB-C38ga_06BHvw", "review_count": 21, "categories": [{"alias": "korean", "title": "Korean"}], "rating": 4.5, "coordinates": {"latitude": 40.827029, "longitude": -74.104766}, "transactions": ["pickup", "delivery"], "location": {"address1": "73 Park Ave", "address2": "", "address3": "", "city": "Rutherford", "zip_code": "07070", "country": "US", "state": "NJ", "display_address": ["73 Park Ave", "Rutherford, NJ 07070"]}, "phone": "+12017622007", "display_phone": "(201) 762-2007", "distance": 2966.4421863325915}, {"id": "zT4j8aDmKnOAEa3iXPoUlw", "alias": "da-mario-pizzeria-rutherford", "name": "Da Mario Pizzeria", "image_url": "https://s3-media2.fl.yelpcdn.com/bphoto/kVRNSG70NZfBn_aLy4-3LA/o.jpg", "is_closed": false, "url": "https://www.yelp.com/biz/da-mario-pizzeria-rutherford?adjust_creative=a2JdNtFqB-C38ga_06BHvw&utm_campaign=yelp_api_v3&utm_medium=api_v3_business_search&utm_source=a2JdNtFqB-C38ga_06BHvw", "review_count": 57, "categories": [{"alias": "pizza", "title": "Pizza"}], "rating": 4.0, "coordinates": {"latitude": 40.8278, "longitude": -74.10236}, "transactions": ["delivery"], "price": "$", "location": {"address1": "25 Park Ave", "address2": "", "address3": "", "city": "Rutherford", "zip_code": "07070", "country": "US", "state": "NJ", "display_address": ["25 Park Ave", "Rutherford, NJ 07070"]}, "phone": "+12019355817", "display_phone": "(201) 935-5817", "distance": 2845.2751584938073}, {"id": "hA1apARxUMy67i6ipD_EKw", "alias": "bistro-107-moonachie", "name": "Bistro 107", "image_url": "https://s3-media3.fl.yelpcdn.com/bphoto/keIUXVvjJoihfCvGLtqNRA/o.jpg", "is_closed": false, "url": "https://www.yelp.com/biz/bistro-107-moonachie?adjust_creative=a2JdNtFqB-C38ga_06BHvw&utm_campaign=yelp_api_v3&utm_medium=api_v3_business_search&utm_source=a2JdNtFqB-C38ga_06BHvw", "review_count": 75, "categories": [{"alias": "italian", "title": "Italian"}, {"alias": "wine_bars", "title": "Wine Bars"}], "rating": 4.0, "coordinates": {"latitude": 40.8401787, "longitude": -74.0475001}, "transactions": ["pickup", "delivery"], "price": "$$", "location": {"address1": "107 Moonachie Rd", "address2": "", "address3": null, "city": "Moonachie", "zip_code": "07074", "country": "US", "state": "NJ", "display_address": ["107 Moonachie Rd", "Moonachie, NJ 07074"]}, "phone": "+12014403339", "display_phone": "(201) 440-3339", "distance": 3726.8995525285213}, {"id": "GlbNzxPMtqmmgRvLp7-45w", "alias": "annabellas-house-of-mozzarella-east-rutherford-2", "name": "Annabella's House of Mozzarella", "image_url": "https://s3-media3.fl.yelpcdn.com/bphoto/t4yCCWx_9PbzV6jw1iMfPQ/o.jpg", "is_closed": false, "url": "https://www.yelp.com/biz/annabellas-house-of-mozzarella-east-rutherford-2?adjust_creative=a2JdNtFqB-C38ga_06BHvw&utm_campaign=yelp_api_v3&utm_medium=api_v3_business_search&utm_source=a2JdNtFqB-C38ga_06BHvw", "review_count": 233, "categories": [{"alias": "italian", "title": "Italian"}, {"alias": "delis", "title": "Delis"}, {"alias": "bars", "title": "Bars"}], "rating": 3.5, "coordinates": {"latitude": 40.83103, "longitude": -74.0857}, "transactions": ["pickup", "delivery"], "price": "$$", "location": {"address1": "900 Paterson Plank Rd", "address2": null, "address3": "", "city": "East Rutherford", "zip_code": "07073", "country": "US", "state": "NJ", "display_address": ["900 Paterson Plank Rd", "East Rutherford, NJ 07073"]}, "phone": "+12018040303", "display_phone": "(201) 804-0303", "distance": 2151.402201394124}, {"id": "fRVfGDCICDOFOOs0Brqvsw", "alias": "city-platters-rutherford", "name": "City Platters", "image_url": "https://s3-media1.fl.yelpcdn.com/bphoto/mfMqXQjBbCp7o2a-u6mc-w/o.jpg", "is_closed": false, "url": "https://www.yelp.com/biz/city-platters-rutherford?adjust_creative=a2JdNtFqB-C38ga_06BHvw&utm_campaign=yelp_api_v3&utm_medium=api_v3_business_search&utm_source=a2JdNtFqB-C38ga_06BHvw", "review_count": 64, "categories": [{"alias": "mediterranean", "title": "Mediterranean"}, {"alias": "turkish", "title": "Turkish"}, {"alias": "lebanese", "title": "Lebanese"}], "rating": 4.0, "coordinates": {"latitude": 40.8277951931692, "longitude": -74.101202711463}, "transactions": ["pickup", "delivery"], "price": "$", "location": {"address1": "6 Orient Way", "address2": "", "address3": null, "city": "Rutherford", "zip_code": "07070", "country": "US", "state": "NJ", "display_address": ["6 Orient Way", "Rutherford, NJ 07070"]}, "phone": "+12015287224", "display_phone": "(201) 528-7224", "distance": 2760.1391591370198}, {"id": "6yxGYGMK0gyeFDzrGZSF2w", "alias": "segovia-meson-carlstadt-2", "name": "Segovia Meson", "image_url": "https://s3-media4.fl.yelpcdn.com/bphoto/xFdcGX-BgsY_wSwXh_9thg/o.jpg", "is_closed": false, "url": "https://www.yelp.com/biz/segovia-meson-carlstadt-2?adjust_creative=a2JdNtFqB-C38ga_06BHvw&utm_campaign=yelp_api_v3&utm_medium=api_v3_business_search&utm_source=a2JdNtFqB-C38ga_06BHvw", "review_count": 117, "categories": [{"alias": "tapas", "title": "Tapas Bars"}, {"alias": "spanish", "title": "Spanish"}, {"alias": "bars", "title": "Bars"}], "rating": 4.0, "coordinates": {"latitude": 40.82633, "longitude": -74.05618}, "transactions": ["delivery"], "price": "$$", "location": {"address1": "645 Washington Ave", "address2": "", "address3": null, "city": "Carlstadt", "zip_code": "07072", "country": "US", "state": "NJ", "display_address": ["645 Washington Ave", "Carlstadt, NJ 07072"]}, "phone": "+12018963260", "display_phone": "(201) 896-3260", "distance": 2080.3169051189266}, {"id": "6k-EK419_wagYvXgEFTZNA", "alias": "big-bowls-little-plates-secaucus", "name": "Big Bowls Little Plates", "image_url": "https://s3-media2.fl.yelpcdn.com/bphoto/41CG-Aq5JkJEjMJK2moDag/o.jpg", "is_closed": false, "url": "https://www.yelp.com/biz/big-bowls-little-plates-secaucus?adjust_creative=a2JdNtFqB-C38ga_06BHvw&utm_campaign=yelp_api_v3&utm_medium=api_v3_business_search&utm_source=a2JdNtFqB-C38ga_06BHvw", "review_count": 51, "categories": [{"alias": "asianfusion", "title": "Asian Fusion"}, {"alias": "chinese", "title": "Chinese"}, {"alias": "newamerican", "title": "American (New)"}], "rating": 4.0, "coordinates": {"latitude": 40.78538, "longitude": -74.04539}, "transactions": [], "price": "$$", "location": {"address1": "700 Plaza Dr", "address2": "The Plaza at Harmon Meadow", "address3": "", "city": "Secaucus", "zip_code": "07094", "country": "US", "state": "NJ", "display_address": ["700 Plaza Dr", "The Plaza at Harmon Meadow", "Secaucus, NJ 07094"]}, "phone": "+12015522250", "display_phone": "(201) 552-2250", "distance": 3867.909176769983}, {"id": "kXgsUjb_jF4Lcz6EiOzt_Q", "alias": "bazzarelli-restaurant-moonachie", "name": "Bazzarelli Restaurant", "image_url": "https://s3-media4.fl.yelpcdn.com/bphoto/VKjKEGZywrR0T3Ad2btwaw/o.jpg", "is_closed": false, "url": "https://www.yelp.com/biz/bazzarelli-restaurant-moonachie?adjust_creative=a2JdNtFqB-C38ga_06BHvw&utm_campaign=yelp_api_v3&utm_medium=api_v3_business_search&utm_source=a2JdNtFqB-C38ga_06BHvw", "review_count": 130, "categories": [{"alias": "italian", "title": "Italian"}], "rating": 4.0, "coordinates": {"latitude": 40.840596, "longitude": -74.047965}, "transactions": ["pickup", "delivery"], "price": "$$", "location": {"address1": "117 Moonachie Rd", "address2": "", "address3": "", "city": "Moonachie", "zip_code": "07074", "country": "US", "state": "NJ", "display_address": ["117 Moonachie Rd", "Moonachie, NJ 07074"]}, "phone": "+12016414010", "display_phone": "(201) 641-4010", "distance": 3744.6495081646844}, {"id": "wl-JLlhWJnYF2cfSevvsgA", "alias": "firenza-pizza-secaucus-2", "name": "Firenza Pizza", "image_url": "https://s3-media2.fl.yelpcdn.com/bphoto/2tkgRCx2lxifBXg_LTYyFA/o.jpg", "is_closed": false, "url": "https://www.yelp.com/biz/firenza-pizza-secaucus-2?adjust_creative=a2JdNtFqB-C38ga_06BHvw&utm_campaign=yelp_api_v3&utm_medium=api_v3_business_search&utm_source=a2JdNtFqB-C38ga_06BHvw", "review_count": 35, "categories": [{"alias": "pizza", "title": "Pizza"}, {"alias": "chicken_wings", "title": "Chicken Wings"}, {"alias": "salad", "title": "Salad"}], "rating": 4.5, "coordinates": {"latitude": 40.786529, "longitude": -74.045329}, "transactions": ["pickup", "delivery"], "location": {"address1": "700 Plaza Dr", "address2": "", "address3": null, "city": "Secaucus", "zip_code": "07094", "country": "US", "state": "NJ", "display_address": ["700 Plaza Dr", "Secaucus, NJ 07094"]}, "phone": "+12012102562", "display_phone": "(201) 210-2562", "distance": 3871.01294857048}, {"id": "fKl-XzMrRQyW9tjg9mhIGA", "alias": "sinbad-cafe-and-grill-secaucus-2", "name": "Sinbad Cafe & Grill", "image_url": "https://s3-media2.fl.yelpcdn.com/bphoto/fwxeB-UJbEpbUy4AU25dGw/o.jpg", "is_closed": false, "url": "https://www.yelp.com/biz/sinbad-cafe-and-grill-secaucus-2?adjust_creative=a2JdNtFqB-C38ga_06BHvw&utm_campaign=yelp_api_v3&utm_medium=api_v3_business_search&utm_source=a2JdNtFqB-C38ga_06BHvw", "review_count": 113, "categories": [{"alias": "mideastern", "title": "Middle Eastern"}, {"alias": "halal", "title": "Halal"}, {"alias": "diners", "title": "Diners"}], "rating": 4.0, "coordinates": {"latitude": 40.79783, "longitude": -74.0657}, "transactions": ["pickup", "delivery"], "price": "$$", "location": {"address1": "20 Meadowlands Pkwy", "address2": "", "address3": "", "city": "Secaucus", "zip_code": "07094", "country": "US", "state": "NJ", "display_address": ["20 Meadowlands Pkwy", "Secaucus, NJ 07094"]}, "phone": "+12017709300", "display_phone": "(201) 770-9300", "distance": 1967.336659152388}, {"id": "BrbTUti2XF9H7ZYzAmn_6A", "alias": "oolong-tea-and-poke-bowl-secaucus", "name": "Oolong Tea & Poke Bowl", "image_url": "https://s3-media2.fl.yelpcdn.com/bphoto/-ibb0o8xFgOmxElsvnCdfg/o.jpg", "is_closed": false, "url": "https://www.yelp.com/biz/oolong-tea-and-poke-bowl-secaucus?adjust_creative=a2JdNtFqB-C38ga_06BHvw&utm_campaign=yelp_api_v3&utm_medium=api_v3_business_search&utm_source=a2JdNtFqB-C38ga_06BHvw", "review_count": 71, "categories": [{"alias": "poke", "title": "Poke"}, {"alias": "bubbletea", "title": "Bubble Tea"}, {"alias": "ramen", "title": "Ramen"}], "rating": 4.0, "coordinates": {"latitude": 40.79029, "longitude": -74.05842}, "transactions": ["pickup", "delivery"], "price": "$", "location": {"address1": "133 Front St", "address2": null, "address3": "", "city": "Secaucus", "zip_code": "07094", "country": "US", "state": "NJ", "display_address": ["133 Front St", "Secaucus, NJ 07094"]}, "phone": "+12015522001", "display_phone": "(201) 552-2001", "distance": 2912.652995372658}, {"id": "ljbIW6ulC_3b5m_LkhUxPg", "alias": "filomenas-italian-deli-and-catering-secaucus", "name": "Filomenas Italian Deli And Catering", "image_url": "https://s3-media2.fl.yelpcdn.com/bphoto/ZulluPXZNaaO5oVKbOl4dg/o.jpg", "is_closed": false, "url": "https://www.yelp.com/biz/filomenas-italian-deli-and-catering-secaucus?adjust_creative=a2JdNtFqB-C38ga_06BHvw&utm_campaign=yelp_api_v3&utm_medium=api_v3_business_search&utm_source=a2JdNtFqB-C38ga_06BHvw", "review_count": 30, "categories": [{"alias": "breakfast_brunch", "title": "Breakfast & Brunch"}, {"alias": "delis", "title": "Delis"}], "rating": 4.5, "coordinates": {"latitude": 40.790641784668, "longitude": -74.0586929321289}, "transactions": [], "price": "$", "location": {"address1": "143 Front St", "address2": "", "address3": "", "city": "Secaucus", "zip_code": "07094", "country": "US", "state": "NJ", "display_address": ["143 Front St", "Secaucus, NJ 07094"]}, "phone": "+12013302811", "display_phone": "(201) 330-2811", "distance": 2866.249671711751}, {"id": "5DwGICd6TkAnvO6YNeYp0Q", "alias": "red-basil-rutherford", "name": "Red Basil", "image_url": "https://s3-media3.fl.yelpcdn.com/bphoto/Tif_E-dtTu8coHoqhUIEFw/o.jpg", "is_closed": false, "url": "https://www.yelp.com/biz/red-basil-rutherford?adjust_creative=a2JdNtFqB-C38ga_06BHvw&utm_campaign=yelp_api_v3&utm_medium=api_v3_business_search&utm_source=a2JdNtFqB-C38ga_06BHvw", "review_count": 235, "categories": [{"alias": "thai", "title": "Thai"}, {"alias": "asianfusion", "title": "Asian Fusion"}, {"alias": "noodles", "title": "Noodles"}], "rating": 3.5, "coordinates": {"latitude": 40.8273429870605, "longitude": -74.1029052734375}, "transactions": ["pickup", "delivery"], "price": "$$", "location": {"address1": "4 Glen Rd", "address2": "", "address3": "", "city": "Rutherford", "zip_code": "07070", "country": "US", "state": "NJ", "display_address": ["4 Glen Rd", "Rutherford, NJ 07070"]}, "phone": "+12014608585", "display_phone": "(201) 460-8585", "distance": 2851.2800582312393}, {"id": "_jfIujwCyveSdr4sYM4xOA", "alias": "the-risotto-house-rutherford", "name": "The Risotto House", "image_url": "https://s3-media4.fl.yelpcdn.com/bphoto/DWCJFDlrYqpeA_okf4lhXA/o.jpg", "is_closed": false, "url": "https://www.yelp.com/biz/the-risotto-house-rutherford?adjust_creative=a2JdNtFqB-C38ga_06BHvw&utm_campaign=yelp_api_v3&utm_medium=api_v3_business_search&utm_source=a2JdNtFqB-C38ga_06BHvw", "review_count": 199, "categories": [{"alias": "italian", "title": "Italian"}], "rating": 3.5, "coordinates": {"latitude": 40.82748, "longitude": -74.10463}, "transactions": ["delivery", "pickup"], "price": "$$", "location": {"address1": "88 Park Ave", "address2": null, "address3": "", "city": "Rutherford", "zip_code": "07070", "country": "US", "state": "NJ", "display_address": ["88 Park Ave", "Rutherford, NJ 07070"]}, "phone": "+12014385344", "display_phone": "(201) 438-5344", "distance": 2992.0437331976837}, {"id": "B_nktO_nTfplpLRKnbFw8g", "alias": "vitos-bakery-secaucus", "name": "Vito's Bakery", "image_url": "https://s3-media1.fl.yelpcdn.com/bphoto/CIAGx27q7k5KDfuKxvyR2Q/o.jpg", "is_closed": false, "url": "https://www.yelp.com/biz/vitos-bakery-secaucus?adjust_creative=a2JdNtFqB-C38ga_06BHvw&utm_campaign=yelp_api_v3&utm_medium=api_v3_business_search&utm_source=a2JdNtFqB-C38ga_06BHvw", "review_count": 46, "categories": [{"alias": "bakeries", "title": "Bakeries"}, {"alias": "coffee", "title": "Coffee & Tea"}, {"alias": "delis", "title": "Delis"}], "rating": 4.0, "coordinates": {"latitude": 40.791297, "longitude": -74.057416}, "transactions": [], "price": "$$", "location": {"address1": "87 Plaza Ctr", "address2": "", "address3": "", "city": "Secaucus", "zip_code": "07094", "country": "US", "state": "NJ", "display_address": ["87 Plaza Ctr", "Secaucus, NJ 07094"]}, "phone": "+12016178501", "display_phone": "(201) 617-8501", "distance": 2853.92794664198}, {"id": "rEKThAlfEU3Dig4lu-JvTQ", "alias": "30-burgers-rutherford", "name": "30 Burgers", "image_url": "https://s3-media3.fl.yelpcdn.com/bphoto/Pt7-41Qpi_qFh2-pT3WMAQ/o.jpg", "is_closed": false, "url": "https://www.yelp.com/biz/30-burgers-rutherford?adjust_creative=a2JdNtFqB-C38ga_06BHvw&utm_campaign=yelp_api_v3&utm_medium=api_v3_business_search&utm_source=a2JdNtFqB-C38ga_06BHvw", "review_count": 46, "categories": [{"alias": "burgers", "title": "Burgers"}, {"alias": "hotdog", "title": "Hot Dogs"}, {"alias": "chicken_wings", "title": "Chicken Wings"}], "rating": 4.0, "coordinates": {"latitude": 40.82828, "longitude": -74.10229}, "transactions": ["delivery", "pickup"], "location": {"address1": "30 Park Ave", "address2": null, "address3": "", "city": "Rutherford", "zip_code": "07070", "country": "US", "state": "NJ", "display_address": ["30 Park Ave", "Rutherford, NJ 07070"]}, "phone": "+12013756869", "display_phone": "(201) 375-6869", "distance": 2863.924773135375}, {"id": "_RDYq-a0klMMV_AMu_trPw", "alias": "the-new-park-tavern-east-rutherford", "name": "The New Park Tavern", "image_url": "https://s3-media3.fl.yelpcdn.com/bphoto/UyWpiVjWeNZCQtknC1CNUA/o.jpg", "is_closed": false, "url": "https://www.yelp.com/biz/the-new-park-tavern-east-rutherford?adjust_creative=a2JdNtFqB-C38ga_06BHvw&utm_campaign=yelp_api_v3&utm_medium=api_v3_business_search&utm_source=a2JdNtFqB-C38ga_06BHvw", "review_count": 192, "categories": [{"alias": "pizza", "title": "Pizza"}, {"alias": "bars", "title": "Bars"}, {"alias": "italian", "title": "Italian"}], "rating": 3.5, "coordinates": {"latitude": 40.829286446966, "longitude": -74.100128828829}, "transactions": ["delivery"], "price": "$$", "location": {"address1": "250 Park Ave", "address2": "", "address3": "", "city": "East Rutherford", "zip_code": "07073", "country": "US", "state": "NJ", "display_address": ["250 Park Ave", "East Rutherford, NJ 07073"]}, "phone": "+12019399445", "display_phone": "(201) 939-9445", "distance": 2787.802269915252}, {"id": "ePU8nS23sX8l8N6_CIpnQw", "alias": "steves-sizzling-steaks-carlstadt", "name": "Steve's Sizzling Steaks", "image_url": "https://s3-media2.fl.yelpcdn.com/bphoto/Sun29uKv0lKdnjkcPjaJ3A/o.jpg", "is_closed": false, "url": "https://www.yelp.com/biz/steves-sizzling-steaks-carlstadt?adjust_creative=a2JdNtFqB-C38ga_06BHvw&utm_campaign=yelp_api_v3&utm_medium=api_v3_business_search&utm_source=a2JdNtFqB-C38ga_06BHvw", "review_count": 358, "categories": [{"alias": "steak", "title": "Steakhouses"}], "rating": 3.5, "coordinates": {"latitude": 40.837766, "longitude": -74.084642}, "transactions": ["delivery"], "price": "$$", "location": {"address1": "620 State Rt 17", "address2": "", "address3": "", "city": "Carlstadt", "zip_code": "07072", "country": "US", "state": "NJ", "display_address": ["620 State Rt 17", "Carlstadt, NJ 07072"]}, "phone": "+12014389677", "display_phone": "(201) 438-9677", "distance": 2831.6762220492915}, {"id": "8XtfUcP_GXypdVZSJCN0tQ", "alias": "fiesta-hut-east-rutherford", "name": "Fiesta Hut", "image_url": "https://s3-media2.fl.yelpcdn.com/bphoto/zCq9xpI5b4RBVIf1Go7FKg/o.jpg", "is_closed": false, "url": "https://www.yelp.com/biz/fiesta-hut-east-rutherford?adjust_creative=a2JdNtFqB-C38ga_06BHvw&utm_campaign=yelp_api_v3&utm_medium=api_v3_business_search&utm_source=a2JdNtFqB-C38ga_06BHvw", "review_count": 119, "categories": [{"alias": "mexican", "title": "Mexican"}], "rating": 3.5, "coordinates": {"latitude": 40.82996, "longitude": -74.1001299}, "transactions": ["delivery"], "price": "$$", "location": {"address1": "227 Park Ave", "address2": "", "address3": "", "city": "East Rutherford", "zip_code": "07073", "country": "US", "state": "NJ", "display_address": ["227 Park Ave", "East Rutherford, NJ 07073"]}, "phone": "+12019394338", "display_phone": "(201) 939-4338", "distance": 2825.601737257516}, {"id": "-HIsDolVluV6n5tlfQGB5w", "alias": "yan-asian-restaurant-rutherford-2", "name": "Yan Asian Restaurant", "image_url": "https://s3-media4.fl.yelpcdn.com/bphoto/zdqu_NW411aIqubMxK-RRA/o.jpg", "is_closed": false, "url": "https://www.yelp.com/biz/yan-asian-restaurant-rutherford-2?adjust_creative=a2JdNtFqB-C38ga_06BHvw&utm_campaign=yelp_api_v3&utm_medium=api_v3_business_search&utm_source=a2JdNtFqB-C38ga_06BHvw", "review_count": 144, "categories": [{"alias": "asianfusion", "title": "Asian Fusion"}, {"alias": "sushi", "title": "Sushi Bars"}, {"alias": "ramen", "title": "Ramen"}], "rating": 3.5, "coordinates": {"latitude": 40.827441, "longitude": -74.104935}, "transactions": ["delivery", "pickup"], "price": "$$", "location": {"address1": "94 Park Ave", "address2": "", "address3": "", "city": "Rutherford", "zip_code": "07070", "country": "US", "state": "NJ", "display_address": ["94 Park Ave", "Rutherford, NJ 07070"]}, "phone": "+12018961888", "display_phone": "(201) 896-1888", "distance": 3002.23693712669}, {"id": "qjCIGLr4ESHqzCc_GAiD0Q", "alias": "ralphs-italian-restaurant-and-pizzeria-east-rutherford", "name": "Ralph's Italian Restaurant & Pizzeria", "image_url": "https://s3-media2.fl.yelpcdn.com/bphoto/LhNejnJIDhw-rZd5QuJwYQ/o.jpg", "is_closed": false, "url": "https://www.yelp.com/biz/ralphs-italian-restaurant-and-pizzeria-east-rutherford?adjust_creative=a2JdNtFqB-C38ga_06BHvw&utm_campaign=yelp_api_v3&utm_medium=api_v3_business_search&utm_source=a2JdNtFqB-C38ga_06BHvw", "review_count": 57, "categories": [{"alias": "italian", "title": "Italian"}, {"alias": "pizza", "title": "Pizza"}], "rating": 4.0, "coordinates": {"latitude": 40.833345, "longitude": -74.09726}, "transactions": ["delivery", "pickup"], "price": "$", "location": {"address1": "230 Paterson Ave", "address2": "", "address3": "", "city": "East Rutherford", "zip_code": "07073", "country": "US", "state": "NJ", "display_address": ["230 Paterson Ave", "East Rutherford, NJ 07073"]}, "phone": "+12019352228", "display_phone": "(201) 935-2228", "distance": 2927.1569628807338}, {"id": "9Iz5kgHh_OhuqP5Qm-bsrw", "alias": "la-reggia-restaurant-and-banquets-secaucus", "name": "La Reggia Restaurant & Banquets", "image_url": "https://s3-media3.fl.yelpcdn.com/bphoto/Z6Es_WRTc_4pc9a9LvB2Sg/o.jpg", "is_closed": false, "url": "https://www.yelp.com/biz/la-reggia-restaurant-and-banquets-secaucus?adjust_creative=a2JdNtFqB-C38ga_06BHvw&utm_campaign=yelp_api_v3&utm_medium=api_v3_business_search&utm_source=a2JdNtFqB-C38ga_06BHvw", "review_count": 57, "categories": [{"alias": "venues", "title": "Venues & Event Spaces"}, {"alias": "italian", "title": "Italian"}, {"alias": "lounges", "title": "Lounges"}], "rating": 4.0, "coordinates": {"latitude": 40.79762, "longitude": -74.06425}, "transactions": [], "price": "$$", "location": {"address1": "40 Wood Ave", "address2": "", "address3": "", "city": "Secaucus", "zip_code": "07094", "country": "US", "state": "NJ", "display_address": ["40 Wood Ave", "Secaucus, NJ 07094"]}, "phone": "+12014220200", "display_phone": "(201) 422-0200", "distance": 2023.2481177083705}, {"id": "SfEwU7SwyyEuNb_FQI8KZg", "alias": "al-di-la-east-rutherford", "name": "Al Di La", "image_url": "https://s3-media3.fl.yelpcdn.com/bphoto/doUaxZY-15C0Ea3OifQlhA/o.jpg", "is_closed": false, "url": "https://www.yelp.com/biz/al-di-la-east-rutherford?adjust_creative=a2JdNtFqB-C38ga_06BHvw&utm_campaign=yelp_api_v3&utm_medium=api_v3_business_search&utm_source=a2JdNtFqB-C38ga_06BHvw", "review_count": 147, "categories": [{"alias": "italian", "title": "Italian"}], "rating": 3.5, "coordinates": {"latitude": 40.83358, "longitude": -74.089653}, "transactions": ["pickup"], "price": "$$", "location": {"address1": "1 Hoboken Rd", "address2": "", "address3": "", "city": "East Rutherford", "zip_code": "07073", "country": "US", "state": "NJ", "display_address": ["1 Hoboken Rd", "East Rutherford, NJ 07073"]}, "phone": "+12019391128", "display_phone": "(201) 939-1128", "distance": 2565.0633197505076}, {"id": "EGbZf_R9Zbu_Cl_T6M8HdA", "alias": "taqueria-los-gueros-east-rutherford-3", "name": "Taqueria Los Gueros", "image_url": "https://s3-media2.fl.yelpcdn.com/bphoto/KJyF7N8TkGLPVx7d1FOUIw/o.jpg", "is_closed": false, "url": "https://www.yelp.com/biz/taqueria-los-gueros-east-rutherford-3?adjust_creative=a2JdNtFqB-C38ga_06BHvw&utm_campaign=yelp_api_v3&utm_medium=api_v3_business_search&utm_source=a2JdNtFqB-C38ga_06BHvw", "review_count": 207, "categories": [{"alias": "mexican", "title": "Mexican"}], "rating": 3.5, "coordinates": {"latitude": 40.8304173797697, "longitude": -74.0932330043331}, "transactions": ["delivery", "pickup"], "price": "$", "location": {"address1": "93 NJ-17", "address2": "", "address3": "", "city": "East Rutherford", "zip_code": "07073", "country": "US", "state": "NJ", "display_address": ["93 NJ-17", "East Rutherford, NJ 07073"]}, "phone": "+12013404361", "display_phone": "(201) 340-4361", "distance": 2459.4073866810086}, {"id": "8USwrqYsud5hRsrwTzq1Xg", "alias": "two-pitas-moonachie", "name": "Two Pitas", "image_url": "https://s3-media1.fl.yelpcdn.com/bphoto/Wo-BIqkBKI-fCUYhIstzKw/o.jpg", "is_closed": false, "url": "https://www.yelp.com/biz/two-pitas-moonachie?adjust_creative=a2JdNtFqB-C38ga_06BHvw&utm_campaign=yelp_api_v3&utm_medium=api_v3_business_search&utm_source=a2JdNtFqB-C38ga_06BHvw", "review_count": 17, "categories": [{"alias": "falafel", "title": "Falafel"}, {"alias": "salad", "title": "Salad"}, {"alias": "sandwiches", "title": "Sandwiches"}], "rating": 4.5, "coordinates": {"latitude": 40.8404059, "longitude": -74.0468717098109}, "transactions": ["delivery", "pickup"], "location": {"address1": "8 E Joseph St", "address2": "", "address3": null, "city": "Moonachie", "zip_code": "07074", "country": "US", "state": "NJ", "display_address": ["8 E Joseph St", "Moonachie, NJ 07074"]}, "phone": "+12018706181", "display_phone": "(201) 870-6181", "distance": 3779.14278449933}, {"id": "uAeOZBQ5vzBU7IFBhY2uEQ", "alias": "the-bagel-store-carlstadt", "name": "The Bagel Store", "image_url": "https://s3-media2.fl.yelpcdn.com/bphoto/bYu5PeyhGaYM8jn0dK9M-w/o.jpg", "is_closed": false, "url": "https://www.yelp.com/biz/the-bagel-store-carlstadt?adjust_creative=a2JdNtFqB-C38ga_06BHvw&utm_campaign=yelp_api_v3&utm_medium=api_v3_business_search&utm_source=a2JdNtFqB-C38ga_06BHvw", "review_count": 68, "categories": [{"alias": "bagels", "title": "Bagels"}, {"alias": "bakeries", "title": "Bakeries"}, {"alias": "delis", "title": "Delis"}], "rating": 3.5, "coordinates": {"latitude": 40.83685, "longitude": -74.09171}, "transactions": ["delivery", "pickup"], "price": "$", "location": {"address1": "335 Hackensack St", "address2": "", "address3": "", "city": "Carlstadt", "zip_code": "07072", "country": "US", "state": "NJ", "display_address": ["335 Hackensack St", "Carlstadt, NJ 07072"]}, "phone": "+12014608660", "display_phone": "(201) 460-8660", "distance": 2984.3714256316907}, {"id": "ATrDmKiZ-YrAcG3hR7LLgg", "alias": "tadka-fine-indian-cuisine-secaucus-2", "name": "Tadka Fine Indian Cuisine", "image_url": "https://s3-media2.fl.yelpcdn.com/bphoto/H5i0VLbXY-evLr37ijmFPg/o.jpg", "is_closed": false, "url": "https://www.yelp.com/biz/tadka-fine-indian-cuisine-secaucus-2?adjust_creative=a2JdNtFqB-C38ga_06BHvw&utm_campaign=yelp_api_v3&utm_medium=api_v3_business_search&utm_source=a2JdNtFqB-C38ga_06BHvw", "review_count": 120, "categories": [{"alias": "indpak", "title": "Indian"}], "rating": 3.5, "coordinates": {"latitude": 40.79015, "longitude": -74.05819}, "transactions": ["delivery", "pickup"], "price": "$$", "location": {"address1": "1297 Paterson Plank Rd", "address2": null, "address3": "", "city": "Secaucus", "zip_code": "07094", "country": "US", "state": "NJ", "display_address": ["1297 Paterson Plank Rd", "Secaucus, NJ 07094"]}, "phone": "+12017701919", "display_phone": "(201) 770-1919", "distance": 2933.540327171937}, {"id": "wVZmnDlPDdVHI01_XLfBXQ", "alias": "beijing-hot-pot-rutherford-3", "name": "Beijing Hot Pot", "image_url": "https://s3-media1.fl.yelpcdn.com/bphoto/Zf3rHQJr5nfvg9sAfmi6lA/o.jpg", "is_closed": false, "url": "https://www.yelp.com/biz/beijing-hot-pot-rutherford-3?adjust_creative=a2JdNtFqB-C38ga_06BHvw&utm_campaign=yelp_api_v3&utm_medium=api_v3_business_search&utm_source=a2JdNtFqB-C38ga_06BHvw", "review_count": 54, "categories": [{"alias": "hotpot", "title": "Hot Pot"}, {"alias": "chinese", "title": "Chinese"}], "rating": 3.5, "coordinates": {"latitude": 40.827236, "longitude": -74.1036817}, "transactions": ["delivery", "pickup"], "price": "$$", "location": {"address1": "12 Sylvan St", "address2": null, "address3": "", "city": "Rutherford", "zip_code": "07070", "country": "US", "state": "NJ", "display_address": ["12 Sylvan St", "Rutherford, NJ 07070"]}, "phone": "+12019352868", "display_phone": "(201) 935-2868", "distance": 2900.143922911753}, {"id": "VqJRZ1XncDno3A1IvHO9yw", "alias": "castle-billiards-lounge-east-rutherford", "name": "Castle Billiards Lounge", "image_url": "https://s3-media1.fl.yelpcdn.com/bphoto/ll8goECY1rgqjmbO11bqGA/o.jpg", "is_closed": false, "url": "https://www.yelp.com/biz/castle-billiards-lounge-east-rutherford?adjust_creative=a2JdNtFqB-C38ga_06BHvw&utm_campaign=yelp_api_v3&utm_medium=api_v3_business_search&utm_source=a2JdNtFqB-C38ga_06BHvw", "review_count": 32, "categories": [{"alias": "poolhalls", "title": "Pool Halls"}, {"alias": "bars", "title": "Bars"}, {"alias": "tradamerican", "title": "American (Traditional)"}], "rating": 4.0, "coordinates": {"latitude": 40.824021, "longitude": -74.098247}, "transactions": [], "price": "$", "location": {"address1": "349 State Rt 17 S", "address2": "", "address3": "", "city": "East Rutherford", "zip_code": "07073", "country": "US", "state": "NJ", "display_address": ["349 State Rt 17 S", "East Rutherford, NJ 07073"]}, "phone": "+12015144918", "display_phone": "(201) 514-4918", "distance": 2324.1090856463793}, {"id": "5-aZJlCXDgdPK9nkMBEIng", "alias": "caffe-capri-east-rutherford", "name": "Caffe Capri", "image_url": "https://s3-media3.fl.yelpcdn.com/bphoto/Nfcc78xvf4lxO7wjOQ-zOg/o.jpg", "is_closed": false, "url": "https://www.yelp.com/biz/caffe-capri-east-rutherford?adjust_creative=a2JdNtFqB-C38ga_06BHvw&utm_campaign=yelp_api_v3&utm_medium=api_v3_business_search&utm_source=a2JdNtFqB-C38ga_06BHvw", "review_count": 110, "categories": [{"alias": "italian", "title": "Italian"}], "rating": 3.5, "coordinates": {"latitude": 40.8329137767563, "longitude": -74.0970048820819}, "transactions": ["delivery", "pickup"], "price": "$$", "location": {"address1": "119 Park Ave", "address2": "", "address3": "", "city": "East Rutherford", "zip_code": "07073", "country": "US", "state": "NJ", "display_address": ["119 Park Ave", "East Rutherford, NJ 07073"]}, "phone": "+12014601039", "display_phone": "(201) 460-1039", "distance": 2876.9754000025946}, {"id": "8QVodl0JGDNyJmtBa8hChA", "alias": "redds-restaurant-and-biergarten-carlstadt-2", "name": "Redds Restaurant & Biergarten", "image_url": "https://s3-media3.fl.yelpcdn.com/bphoto/U3LjyrrkIKx9YEgA8NLupw/o.jpg", "is_closed": false, "url": "https://www.yelp.com/biz/redds-restaurant-and-biergarten-carlstadt-2?adjust_creative=a2JdNtFqB-C38ga_06BHvw&utm_campaign=yelp_api_v3&utm_medium=api_v3_business_search&utm_source=a2JdNtFqB-C38ga_06BHvw", "review_count": 138, "categories": [{"alias": "tradamerican", "title": "American (Traditional)"}, {"alias": "sportsbars", "title": "Sports Bars"}, {"alias": "beergardens", "title": "Beer Gardens"}], "rating": 3.5, "coordinates": {"latitude": 40.817331, "longitude": -74.065861}, "transactions": ["delivery"], "price": "$$", "location": {"address1": "317 Washington Ave", "address2": "", "address3": "", "city": "Carlstadt", "zip_code": "07072", "country": "US", "state": "NJ", "display_address": ["317 Washington Ave", "Carlstadt, NJ 07072"]}, "phone": "+12019330015", "display_phone": "(201) 933-0015", "distance": 830.9593654336463}, {"id": "lmuX1DybRvpt9LDMHUuKAA", "alias": "carrabbas-italian-grill-secaucus", "name": "Carrabba's Italian Grill", "image_url": "https://s3-media4.fl.yelpcdn.com/bphoto/GmxsuR2mSV-dXnrEX-ZIeA/o.jpg", "is_closed": false, "url": "https://www.yelp.com/biz/carrabbas-italian-grill-secaucus?adjust_creative=a2JdNtFqB-C38ga_06BHvw&utm_campaign=yelp_api_v3&utm_medium=api_v3_business_search&utm_source=a2JdNtFqB-C38ga_06BHvw", "review_count": 223, "categories": [{"alias": "italian", "title": "Italian"}, {"alias": "seafood", "title": "Seafood"}], "rating": 3.0, "coordinates": {"latitude": 40.789311, "longitude": -74.044031317791}, "transactions": ["delivery", "pickup"], "price": "$$", "location": {"address1": "485 Harmon Meadow Blvd", "address2": "", "address3": "", "city": "Secaucus", "zip_code": "07094", "country": "US", "state": "NJ", "display_address": ["485 Harmon Meadow Blvd", "Secaucus, NJ 07094"]}, "phone": "+12013308497", "display_phone": "(201) 330-8497", "distance": 3710.6015009194102}, {"id": "usv3WPmx_IbHJPzvFkuOJA", "alias": "house-of-crepes-rutherford", "name": "House of Crepes", "image_url": "https://s3-media3.fl.yelpcdn.com/bphoto/vU5GY9Cemkdf_HpON2qdXA/o.jpg", "is_closed": false, "url": "https://www.yelp.com/biz/house-of-crepes-rutherford?adjust_creative=a2JdNtFqB-C38ga_06BHvw&utm_campaign=yelp_api_v3&utm_medium=api_v3_business_search&utm_source=a2JdNtFqB-C38ga_06BHvw", "review_count": 12, "categories": [{"alias": "creperies", "title": "Creperies"}], "rating": 4.5, "coordinates": {"latitude": 40.82737583225158, "longitude": -74.10360161215067}, "transactions": ["delivery", "pickup"], "location": {"address1": "47 Park Ave", "address2": "", "address3": null, "city": "Rutherford", "zip_code": "07070", "country": "US", "state": "NJ", "display_address": ["47 Park Ave", "Rutherford, NJ 07070"]}, "phone": "", "display_phone": "", "distance": 2902.6288498350436}, {"id": "LlnDOYSB2ue2Cd5DBDT_Jw", "alias": "forest-dairy-cold-cut-center-rutherford", "name": "Forest Dairy Cold Cut Center", "image_url": "https://s3-media3.fl.yelpcdn.com/bphoto/WtYUVrYmhkkMxReU8Nk2Dg/o.jpg", "is_closed": false, "url": "https://www.yelp.com/biz/forest-dairy-cold-cut-center-rutherford?adjust_creative=a2JdNtFqB-C38ga_06BHvw&utm_campaign=yelp_api_v3&utm_medium=api_v3_business_search&utm_source=a2JdNtFqB-C38ga_06BHvw", "review_count": 22, "categories": [{"alias": "delis", "title": "Delis"}, {"alias": "grocery", "title": "Grocery"}], "rating": 4.0, "coordinates": {"latitude": 40.82702, "longitude": -74.10402}, "transactions": ["pickup", "delivery"], "price": "$", "location": {"address1": "10 Spring Dell", "address2": "", "address3": "", "city": "Rutherford", "zip_code": "07070", "country": "US", "state": "NJ", "display_address": ["10 Spring Dell", "Rutherford, NJ 07070"]}, "phone": "+12019359085", "display_phone": "(201) 935-9085", "distance": 2910.9839510938973}, {"id": "EgEcgkyhnvtVZZEh0zye_g", "alias": "candlewyck-diner-east-rutherford", "name": "Candlewyck Diner", "image_url": "https://s3-media2.fl.yelpcdn.com/bphoto/rY3gRiMDLH9aZVeFoUF9Uw/o.jpg", "is_closed": false, "url": "https://www.yelp.com/biz/candlewyck-diner-east-rutherford?adjust_creative=a2JdNtFqB-C38ga_06BHvw&utm_campaign=yelp_api_v3&utm_medium=api_v3_business_search&utm_source=a2JdNtFqB-C38ga_06BHvw", "review_count": 431, "categories": [{"alias": "diners", "title": "Diners"}], "rating": 3.0, "coordinates": {"latitude": 40.8326598, "longitude": -74.0953233}, "transactions": ["delivery"], "price": "$$", "location": {"address1": "179 Paterson Ave", "address2": "", "address3": "", "city": "East Rutherford", "zip_code": "07073", "country": "US", "state": "NJ", "display_address": ["179 Paterson Ave", "East Rutherford, NJ 07073"]}, "phone": "+12019334446", "display_phone": "(201) 933-4446", "distance": 2764.1242519751027}, {"id": "kvIpUfbFh8jadKzVmR6yAw", "alias": "master-pizza-carlstadt-carlstadt", "name": "Master Pizza - Carlstadt", "image_url": "https://s3-media3.fl.yelpcdn.com/bphoto/Z2oirAgqpMf8-W5AUIrVqw/o.jpg", "is_closed": false, "url": "https://www.yelp.com/biz/master-pizza-carlstadt-carlstadt?adjust_creative=a2JdNtFqB-C38ga_06BHvw&utm_campaign=yelp_api_v3&utm_medium=api_v3_business_search&utm_source=a2JdNtFqB-C38ga_06BHvw", "review_count": 74, "categories": [{"alias": "pizza", "title": "Pizza"}, {"alias": "italian", "title": "Italian"}], "rating": 3.5, "coordinates": {"latitude": 40.83718, "longitude": -74.09161}, "transactions": ["pickup", "delivery"], "price": "$", "location": {"address1": "401 Hackensack St", "address2": "", "address3": null, "city": "Carlstadt", "zip_code": "07072", "country": "US", "state": "NJ", "display_address": ["401 Hackensack St", "Carlstadt, NJ 07072"]}, "phone": "+12019030050", "display_phone": "(201) 903-0050", "distance": 3007.615840788292}, {"id": "MxQmGAh22Lmg36wFcX-pfw", "alias": "five-guys-east-rutherford", "name": "Five Guys", "image_url": "https://s3-media1.fl.yelpcdn.com/bphoto/TSzu_8D_kph2beKksBJO3Q/o.jpg", "is_closed": false, "url": "https://www.yelp.com/biz/five-guys-east-rutherford?adjust_creative=a2JdNtFqB-C38ga_06BHvw&utm_campaign=yelp_api_v3&utm_medium=api_v3_business_search&utm_source=a2JdNtFqB-C38ga_06BHvw", "review_count": 81, "categories": [{"alias": "burgers", "title": "Burgers"}, {"alias": "hotdogs", "title": "Fast Food"}], "rating": 3.5, "coordinates": {"latitude": 40.831137660133685, "longitude": -74.08928658711889}, "transactions": ["delivery"], "price": "$$", "location": {"address1": "54 Route 17 N", "address2": "", "address3": "", "city": "East Rutherford", "zip_code": "07073", "country": "US", "state": "NJ", "display_address": ["54 Route 17 N", "East Rutherford, NJ 07073"]}, "phone": "+12015075550", "display_phone": "(201) 507-5550", "distance": 2326.2646054873317}, {"id": "c3eiYyNKX1K0EUlku8x-dw", "alias": "harolds-new-york-deli-restaurant-lyndhurst", "name": "Harold's New York Deli Restaurant", "image_url": "https://s3-media2.fl.yelpcdn.com/bphoto/BqSf1EndFTH06sOEtWPIrA/o.jpg", "is_closed": false, "url": "https://www.yelp.com/biz/harolds-new-york-deli-restaurant-lyndhurst?adjust_creative=a2JdNtFqB-C38ga_06BHvw&utm_campaign=yelp_api_v3&utm_medium=api_v3_business_search&utm_source=a2JdNtFqB-C38ga_06BHvw", "review_count": 225, "categories": [{"alias": "diners", "title": "Diners"}, {"alias": "delis", "title": "Delis"}, {"alias": "sandwiches", "title": "Sandwiches"}], "rating": 3.0, "coordinates": {"latitude": 40.808923, "longitude": -74.103342}, "transactions": ["delivery"], "price": "$$", "location": {"address1": "10 Polito Ave", "address2": "", "address3": "", "city": "Lyndhurst", "zip_code": "07071", "country": "US", "state": "NJ", "display_address": ["10 Polito Ave", "Lyndhurst, NJ 07071"]}, "phone": "+12019352600", "display_phone": "(201) 935-2600", "distance": 2482.696247445971}, {"id": "BQD2hBBOftUxLj-S1ENDzA", "alias": "la-mia-cucina-secaucus-5", "name": "La Mia Cucina", "image_url": "https://s3-media4.fl.yelpcdn.com/bphoto/Q4vFVDOFbE8EFkcKGpoiTQ/o.jpg", "is_closed": false, "url": "https://www.yelp.com/biz/la-mia-cucina-secaucus-5?adjust_creative=a2JdNtFqB-C38ga_06BHvw&utm_campaign=yelp_api_v3&utm_medium=api_v3_business_search&utm_source=a2JdNtFqB-C38ga_06BHvw", "review_count": 64, "categories": [{"alias": "pizza", "title": "Pizza"}], "rating": 3.5, "coordinates": {"latitude": 40.790976, "longitude": -74.059389}, "transactions": ["pickup", "delivery"], "price": "$$", "location": {"address1": "161 Front St", "address2": null, "address3": null, "city": "Secaucus", "zip_code": "07094", "country": "US", "state": "NJ", "display_address": ["161 Front St", "Secaucus, NJ 07094"]}, "phone": "+12015539711", "display_phone": "(201) 553-9711", "distance": 2805.3376810190152}, {"id": "ShZamNKgSkv8XKDnjE0kPw", "alias": "eros-cafe-east-rutherford", "name": "Eros Cafe", "image_url": "https://s3-media2.fl.yelpcdn.com/bphoto/CtDosJcHPB__HlpgeRhKGQ/o.jpg", "is_closed": false, "url": "https://www.yelp.com/biz/eros-cafe-east-rutherford?adjust_creative=a2JdNtFqB-C38ga_06BHvw&utm_campaign=yelp_api_v3&utm_medium=api_v3_business_search&utm_source=a2JdNtFqB-C38ga_06BHvw", "review_count": 117, "categories": [{"alias": "cafes", "title": "Cafes"}, {"alias": "greek", "title": "Greek"}], "rating": 3.5, "coordinates": {"latitude": 40.8284782, "longitude": -74.1001848}, "transactions": ["pickup", "delivery"], "price": "$$", "location": {"address1": "168 Union Ave", "address2": "", "address3": "", "city": "East Rutherford", "zip_code": "07073", "country": "US", "state": "NJ", "display_address": ["168 Union Ave", "East Rutherford, NJ 07073"]}, "phone": "+12017290005", "display_phone": "(201) 729-0005", "distance": 2760.319759333371}, {"id": "PU5T8Yvmb7dEMKBa1i5k1w", "alias": "jersey-mikes-east-rutherford", "name": "Jersey Mike's", "image_url": "https://s3-media1.fl.yelpcdn.com/bphoto/GVG4i7RpyS3xxFYHYcHhsQ/o.jpg", "is_closed": false, "url": "https://www.yelp.com/biz/jersey-mikes-east-rutherford?adjust_creative=a2JdNtFqB-C38ga_06BHvw&utm_campaign=yelp_api_v3&utm_medium=api_v3_business_search&utm_source=a2JdNtFqB-C38ga_06BHvw", "review_count": 60, "categories": [{"alias": "sandwiches", "title": "Sandwiches"}, {"alias": "hotdogs", "title": "Fast Food"}, {"alias": "delis", "title": "Delis"}], "rating": 3.5, "coordinates": {"latitude": 40.8311534, "longitude": -74.089251}, "transactions": ["pickup", "delivery"], "location": {"address1": "50 Route 17 N", "address2": "", "address3": null, "city": "East Rutherford", "zip_code": "07073", "country": "US", "state": "NJ", "display_address": ["50 Route 17 N", "East Rutherford, NJ 07073"]}, "phone": "+12019352088", "display_phone": "(201) 935-2088", "distance": 2326.123613384279}, {"id": "Y4eqn5D2Emukncw1A3K8Wg", "alias": "areena-thai-cuisine-carlstadt-2", "name": "Areena Thai Cuisine", "image_url": "https://s3-media3.fl.yelpcdn.com/bphoto/QNCD12OPuJeeSDUpP1Hw0g/o.jpg", "is_closed": false, "url": "https://www.yelp.com/biz/areena-thai-cuisine-carlstadt-2?adjust_creative=a2JdNtFqB-C38ga_06BHvw&utm_campaign=yelp_api_v3&utm_medium=api_v3_business_search&utm_source=a2JdNtFqB-C38ga_06BHvw", "review_count": 11, "categories": [{"alias": "thai", "title": "Thai"}, {"alias": "desserts", "title": "Desserts"}, {"alias": "salad", "title": "Salad"}], "rating": 4.5, "coordinates": {"latitude": 40.836327, "longitude": -74.092468}, "transactions": ["pickup", "delivery"], "location": {"address1": "312 Hackensack St", "address2": null, "address3": "", "city": "Carlstadt", "zip_code": "07072", "country": "US", "state": "NJ", "display_address": ["312 Hackensack St", "Carlstadt, NJ 07072"]}, "phone": "+12015591424", "display_phone": "(201) 559-1424", "distance": 2953.6358639536943}, {"id": "gv3kjwjxsrj6oTZOtJb_fg", "alias": "jersey-mikes-subs-secaucus", "name": "Jersey Mike's Subs", "image_url": "https://s3-media3.fl.yelpcdn.com/bphoto/_BXipTH0l7EAT09pOy979g/o.jpg", "is_closed": false, "url": "https://www.yelp.com/biz/jersey-mikes-subs-secaucus?adjust_creative=a2JdNtFqB-C38ga_06BHvw&utm_campaign=yelp_api_v3&utm_medium=api_v3_business_search&utm_source=a2JdNtFqB-C38ga_06BHvw", "review_count": 17, "categories": [{"alias": "hotdogs", "title": "Fast Food"}, {"alias": "delis", "title": "Delis"}, {"alias": "sandwiches", "title": "Sandwiches"}], "rating": 4.0, "coordinates": {"latitude": 40.7914979, "longitude": -74.049511}, "transactions": [], "price": "$$", "location": {"address1": "200 Mill Creek Dr", "address2": null, "address3": null, "city": "Secaucus", "zip_code": "07094", "country": "US", "state": "NJ", "display_address": ["200 Mill Creek Dr", "Secaucus, NJ 07094"]}, "phone": "+12012938493", "display_phone": "(201) 293-8493", "distance": 3221.1284887159277}, {"id": "izf6mlLY6EYPgf5ubzsFjA", "alias": "meadowlands-diner-carlstadt", "name": "Meadowlands Diner", "image_url": "https://s3-media3.fl.yelpcdn.com/bphoto/C3TXFZHRhqTvxf_kFEBbYQ/o.jpg", "is_closed": false, "url": "https://www.yelp.com/biz/meadowlands-diner-carlstadt?adjust_creative=a2JdNtFqB-C38ga_06BHvw&utm_campaign=yelp_api_v3&utm_medium=api_v3_business_search&utm_source=a2JdNtFqB-C38ga_06BHvw", "review_count": 160, "categories": [{"alias": "diners", "title": "Diners"}], "rating": 3.0, "coordinates": {"latitude": 40.833898, "longitude": -74.088163}, "transactions": ["pickup", "delivery"], "price": "$$", "location": {"address1": "320 NJ-17", "address2": "", "address3": "", "city": "Carlstadt", "zip_code": "07072", "country": "US", "state": "NJ", "display_address": ["320 NJ-17", "Carlstadt, NJ 07072"]}, "phone": "+12019355444", "display_phone": "(201) 935-5444", "distance": 2545.415317359293}, {"id": "NwyhMWu6zsN4tBZQ2Fz-9A", "alias": "la-havana-59-moonachie", "name": "La Havana 59", "image_url": "https://s3-media4.fl.yelpcdn.com/bphoto/c0HXpflQrGNK4gbrtiYXWg/o.jpg", "is_closed": false, "url": "https://www.yelp.com/biz/la-havana-59-moonachie?adjust_creative=a2JdNtFqB-C38ga_06BHvw&utm_campaign=yelp_api_v3&utm_medium=api_v3_business_search&utm_source=a2JdNtFqB-C38ga_06BHvw", "review_count": 301, "categories": [{"alias": "cuban", "title": "Cuban"}], "rating": 3.0, "coordinates": {"latitude": 40.8383708013101, "longitude": -74.063100494674}, "transactions": ["pickup", "delivery"], "price": "$$", "location": {"address1": "110 Moonachie Ave", "address2": "", "address3": "", "city": "Moonachie", "zip_code": "07074", "country": "US", "state": "NJ", "display_address": ["110 Moonachie Ave", "Moonachie, NJ 07074"]}, "phone": "+12019649515", "display_phone": "(201) 964-9515", "distance": 2920.3596474145165}, {"id": "U8cwzchWvTB4tfs-K62bTQ", "alias": "bagel-buffet-secaucus", "name": "Bagel Buffet", "image_url": "https://s3-media2.fl.yelpcdn.com/bphoto/x32J47A6vUWYFmerNbQXuQ/o.jpg", "is_closed": false, "url": "https://www.yelp.com/biz/bagel-buffet-secaucus?adjust_creative=a2JdNtFqB-C38ga_06BHvw&utm_campaign=yelp_api_v3&utm_medium=api_v3_business_search&utm_source=a2JdNtFqB-C38ga_06BHvw", "review_count": 202, "categories": [{"alias": "bagels", "title": "Bagels"}, {"alias": "delis", "title": "Delis"}], "rating": 3.0, "coordinates": {"latitude": 40.7911015, "longitude": -74.0568152}, "transactions": ["pickup"], "price": "$", "location": {"address1": "127 Plaza Ctr", "address2": "", "address3": "", "city": "Secaucus", "zip_code": "07094", "country": "US", "state": "NJ", "display_address": ["127 Plaza Ctr", "Secaucus, NJ 07094"]}, "phone": "+12018631710", "display_phone": "(201) 863-1710", "distance": 2858.335777193853}, {"id": "ibS4MPCwdVEDSt5pXN5r9w", "alias": "olive-garden-italian-restaurant-secaucus-3", "name": "Olive Garden Italian Restaurant", "image_url": "https://s3-media2.fl.yelpcdn.com/bphoto/OmfJ1G3_ikeV6woeHcKQvg/o.jpg", "is_closed": false, "url": "https://www.yelp.com/biz/olive-garden-italian-restaurant-secaucus-3?adjust_creative=a2JdNtFqB-C38ga_06BHvw&utm_campaign=yelp_api_v3&utm_medium=api_v3_business_search&utm_source=a2JdNtFqB-C38ga_06BHvw", "review_count": 261, "categories": [{"alias": "italian", "title": "Italian"}, {"alias": "salad", "title": "Salad"}, {"alias": "soup", "title": "Soup"}], "rating": 3.0, "coordinates": {"latitude": 40.7907619, "longitude": -74.052032}, "transactions": [], "price": "$$", "location": {"address1": "500 State Rt 3", "address2": "", "address3": "", "city": "Secaucus", "zip_code": "07094", "country": "US", "state": "NJ", "display_address": ["500 State Rt 3", "Secaucus, NJ 07094"]}, "phone": "+12018673543", "display_phone": "(201) 867-3543", "distance": 3152.8899696233343}, {"id": "AfbJhLfyNz3irHlcXbMayQ", "alias": "finchs-restaurant-and-lounge-rutherford-2", "name": "Finch's Restaurant and Lounge", "image_url": "https://s3-media1.fl.yelpcdn.com/bphoto/kKKTGGGvA5MN81PfKtDDQQ/o.jpg", "is_closed": false, "url": "https://www.yelp.com/biz/finchs-restaurant-and-lounge-rutherford-2?adjust_creative=a2JdNtFqB-C38ga_06BHvw&utm_campaign=yelp_api_v3&utm_medium=api_v3_business_search&utm_source=a2JdNtFqB-C38ga_06BHvw", "review_count": 26, "categories": [{"alias": "tradamerican", "title": "American (Traditional)"}, {"alias": "lounges", "title": "Lounges"}], "rating": 4.0, "coordinates": {"latitude": 40.811501, "longitude": -74.104017}, "transactions": [], "price": "$$", "location": {"address1": "801 Rutherford Ave", "address2": "", "address3": "", "city": "Rutherford", "zip_code": "07070", "country": "US", "state": "NJ", "display_address": ["801 Rutherford Ave", "Rutherford, NJ 07070"]}, "phone": "+12012313141", "display_phone": "(201) 231-3141", "distance": 2505.947726249892}, {"id": "4qnc9S9ZTShMMxFtypbRpQ", "alias": "red-lobster-secaucus", "name": "Red Lobster", "image_url": "https://s3-media1.fl.yelpcdn.com/bphoto/Frpj9lvzHf-jkdxObOK5xA/o.jpg", "is_closed": false, "url": "https://www.yelp.com/biz/red-lobster-secaucus?adjust_creative=a2JdNtFqB-C38ga_06BHvw&utm_campaign=yelp_api_v3&utm_medium=api_v3_business_search&utm_source=a2JdNtFqB-C38ga_06BHvw", "review_count": 191, "categories": [{"alias": "seafood", "title": "Seafood"}, {"alias": "tradamerican", "title": "American (Traditional)"}], "rating": 3.0, "coordinates": {"latitude": 40.786442, "longitude": -74.046047}, "transactions": ["delivery"], "price": "$$", "location": {"address1": "700 Plaza Dr", "address2": "THE PLAZA AT HARMON MEADOWS", "address3": "", "city": "Secaucus", "zip_code": "07094", "country": "US", "state": "NJ", "display_address": ["700 Plaza Dr", "THE PLAZA AT HARMON MEADOWS", "Secaucus, NJ 07094"]}, "phone": "+12015831902", "display_phone": "(201) 583-1902", "distance": 3840.7286761506557}, {"id": "7gHO5f3sK_tl_nCb6FwXoA", "alias": "plaza-pizza-secaucus", "name": "Plaza Pizza", "image_url": "https://s3-media2.fl.yelpcdn.com/bphoto/IqYURlmUjDxZkFkSCfgqGA/o.jpg", "is_closed": false, "url": "https://www.yelp.com/biz/plaza-pizza-secaucus?adjust_creative=a2JdNtFqB-C38ga_06BHvw&utm_campaign=yelp_api_v3&utm_medium=api_v3_business_search&utm_source=a2JdNtFqB-C38ga_06BHvw", "review_count": 111, "categories": [{"alias": "pizza", "title": "Pizza"}], "rating": 3.0, "coordinates": {"latitude": 40.7903651, "longitude": -74.0574669}, "transactions": ["delivery"], "price": "$", "location": {"address1": "89 Plaza Ctr", "address2": "", "address3": "", "city": "Secaucus", "zip_code": "07094", "country": "US", "state": "NJ", "display_address": ["89 Plaza Ctr", "Secaucus, NJ 07094"]}, "phone": "+12018640858", "display_phone": "(201) 864-0858", "distance": 2942.0692311140056}, {"id": "cuVIbEtx_LJ-Sv6hiNIzng", "alias": "hamburguesa-carlstadt", "name": "Hamburguesa", "image_url": "https://s3-media4.fl.yelpcdn.com/bphoto/lTSrtEbnpOP8kg2dyjUbBw/o.jpg", "is_closed": false, "url": "https://www.yelp.com/biz/hamburguesa-carlstadt?adjust_creative=a2JdNtFqB-C38ga_06BHvw&utm_campaign=yelp_api_v3&utm_medium=api_v3_business_search&utm_source=a2JdNtFqB-C38ga_06BHvw", "review_count": 20, "categories": [{"alias": "burgers", "title": "Burgers"}, {"alias": "juicebars", "title": "Juice Bars & Smoothies"}, {"alias": "mexican", "title": "Mexican"}], "rating": 4.0, "coordinates": {"latitude": 40.8372786885424, "longitude": -74.0915910154581}, "transactions": ["pickup", "delivery"], "location": {"address1": "403 Hackensack St", "address2": "", "address3": null, "city": "Carlstadt", "zip_code": "07072", "country": "US", "state": "NJ", "display_address": ["403 Hackensack St", "Carlstadt, NJ 07072"]}, "phone": "+12015800222", "display_phone": "(201) 580-0222", "distance": 3012.713932831632}, {"id": "MC4WePsOf7250nnMIk46Sg", "alias": "chris-pizza-rutherford", "name": "Chris' Pizza", "image_url": "https://s3-media3.fl.yelpcdn.com/bphoto/tFd4YmAgsqAfS1VHeX4EzQ/o.jpg", "is_closed": false, "url": "https://www.yelp.com/biz/chris-pizza-rutherford?adjust_creative=a2JdNtFqB-C38ga_06BHvw&utm_campaign=yelp_api_v3&utm_medium=api_v3_business_search&utm_source=a2JdNtFqB-C38ga_06BHvw", "review_count": 48, "categories": [{"alias": "pizza", "title": "Pizza"}], "rating": 3.5, "coordinates": {"latitude": 40.82566, "longitude": -74.10975}, "transactions": ["pickup", "delivery"], "price": "$", "location": {"address1": "200 Park Ave", "address2": "", "address3": "", "city": "Rutherford", "zip_code": "07070", "country": "US", "state": "NJ", "display_address": ["200 Park Ave", "Rutherford, NJ 07070"]}, "phone": "+12019333315", "display_phone": "(201) 933-3315", "distance": 3250.6906007008847}, {"id": "b3RyhECag79IHeDOvaaNrw", "alias": "outback-steakhouse-secaucus", "name": "Outback Steakhouse", "image_url": "https://s3-media2.fl.yelpcdn.com/bphoto/iW4HI7fQouo1q84JfvQZJA/o.jpg", "is_closed": false, "url": "https://www.yelp.com/biz/outback-steakhouse-secaucus?adjust_creative=a2JdNtFqB-C38ga_06BHvw&utm_campaign=yelp_api_v3&utm_medium=api_v3_business_search&utm_source=a2JdNtFqB-C38ga_06BHvw", "review_count": 311, "categories": [{"alias": "steak", "title": "Steakhouses"}], "rating": 3.0, "coordinates": {"latitude": 40.7888373454472, "longitude": -74.0445814893267}, "transactions": [], "price": "$$", "location": {"address1": "455 Harmon Meadow Blvd", "address2": "", "address3": "", "city": "Secaucus", "zip_code": "07094", "country": "US", "state": "NJ", "display_address": ["455 Harmon Meadow Blvd", "Secaucus, NJ 07094"]}, "phone": "+12016010077", "display_phone": "(201) 601-0077", "distance": 3717.624156485023}, {"id": "Ibk2DnCNvlWd9Oi61jaK-A", "alias": "chipotle-mexican-grill-secaucus", "name": "Chipotle Mexican Grill", "image_url": "https://s3-media3.fl.yelpcdn.com/bphoto/GBCFk1ELLdciL6pfSyWMYw/o.jpg", "is_closed": false, "url": "https://www.yelp.com/biz/chipotle-mexican-grill-secaucus?adjust_creative=a2JdNtFqB-C38ga_06BHvw&utm_campaign=yelp_api_v3&utm_medium=api_v3_business_search&utm_source=a2JdNtFqB-C38ga_06BHvw", "review_count": 99, "categories": [{"alias": "hotdogs", "title": "Fast Food"}, {"alias": "mexican", "title": "Mexican"}], "rating": 3.0, "coordinates": {"latitude": 40.7875631077981, "longitude": -74.0457996006117}, "transactions": ["delivery"], "price": "$", "location": {"address1": "700 Plaza Dr", "address2": "", "address3": "", "city": "Secaucus", "zip_code": "07094", "country": "US", "state": "NJ", "display_address": ["700 Plaza Dr", "Secaucus, NJ 07094"]}, "phone": "+12013301349", "display_phone": "(201) 330-1349", "distance": 3757.049372736297}, {"id": "D1xIQojuqtk8Y_GSLnJdOQ", "alias": "mamouns-falafel-east-rutherford-east-rutherford-2", "name": "Mamoun's Falafel - East Rutherford", "image_url": "https://s3-media3.fl.yelpcdn.com/bphoto/IFLRStLjnxcwMro3OHPsYQ/o.jpg", "is_closed": false, "url": "https://www.yelp.com/biz/mamouns-falafel-east-rutherford-east-rutherford-2?adjust_creative=a2JdNtFqB-C38ga_06BHvw&utm_campaign=yelp_api_v3&utm_medium=api_v3_business_search&utm_source=a2JdNtFqB-C38ga_06BHvw", "review_count": 42, "categories": [{"alias": "mideastern", "title": "Middle Eastern"}, {"alias": "falafel", "title": "Falafel"}, {"alias": "sandwiches", "title": "Sandwiches"}], "rating": 3.5, "coordinates": {"latitude": 40.830917, "longitude": -74.08944}, "transactions": ["delivery"], "location": {"address1": "90 Route 17", "address2": "", "address3": "", "city": "East Rutherford", "zip_code": "07073", "country": "US", "state": "NJ", "display_address": ["90 Route 17", "East Rutherford, NJ 07073"]}, "phone": "+12013404102", "display_phone": "(201) 340-4102", "distance": 2312.707818463554}, {"id": "o7fIFh6OgHy8jryyYM3VNA", "alias": "flaming-grill-and-supreme-buffet-east-rutherford", "name": "Flaming Grill & Supreme Buffet", "image_url": "https://s3-media1.fl.yelpcdn.com/bphoto/hg_rJVUe9efQ7MXFPCeYHg/o.jpg", "is_closed": false, "url": "https://www.yelp.com/biz/flaming-grill-and-supreme-buffet-east-rutherford?adjust_creative=a2JdNtFqB-C38ga_06BHvw&utm_campaign=yelp_api_v3&utm_medium=api_v3_business_search&utm_source=a2JdNtFqB-C38ga_06BHvw", "review_count": 340, "categories": [{"alias": "buffets", "title": "Buffets"}, {"alias": "tradamerican", "title": "American (Traditional)"}], "rating": 3.0, "coordinates": {"latitude": 40.8297868, "longitude": -74.0920766}, "transactions": [], "price": "$$", "location": {"address1": "53 Rt 17 S", "address2": "", "address3": "", "city": "East Rutherford", "zip_code": "07073", "country": "US", "state": "NJ", "display_address": ["53 Rt 17 S", "East Rutherford, NJ 07073"]}, "phone": "+12014381115", "display_phone": "(201) 438-1115", "distance": 2495.2856489566893}, {"id": "jbD90y_6Mc91tpacf-dOsg", "alias": "ilforno-pizza-and-ristorante-secaucus-2", "name": "Ilforno Pizza & Ristorante", "image_url": "https://s3-media1.fl.yelpcdn.com/bphoto/g9VZPJv1R-A6feQdV6l3_Q/o.jpg", "is_closed": false, "url": "https://www.yelp.com/biz/ilforno-pizza-and-ristorante-secaucus-2?adjust_creative=a2JdNtFqB-C38ga_06BHvw&utm_campaign=yelp_api_v3&utm_medium=api_v3_business_search&utm_source=a2JdNtFqB-C38ga_06BHvw", "review_count": 58, "categories": [{"alias": "pizza", "title": "Pizza"}, {"alias": "italian", "title": "Italian"}], "rating": 3.5, "coordinates": {"latitude": 40.79882, "longitude": -74.05815}, "transactions": ["pickup", "delivery"], "price": "$$", "location": {"address1": "1536 Paterson Plank Rd", "address2": "", "address3": "", "city": "Secaucus", "zip_code": "07094", "country": "US", "state": "NJ", "display_address": ["1536 Paterson Plank Rd", "Secaucus, NJ 07094"]}, "phone": "+12018646576", "display_phone": "(201) 864-6576", "distance": 2118.6481364380584}, {"id": "5yHuB6cT4Y82u22kOziobw", "alias": "china-chef-restaurant-secaucus", "name": "China Chef Restaurant", "image_url": "https://s3-media3.fl.yelpcdn.com/bphoto/uLS-rDwAtXN5-fFeBM-vTg/o.jpg", "is_closed": false, "url": "https://www.yelp.com/biz/china-chef-restaurant-secaucus?adjust_creative=a2JdNtFqB-C38ga_06BHvw&utm_campaign=yelp_api_v3&utm_medium=api_v3_business_search&utm_source=a2JdNtFqB-C38ga_06BHvw", "review_count": 119, "categories": [{"alias": "dimsum", "title": "Dim Sum"}, {"alias": "bars", "title": "Bars"}], "rating": 3.0, "coordinates": {"latitude": 40.791615379318, "longitude": -74.0578033479041}, "transactions": ["delivery"], "price": "$$", "location": {"address1": "1322 Paterson Plank Rd", "address2": "", "address3": "", "city": "Secaucus", "zip_code": "07094", "country": "US", "state": "NJ", "display_address": ["1322 Paterson Plank Rd", "Secaucus, NJ 07094"]}, "phone": "+12013486386", "display_phone": "(201) 348-6386", "distance": 2806.988198931676}, {"id": "rnzmgBYAQBLx4j9ReQP_1Q", "alias": "wayback-burgers-secaucus", "name": "Wayback Burgers", "image_url": "https://s3-media1.fl.yelpcdn.com/bphoto/wD3NQGvUc8ZZMzqby4f7IQ/o.jpg", "is_closed": false, "url": "https://www.yelp.com/biz/wayback-burgers-secaucus?adjust_creative=a2JdNtFqB-C38ga_06BHvw&utm_campaign=yelp_api_v3&utm_medium=api_v3_business_search&utm_source=a2JdNtFqB-C38ga_06BHvw", "review_count": 42, "categories": [{"alias": "burgers", "title": "Burgers"}, {"alias": "tradamerican", "title": "American (Traditional)"}], "rating": 3.5, "coordinates": {"latitude": 40.79068, "longitude": -74.05728}, "transactions": ["pickup"], "location": {"address1": "83 Plaza Ctr", "address2": "", "address3": null, "city": "Secaucus", "zip_code": "07094", "country": "US", "state": "NJ", "display_address": ["83 Plaza Ctr", "Secaucus, NJ 07094"]}, "phone": "+12012934654", "display_phone": "(201) 293-4654", "distance": 2874.5268761031375}, {"id": "E4gQwFg1SP2qebGC9gQlGQ", "alias": "capri-deli-and-liquor-of-east-rutherford-east-rutherford", "name": "Capri Deli & Liquor of East Rutherford", "image_url": "https://s3-media1.fl.yelpcdn.com/bphoto/BYPDD6TBsC_HnOIL7eQOdA/o.jpg", "is_closed": false, "url": "https://www.yelp.com/biz/capri-deli-and-liquor-of-east-rutherford-east-rutherford?adjust_creative=a2JdNtFqB-C38ga_06BHvw&utm_campaign=yelp_api_v3&utm_medium=api_v3_business_search&utm_source=a2JdNtFqB-C38ga_06BHvw", "review_count": 6, "categories": [{"alias": "delis", "title": "Delis"}, {"alias": "beer_and_wine", "title": "Beer, Wine & Spirits"}], "rating": 5.0, "coordinates": {"latitude": 40.833065, "longitude": -74.097053}, "transactions": [], "price": "$$", "location": {"address1": "226 Paterson Ave", "address2": "", "address3": "", "city": "East Rutherford", "zip_code": "07073", "country": "US", "state": "NJ", "display_address": ["226 Paterson Ave", "East Rutherford, NJ 07073"]}, "phone": "+12015071749", "display_phone": "(201) 507-1749", "distance": 2906.1554052219744}, {"id": "klM3sO3lJka_Oi5ZuRwVzw", "alias": "saladworks-east-rutherford", "name": "Saladworks", "image_url": "https://s3-media4.fl.yelpcdn.com/bphoto/-lwBaTNbErmf8YAaA4A7fg/o.jpg", "is_closed": false, "url": "https://www.yelp.com/biz/saladworks-east-rutherford?adjust_creative=a2JdNtFqB-C38ga_06BHvw&utm_campaign=yelp_api_v3&utm_medium=api_v3_business_search&utm_source=a2JdNtFqB-C38ga_06BHvw", "review_count": 59, "categories": [{"alias": "vegetarian", "title": "Vegetarian"}, {"alias": "salad", "title": "Salad"}, {"alias": "soup", "title": "Soup"}], "rating": 3.0, "coordinates": {"latitude": 40.8312758688691, "longitude": -74.0890138576548}, "transactions": ["pickup", "delivery"], "price": "$$", "location": {"address1": "30 Route 17 N", "address2": "", "address3": "", "city": "East Rutherford", "zip_code": "07073", "country": "US", "state": "NJ", "display_address": ["30 Route 17 N", "East Rutherford, NJ 07073"]}, "phone": "+12019398886", "display_phone": "(201) 939-8886", "distance": 2326.9737889831754}, {"id": "7X7HAQexOSzupyXRRiemQQ", "alias": "rice-shop-east-rutherford", "name": "Rice Shop", "image_url": "https://s3-media2.fl.yelpcdn.com/bphoto/IVUudApcaxyTlTnv8KOHwA/o.jpg", "is_closed": false, "url": "https://www.yelp.com/biz/rice-shop-east-rutherford?adjust_creative=a2JdNtFqB-C38ga_06BHvw&utm_campaign=yelp_api_v3&utm_medium=api_v3_business_search&utm_source=a2JdNtFqB-C38ga_06BHvw", "review_count": 71, "categories": [{"alias": "chinese", "title": "Chinese"}], "rating": 3.0, "coordinates": {"latitude": 40.8396199, "longitude": -74.10063}, "transactions": ["delivery"], "price": "$", "location": {"address1": "423 Paterson Ave", "address2": null, "address3": "", "city": "East Rutherford", "zip_code": "07073", "country": "US", "state": "NJ", "display_address": ["423 Paterson Ave", "East Rutherford, NJ 07073"]}, "phone": "+12019339432", "display_phone": "(201) 933-9432", "distance": 3652.248532391037}, {"id": "u7VwuzmZ3Ifz4E8GXoa8ew", "alias": "hop-hing-kitchen-rutherford", "name": "Hop Hing Kitchen", "image_url": "https://s3-media2.fl.yelpcdn.com/bphoto/jxMUH05c4tbWNZdrL3jgzw/o.jpg", "is_closed": false, "url": "https://www.yelp.com/biz/hop-hing-kitchen-rutherford?adjust_creative=a2JdNtFqB-C38ga_06BHvw&utm_campaign=yelp_api_v3&utm_medium=api_v3_business_search&utm_source=a2JdNtFqB-C38ga_06BHvw", "review_count": 22, "categories": [{"alias": "chinese", "title": "Chinese"}], "rating": 3.5, "coordinates": {"latitude": 40.82779, "longitude": -74.10235}, "transactions": ["delivery"], "price": "$", "location": {"address1": "29 Park Ave", "address2": "", "address3": "", "city": "Rutherford", "zip_code": "07070", "country": "US", "state": "NJ", "display_address": ["29 Park Ave", "Rutherford, NJ 07070"]}, "phone": "+12018966668", "display_phone": "(201) 896-6668", "distance": 2847.3984237476566}, {"id": "dntM9E_vKVAbEOWkqca3aA", "alias": "buffalo-wild-wings-secaucus", "name": "Buffalo Wild Wings", "image_url": "https://s3-media2.fl.yelpcdn.com/bphoto/bMDSvQGWvHHDyTHAqlZ5xQ/o.jpg", "is_closed": false, "url": "https://www.yelp.com/biz/buffalo-wild-wings-secaucus?adjust_creative=a2JdNtFqB-C38ga_06BHvw&utm_campaign=yelp_api_v3&utm_medium=api_v3_business_search&utm_source=a2JdNtFqB-C38ga_06BHvw", "review_count": 460, "categories": [{"alias": "sportsbars", "title": "Sports Bars"}, {"alias": "tradamerican", "title": "American (Traditional)"}, {"alias": "chicken_wings", "title": "Chicken Wings"}], "rating": 2.5, "coordinates": {"latitude": 40.790299, "longitude": -74.0447}, "transactions": [], "price": "$$", "location": {"address1": "470 Harmon Meadow Blvd", "address2": "", "address3": "", "city": "Secaucus", "zip_code": "07094", "country": "US", "state": "NJ", "display_address": ["470 Harmon Meadow Blvd", "Secaucus, NJ 07094"]}, "phone": "+12013480824", "display_phone": "(201) 348-0824", "distance": 3592.306236224893}, {"id": "P0mdWVHjsKMDF3NKeR0Weg", "alias": "la-fortaleza-carlstadt", "name": "La Fortaleza", "image_url": "https://s3-media2.fl.yelpcdn.com/bphoto/4oQ47_R3E1HdPsEfv6eyJA/o.jpg", "is_closed": false, "url": "https://www.yelp.com/biz/la-fortaleza-carlstadt?adjust_creative=a2JdNtFqB-C38ga_06BHvw&utm_campaign=yelp_api_v3&utm_medium=api_v3_business_search&utm_source=a2JdNtFqB-C38ga_06BHvw", "review_count": 52, "categories": [{"alias": "mexican", "title": "Mexican"}], "rating": 3.0, "coordinates": {"latitude": 40.83033616424823, "longitude": -74.08366475254297}, "transactions": ["pickup", "delivery"], "location": {"address1": "335 Paterson Plank Rd", "address2": "", "address3": null, "city": "Carlstadt", "zip_code": "07072", "country": "US", "state": "NJ", "display_address": ["335 Paterson Plank Rd", "Carlstadt, NJ 07072"]}, "phone": "+12014600100", "display_phone": "(201) 460-0100", "distance": 2026.3219393359511}, {"id": "7sckOlsfPcNk56jqa20fxA", "alias": "railroad-cafe-east-rutherford", "name": "Railroad Cafe", "image_url": "https://s3-media3.fl.yelpcdn.com/bphoto/HOTCBoeC5tEQw4sRGrJWVA/o.jpg", "is_closed": false, "url": "https://www.yelp.com/biz/railroad-cafe-east-rutherford?adjust_creative=a2JdNtFqB-C38ga_06BHvw&utm_campaign=yelp_api_v3&utm_medium=api_v3_business_search&utm_source=a2JdNtFqB-C38ga_06BHvw", "review_count": 46, "categories": [{"alias": "tradamerican", "title": "American (Traditional)"}, {"alias": "cafes", "title": "Cafes"}, {"alias": "bars", "title": "Bars"}], "rating": 3.0, "coordinates": {"latitude": 40.828403, "longitude": -74.100166}, "transactions": ["delivery"], "price": "$$", "location": {"address1": "170 Union Ave", "address2": "", "address3": "", "city": "East Rutherford", "zip_code": "07073", "country": "US", "state": "NJ", "display_address": ["170 Union Ave", "East Rutherford, NJ 07073"]}, "phone": "+12019390644", "display_phone": "(201) 939-0644", "distance": 2738.3006592492225}, {"id": "GVu1jkBNVDfaFxHFTzdhCg", "alias": "panera-bread-secaucus", "name": "Panera Bread", "image_url": "https://s3-media1.fl.yelpcdn.com/bphoto/fU0_6T_jn1vKJkS8IcVlwg/o.jpg", "is_closed": false, "url": "https://www.yelp.com/biz/panera-bread-secaucus?adjust_creative=a2JdNtFqB-C38ga_06BHvw&utm_campaign=yelp_api_v3&utm_medium=api_v3_business_search&utm_source=a2JdNtFqB-C38ga_06BHvw", "review_count": 129, "categories": [{"alias": "sandwiches", "title": "Sandwiches"}, {"alias": "salad", "title": "Salad"}, {"alias": "soup", "title": "Soup"}], "rating": 2.5, "coordinates": {"latitude": 40.7919126, "longitude": -74.04948}, "transactions": ["pickup", "delivery"], "price": "$$", "location": {"address1": "200 Mill Creek Dr", "address2": "", "address3": "", "city": "Secaucus", "zip_code": "07094", "country": "US", "state": "NJ", "display_address": ["200 Mill Creek Dr", "Secaucus, NJ 07094"]}, "phone": "+12013482846", "display_phone": "(201) 348-2846", "distance": 3187.91038645261}, {"id": "aiIhXRH_gPrKeYZtZEawqA", "alias": "mix-platter-halal-boys-secaucus", "name": "Mix Platter Halal Boys", "image_url": "https://s3-media3.fl.yelpcdn.com/bphoto/PYKYRwXyRHT2ajUbcVoKzA/o.jpg", "is_closed": false, "url": "https://www.yelp.com/biz/mix-platter-halal-boys-secaucus?adjust_creative=a2JdNtFqB-C38ga_06BHvw&utm_campaign=yelp_api_v3&utm_medium=api_v3_business_search&utm_source=a2JdNtFqB-C38ga_06BHvw", "review_count": 47, "categories": [{"alias": "halal", "title": "Halal"}, {"alias": "mediterranean", "title": "Mediterranean"}, {"alias": "desserts", "title": "Desserts"}], "rating": 3.0, "coordinates": {"latitude": 40.79151, "longitude": -74.05698}, "transactions": ["pickup", "delivery"], "price": "$", "location": {"address1": "101 Plaza Ctr", "address2": "", "address3": null, "city": "Secaucus", "zip_code": "07094", "country": "US", "state": "NJ", "display_address": ["101 Plaza Ctr", "Secaucus, NJ 07094"]}, "phone": "+12012102755", "display_phone": "(201) 210-2755", "distance": 2834.6002869821855}, {"id": "bKI7w_gBTEyexwBaE8TAOw", "alias": "cafe-amore-lyndhurst-lyndhurst-2", "name": "Cafe Amore Lyndhurst", "image_url": "https://s3-media2.fl.yelpcdn.com/bphoto/EwHSOW2SC-3UYyIxXCLh0g/o.jpg", "is_closed": false, "url": "https://www.yelp.com/biz/cafe-amore-lyndhurst-lyndhurst-2?adjust_creative=a2JdNtFqB-C38ga_06BHvw&utm_campaign=yelp_api_v3&utm_medium=api_v3_business_search&utm_source=a2JdNtFqB-C38ga_06BHvw", "review_count": 5, "categories": [{"alias": "cafes", "title": "Cafes"}, {"alias": "sushi", "title": "Sushi Bars"}], "rating": 5.0, "coordinates": {"latitude": 40.80947, "longitude": -74.106}, "transactions": ["delivery"], "location": {"address1": "9 Polito Ave", "address2": null, "address3": "", "city": "Lyndhurst", "zip_code": "07071", "country": "US", "state": "NJ", "display_address": ["9 Polito Ave", "Lyndhurst, NJ 07071"]}, "phone": "+12019330001", "display_phone": "(201) 933-0001", "distance": 2688.5822855908823}, {"id": "Pu6MCEqRYocb3Cdu9Q5XwA", "alias": "chilis-east-rutherford", "name": "Chili's", "image_url": "https://s3-media3.fl.yelpcdn.com/bphoto/232fr-IkNYRrNAMsc2R9uA/o.jpg", "is_closed": false, "url": "https://www.yelp.com/biz/chilis-east-rutherford?adjust_creative=a2JdNtFqB-C38ga_06BHvw&utm_campaign=yelp_api_v3&utm_medium=api_v3_business_search&utm_source=a2JdNtFqB-C38ga_06BHvw", "review_count": 108, "categories": [{"alias": "tradamerican", "title": "American (Traditional)"}, {"alias": "tex-mex", "title": "Tex-Mex"}, {"alias": "bars", "title": "Bars"}], "rating": 2.5, "coordinates": {"latitude": 40.8303316, "longitude": -74.0908741}, "transactions": [], "price": "$$", "location": {"address1": "140 State Rt 17", "address2": "", "address3": "", "city": "East Rutherford", "zip_code": "07073", "country": "US", "state": "NJ", "display_address": ["140 State Rt 17", "East Rutherford, NJ 07073"]}, "phone": "+12014384150", "display_phone": "(201) 438-4150", "distance": 2280.374485158276}, {"id": "qeu3pO24hp3wbH7yIYkDkw", "alias": "pora-foods-east-rutherford-2", "name": "PORA FOODS", "image_url": "https://s3-media2.fl.yelpcdn.com/bphoto/KjXm0iu9jT2qDuxUBDnZ-A/o.jpg", "is_closed": false, "url": "https://www.yelp.com/biz/pora-foods-east-rutherford-2?adjust_creative=a2JdNtFqB-C38ga_06BHvw&utm_campaign=yelp_api_v3&utm_medium=api_v3_business_search&utm_source=a2JdNtFqB-C38ga_06BHvw", "review_count": 18, "categories": [{"alias": "ramen", "title": "Ramen"}, {"alias": "bubbletea", "title": "Bubble Tea"}], "rating": 3.5, "coordinates": {"latitude": 40.808091, "longitude": -74.068973}, "transactions": [], "location": {"address1": "1 American Dream Way", "address2": "Fl 3rd", "address3": "American Dream Mall", "city": "East Rutherford", "zip_code": "07073", "country": "US", "state": "NJ", "display_address": ["1 American Dream Way", "Fl 3rd", "American Dream Mall", "East Rutherford, NJ 07073"]}, "phone": "", "display_phone": "", "distance": 772.4825924472681}, {"id": "wfFI3IIuOX32-T355kNPKA", "alias": "bellas-italian-cuisine-secaucus", "name": "Bella's Italian Cuisine", "image_url": "https://s3-media1.fl.yelpcdn.com/bphoto/GKL7836XZbRtN4uBMD1pfQ/o.jpg", "is_closed": false, "url": "https://www.yelp.com/biz/bellas-italian-cuisine-secaucus?adjust_creative=a2JdNtFqB-C38ga_06BHvw&utm_campaign=yelp_api_v3&utm_medium=api_v3_business_search&utm_source=a2JdNtFqB-C38ga_06BHvw", "review_count": 34, "categories": [{"alias": "pizza", "title": "Pizza"}, {"alias": "italian", "title": "Italian"}], "rating": 3.0, "coordinates": {"latitude": 40.7981391062942, "longitude": -74.0649710968137}, "transactions": ["pickup", "delivery"], "price": "$$", "location": {"address1": "10 Meadowlands Pkwy", "address2": "", "address3": null, "city": "Secaucus", "zip_code": "07094", "country": "US", "state": "NJ", "display_address": ["10 Meadowlands Pkwy", "Secaucus, NJ 07094"]}, "phone": "+12013480005", "display_phone": "(201) 348-0005", "distance": 1884.8565460753423}, {"id": "XK55lRGQaIzo7GkM8eS4IA", "alias": "uncle-tonys-deli-east-rutherford", "name": "Uncle Tony's Deli", "image_url": "https://s3-media2.fl.yelpcdn.com/bphoto/miYeJbS8AD8nb-9P0hhUTg/o.jpg", "is_closed": false, "url": "https://www.yelp.com/biz/uncle-tonys-deli-east-rutherford?adjust_creative=a2JdNtFqB-C38ga_06BHvw&utm_campaign=yelp_api_v3&utm_medium=api_v3_business_search&utm_source=a2JdNtFqB-C38ga_06BHvw", "review_count": 4, "categories": [{"alias": "delis", "title": "Delis"}], "rating": 5.0, "coordinates": {"latitude": 40.83748, "longitude": -74.09988}, "transactions": ["pickup", "delivery"], "location": {"address1": "366 Paterson Ave", "address2": null, "address3": "", "city": "East Rutherford", "zip_code": "07073", "country": "US", "state": "NJ", "display_address": ["366 Paterson Ave", "East Rutherford, NJ 07073"]}, "phone": "+12019332025", "display_phone": "(201) 933-2025", "distance": 3425.3907243867156}, {"id": "BwpOicN1S2kjnafvyn-Kgw", "alias": "chipotle-mexican-grill-east-rutherford", "name": "Chipotle Mexican Grill", "image_url": "https://s3-media3.fl.yelpcdn.com/bphoto/PlXd-o7ZPWmodBHNJFmgeg/o.jpg", "is_closed": false, "url": "https://www.yelp.com/biz/chipotle-mexican-grill-east-rutherford?adjust_creative=a2JdNtFqB-C38ga_06BHvw&utm_campaign=yelp_api_v3&utm_medium=api_v3_business_search&utm_source=a2JdNtFqB-C38ga_06BHvw", "review_count": 61, "categories": [{"alias": "mexican", "title": "Mexican"}, {"alias": "hotdogs", "title": "Fast Food"}], "rating": 2.5, "coordinates": {"latitude": 40.8311332309766, "longitude": -74.0891133873577}, "transactions": ["delivery"], "price": "$", "location": {"address1": "40 State Rt 17", "address2": "", "address3": "", "city": "East Rutherford", "zip_code": "07073", "country": "US", "state": "NJ", "display_address": ["40 State Rt 17", "East Rutherford, NJ 07073"]}, "phone": "+12015495302", "display_phone": "(201) 549-5302", "distance": 2318.012817140767}, {"id": "SpZGohr6137rGXmaCFQrtA", "alias": "the-urban-plum-secaucus", "name": "The Urban Plum", "image_url": "https://s3-media1.fl.yelpcdn.com/bphoto/aU0m9GrSUrB0l12A7_3fuQ/o.jpg", "is_closed": false, "url": "https://www.yelp.com/biz/the-urban-plum-secaucus?adjust_creative=a2JdNtFqB-C38ga_06BHvw&utm_campaign=yelp_api_v3&utm_medium=api_v3_business_search&utm_source=a2JdNtFqB-C38ga_06BHvw", "review_count": 33, "categories": [{"alias": "newamerican", "title": "American (New)"}, {"alias": "bars", "title": "Bars"}], "rating": 3.0, "coordinates": {"latitude": 40.786624, "longitude": -74.044339}, "transactions": ["delivery"], "price": "$$", "location": {"address1": "300 Plz Dr", "address2": "", "address3": "", "city": "Secaucus", "zip_code": "07094", "country": "US", "state": "NJ", "display_address": ["300 Plz Dr", "Secaucus, NJ 07094"]}, "phone": "+12015200574", "display_phone": "(201) 520-0574", "distance": 3916.0752042333}, {"id": "nHcbOSLTOjsUJ0WhquwCBA", "alias": "popeyes-louisiana-kitchen-carlstadt-3", "name": "Popeyes Louisiana Kitchen", "image_url": "https://s3-media2.fl.yelpcdn.com/bphoto/GBFF0qX3x6Z3GBMvgd9HeA/o.jpg", "is_closed": false, "url": "https://www.yelp.com/biz/popeyes-louisiana-kitchen-carlstadt-3?adjust_creative=a2JdNtFqB-C38ga_06BHvw&utm_campaign=yelp_api_v3&utm_medium=api_v3_business_search&utm_source=a2JdNtFqB-C38ga_06BHvw", "review_count": 13, "categories": [{"alias": "hotdogs", "title": "Fast Food"}, {"alias": "chicken_wings", "title": "Chicken Wings"}], "rating": 3.5, "coordinates": {"latitude": 40.8182603, "longitude": -74.0661935815973}, "transactions": [], "price": "$", "location": {"address1": "300 Washington Ave", "address2": "", "address3": "", "city": "Carlstadt", "zip_code": "07072", "country": "US", "state": "NJ", "display_address": ["300 Washington Ave", "Carlstadt, NJ 07072"]}, "phone": "+12019330330", "display_phone": "(201) 933-0330", "distance": 865.6219265924647}, {"id": "3Mu-0edMf7UsGxcehRzsug", "alias": "chilis-secaucus", "name": "Chili's", "image_url": "https://s3-media1.fl.yelpcdn.com/bphoto/9lKV0h9wbWQsBKWyf8tN8Q/o.jpg", "is_closed": false, "url": "https://www.yelp.com/biz/chilis-secaucus?adjust_creative=a2JdNtFqB-C38ga_06BHvw&utm_campaign=yelp_api_v3&utm_medium=api_v3_business_search&utm_source=a2JdNtFqB-C38ga_06BHvw", "review_count": 193, "categories": [{"alias": "tradamerican", "title": "American (Traditional)"}, {"alias": "bars", "title": "Bars"}, {"alias": "tex-mex", "title": "Tex-Mex"}], "rating": 2.5, "coordinates": {"latitude": 40.786708, "longitude": -74.045563}, "transactions": [], "price": "$$", "location": {"address1": "700 Plaza Dr", "address2": "", "address3": "", "city": "Secaucus", "zip_code": "07094", "country": "US", "state": "NJ", "display_address": ["700 Plaza Dr", "Secaucus, NJ 07094"]}, "phone": "+12013190804", "display_phone": "(201) 319-0804", "distance": 3843.141134294239}, {"id": "yfnmC3jSbhA1gO9ijIYrCQ", "alias": "panera-bread-east-rutherford", "name": "Panera Bread", "image_url": "https://s3-media3.fl.yelpcdn.com/bphoto/5v4jWKrPzWIYuL4M2tFp1Q/o.jpg", "is_closed": false, "url": "https://www.yelp.com/biz/panera-bread-east-rutherford?adjust_creative=a2JdNtFqB-C38ga_06BHvw&utm_campaign=yelp_api_v3&utm_medium=api_v3_business_search&utm_source=a2JdNtFqB-C38ga_06BHvw", "review_count": 104, "categories": [{"alias": "sandwiches", "title": "Sandwiches"}, {"alias": "salad", "title": "Salad"}, {"alias": "soup", "title": "Soup"}], "rating": 2.5, "coordinates": {"latitude": 40.8301663, "longitude": -74.0932395}, "transactions": ["delivery", "pickup"], "price": "$$", "location": {"address1": "95 State Highway 17", "address2": "", "address3": "", "city": "East Rutherford", "zip_code": "07073", "country": "US", "state": "NJ", "display_address": ["95 State Highway 17", "East Rutherford, NJ 07073"]}, "phone": "+12015311480", "display_phone": "(201) 531-1480", "distance": 2438.513163757047}, {"id": "2BRKwrI25yq5Z1rbUQ49kg", "alias": "meadowlands-plaza-hotel-secaucus", "name": "Meadowlands Plaza Hotel", "image_url": "https://s3-media2.fl.yelpcdn.com/bphoto/T169x8BjEHIxMRPkIbgE1w/o.jpg", "is_closed": false, "url": "https://www.yelp.com/biz/meadowlands-plaza-hotel-secaucus?adjust_creative=a2JdNtFqB-C38ga_06BHvw&utm_campaign=yelp_api_v3&utm_medium=api_v3_business_search&utm_source=a2JdNtFqB-C38ga_06BHvw", "review_count": 24, "categories": [{"alias": "hotels", "title": "Hotels"}, {"alias": "italian", "title": "Italian"}], "rating": 3.0, "coordinates": {"latitude": 40.79762, "longitude": -74.06425}, "transactions": [], "price": "$$", "location": {"address1": "40 Wood Ave", "address2": "", "address3": "", "city": "Secaucus", "zip_code": "07094", "country": "US", "state": "NJ", "display_address": ["40 Wood Ave", "Secaucus, NJ 07094"]}, "phone": "+12012721000", "display_phone": "(201) 272-1000", "distance": 2023.2481177083705}, {"id": "n40YPbGr7GpMfNEnZpEuPA", "alias": "wendys-secaucus", "name": "Wendy's", "image_url": "https://s3-media4.fl.yelpcdn.com/bphoto/P45ZkJhpFZGDgSqhyoG2NQ/o.jpg", "is_closed": false, "url": "https://www.yelp.com/biz/wendys-secaucus?adjust_creative=a2JdNtFqB-C38ga_06BHvw&utm_campaign=yelp_api_v3&utm_medium=api_v3_business_search&utm_source=a2JdNtFqB-C38ga_06BHvw", "review_count": 29, "categories": [{"alias": "hotdogs", "title": "Fast Food"}, {"alias": "burgers", "title": "Burgers"}], "rating": 3.0, "coordinates": {"latitude": 40.797666, "longitude": -74.065795}, "transactions": [], "price": "$", "location": {"address1": "16 Meadowlands Parkway", "address2": "", "address3": "", "city": "Secaucus", "zip_code": "07094", "country": "US", "state": "NJ", "display_address": ["16 Meadowlands Parkway", "Secaucus, NJ 07094"]}, "phone": "+12018643719", "display_phone": "(201) 864-3719", "distance": 1905.4619070654842}, {"id": "ylDSMJwzTzOAQRdjj2mCMg", "alias": "red-robin-gourmet-burgers-and-brews-secaucus-2", "name": "Red Robin Gourmet Burgers and Brews", "image_url": "https://s3-media1.fl.yelpcdn.com/bphoto/dGmGspzOt3ju8Gg8YCFiAQ/o.jpg", "is_closed": false, "url": "https://www.yelp.com/biz/red-robin-gourmet-burgers-and-brews-secaucus-2?adjust_creative=a2JdNtFqB-C38ga_06BHvw&utm_campaign=yelp_api_v3&utm_medium=api_v3_business_search&utm_source=a2JdNtFqB-C38ga_06BHvw", "review_count": 229, "categories": [{"alias": "tradamerican", "title": "American (Traditional)"}, {"alias": "burgers", "title": "Burgers"}], "rating": 2.0, "coordinates": {"latitude": 40.7899429, "longitude": -74.0451134}, "transactions": ["delivery", "pickup"], "price": "$$", "location": {"address1": "450 Harmon Meadows Blvd", "address2": "", "address3": "", "city": "Secaucus", "zip_code": "07094", "country": "US", "state": "NJ", "display_address": ["450 Harmon Meadows Blvd", "Secaucus, NJ 07094"]}, "phone": "+12014719795", "display_phone": "(201) 471-9795", "distance": 3596.9820175391455}, {"id": "tGCwrnmYbfJX0se_EK7YGA", "alias": "bergen-social-east-rutherford", "name": "Bergen Social", "image_url": "https://s3-media1.fl.yelpcdn.com/bphoto/DOI-uEj3Hlh4h_Dh6P2aJQ/o.jpg", "is_closed": false, "url": "https://www.yelp.com/biz/bergen-social-east-rutherford?adjust_creative=a2JdNtFqB-C38ga_06BHvw&utm_campaign=yelp_api_v3&utm_medium=api_v3_business_search&utm_source=a2JdNtFqB-C38ga_06BHvw", "review_count": 25, "categories": [{"alias": "italian", "title": "Italian"}, {"alias": "lounges", "title": "Lounges"}, {"alias": "tradamerican", "title": "American (Traditional)"}], "rating": 3.0, "coordinates": {"latitude": 40.8048133850098, "longitude": -74.0780868530273}, "transactions": [], "price": "$$$", "location": {"address1": "2 Meadowlands Plz", "address2": "", "address3": null, "city": "East Rutherford", "zip_code": "07073", "country": "US", "state": "NJ", "display_address": ["2 Meadowlands Plz", "East Rutherford, NJ 07073"]}, "phone": "+12015072701", "display_phone": "(201) 507-2701", "distance": 1018.4938224162469}, {"id": "MpQfgom8BltdTLZi7FHP-Q", "alias": "aji-asian-cuisine-secaucus", "name": "Aji Asian Cuisine", "image_url": "https://s3-media1.fl.yelpcdn.com/bphoto/JJjMzgCDnDD_oEMwHO99vA/o.jpg", "is_closed": false, "url": "https://www.yelp.com/biz/aji-asian-cuisine-secaucus?adjust_creative=a2JdNtFqB-C38ga_06BHvw&utm_campaign=yelp_api_v3&utm_medium=api_v3_business_search&utm_source=a2JdNtFqB-C38ga_06BHvw", "review_count": 39, "categories": [{"alias": "chinese", "title": "Chinese"}, {"alias": "japanese", "title": "Japanese"}], "rating": 2.5, "coordinates": {"latitude": 40.790262, "longitude": -74.058472}, "transactions": ["pickup"], "price": "$$", "location": {"address1": "133 Front St", "address2": null, "address3": "", "city": "Secaucus", "zip_code": "07094", "country": "US", "state": "NJ", "display_address": ["133 Front St", "Secaucus, NJ 07094"]}, "phone": "+12018638868", "display_phone": "(201) 863-8868", "distance": 2912.652995372658}, {"id": "84Yusq8_GSF_JiqXW0-z6w", "alias": "papa-johns-pizza-east-rutherford", "name": "Papa John's Pizza", "image_url": "https://s3-media3.fl.yelpcdn.com/bphoto/Rz5kTFNzDjQrzqvTqY8zBQ/o.jpg", "is_closed": false, "url": "https://www.yelp.com/biz/papa-johns-pizza-east-rutherford?adjust_creative=a2JdNtFqB-C38ga_06BHvw&utm_campaign=yelp_api_v3&utm_medium=api_v3_business_search&utm_source=a2JdNtFqB-C38ga_06BHvw", "review_count": 25, "categories": [{"alias": "pizza", "title": "Pizza"}], "rating": 3.0, "coordinates": {"latitude": 40.83337, "longitude": -74.09658}, "transactions": ["delivery", "pickup"], "price": "$", "location": {"address1": "217 Paterson Ave", "address2": null, "address3": null, "city": "East Rutherford", "zip_code": "07073", "country": "US", "state": "NJ", "display_address": ["217 Paterson Ave", "East Rutherford, NJ 07073"]}, "phone": "+12019397272", "display_phone": "(201) 939-7272", "distance": 2891.614485666555}, {"id": "YpCZI5HAYWxYQ8-CyTaucA", "alias": "pink-east-rutherford", "name": "Pink", "image_url": "https://s3-media3.fl.yelpcdn.com/bphoto/43k37VyZ8nq57JqoW5s1fg/o.jpg", "is_closed": false, "url": "https://www.yelp.com/biz/pink-east-rutherford?adjust_creative=a2JdNtFqB-C38ga_06BHvw&utm_campaign=yelp_api_v3&utm_medium=api_v3_business_search&utm_source=a2JdNtFqB-C38ga_06BHvw", "review_count": 26, "categories": [{"alias": "desserts", "title": "Desserts"}, {"alias": "coffee", "title": "Coffee & Tea"}, {"alias": "salad", "title": "Salad"}], "rating": 3.0, "coordinates": {"latitude": 40.820186, "longitude": -74.071741}, "transactions": [], "price": "$$$", "location": {"address1": "1 Racetrack Dr", "address2": "", "address3": "", "city": "East Rutherford", "zip_code": "07073", "country": "US", "state": "NJ", "display_address": ["1 Racetrack Dr", "East Rutherford, NJ 07073"]}, "phone": "+15165555555", "display_phone": "(516) 555-5555", "distance": 772.4682431258025}, {"id": "V0UbMAp-iJd__gOWrasMIw", "alias": "trotters-east-rutherford", "name": "Trotters", "image_url": "https://s3-media1.fl.yelpcdn.com/bphoto/pQnacXcRLiOJPbVnBOgiaw/o.jpg", "is_closed": false, "url": "https://www.yelp.com/biz/trotters-east-rutherford?adjust_creative=a2JdNtFqB-C38ga_06BHvw&utm_campaign=yelp_api_v3&utm_medium=api_v3_business_search&utm_source=a2JdNtFqB-C38ga_06BHvw", "review_count": 6, "categories": [{"alias": "tradamerican", "title": "American (Traditional)"}], "rating": 4.0, "coordinates": {"latitude": 40.836672, "longitude": -74.102682}, "transactions": [], "price": "$$", "location": {"address1": "1 Racetrack Dr", "address2": "", "address3": "", "city": "East Rutherford", "zip_code": "07073", "country": "US", "state": "NJ", "display_address": ["1 Racetrack Dr", "East Rutherford, NJ 07073"]}, "phone": "", "display_phone": "", "distance": 3507.3486310272547}, {"id": "mi8UxU8kpDUE2FtlUWh1hQ", "alias": "popeyes-louisiana-kitchen-rutherford", "name": "Popeyes Louisiana Kitchen", "image_url": "https://s3-media2.fl.yelpcdn.com/bphoto/QCdp1nWLKF-_aez4UMxx_A/o.jpg", "is_closed": false, "url": "https://www.yelp.com/biz/popeyes-louisiana-kitchen-rutherford?adjust_creative=a2JdNtFqB-C38ga_06BHvw&utm_campaign=yelp_api_v3&utm_medium=api_v3_business_search&utm_source=a2JdNtFqB-C38ga_06BHvw", "review_count": 42, "categories": [{"alias": "hotdogs", "title": "Fast Food"}, {"alias": "chicken_wings", "title": "Chicken Wings"}], "rating": 2.5, "coordinates": {"latitude": 40.82225, "longitude": -74.10091}, "transactions": ["delivery", "pickup"], "price": "$", "location": {"address1": "104 Meadow Rd", "address2": "", "address3": "", "city": "Rutherford", "zip_code": "07070", "country": "US", "state": "NJ", "display_address": ["104 Meadow Rd", "Rutherford, NJ 07070"]}, "phone": "+12014609850", "display_phone": "(201) 460-9850", "distance": 2436.125398869393}, {"id": "zvR73OoPDKBlraMCBN1Ntg", "alias": "krauszers-secaucus", "name": "Krauszer's", "image_url": "https://s3-media4.fl.yelpcdn.com/bphoto/EwuvJ4pKiUQ5eAJ1gUkbHg/o.jpg", "is_closed": false, "url": "https://www.yelp.com/biz/krauszers-secaucus?adjust_creative=a2JdNtFqB-C38ga_06BHvw&utm_campaign=yelp_api_v3&utm_medium=api_v3_business_search&utm_source=a2JdNtFqB-C38ga_06BHvw", "review_count": 26, "categories": [{"alias": "delis", "title": "Delis"}, {"alias": "convenience", "title": "Convenience Stores"}], "rating": 2.5, "coordinates": {"latitude": 40.79357, "longitude": -74.06968}, "transactions": [], "price": "$", "location": {"address1": "40A Meadowlands Pkwy", "address2": "", "address3": "", "city": "Secaucus", "zip_code": "07094", "country": "US", "state": "NJ", "display_address": ["40A Meadowlands Pkwy", "Secaucus, NJ 07094"]}, "phone": "+12018663417", "display_phone": "(201) 866-3417", "distance": 2261.5683452250805}, {"id": "QTghtKziGXyAoP2NobMTRw", "alias": "wendys-rutherford", "name": "Wendy's", "image_url": "https://s3-media1.fl.yelpcdn.com/bphoto/gjf7dWRni1ldlvkNb2HTmQ/o.jpg", "is_closed": false, "url": "https://www.yelp.com/biz/wendys-rutherford?adjust_creative=a2JdNtFqB-C38ga_06BHvw&utm_campaign=yelp_api_v3&utm_medium=api_v3_business_search&utm_source=a2JdNtFqB-C38ga_06BHvw", "review_count": 20, "categories": [{"alias": "burgers", "title": "Burgers"}, {"alias": "hotdogs", "title": "Fast Food"}], "rating": 2.5, "coordinates": {"latitude": 40.822675, "longitude": -74.0996556}, "transactions": ["delivery"], "price": "$", "location": {"address1": "30 Route 17 South", "address2": "", "address3": "", "city": "Rutherford", "zip_code": "07070", "country": "US", "state": "NJ", "display_address": ["30 Route 17 South", "Rutherford, NJ 07070"]}, "phone": "+12018420818", "display_phone": "(201) 842-0818", "distance": 2359.0841855676445}, {"id": "bfCYjIXL50CzXpvqiMcg5w", "alias": "great-wok-secaucus", "name": "Great Wok", "image_url": "https://s3-media2.fl.yelpcdn.com/bphoto/9jQrCel2i2PQ4GJ-74AX0g/o.jpg", "is_closed": false, "url": "https://www.yelp.com/biz/great-wok-secaucus?adjust_creative=a2JdNtFqB-C38ga_06BHvw&utm_campaign=yelp_api_v3&utm_medium=api_v3_business_search&utm_source=a2JdNtFqB-C38ga_06BHvw", "review_count": 40, "categories": [{"alias": "chinese", "title": "Chinese"}], "rating": 2.0, "coordinates": {"latitude": 40.7910092175007, "longitude": -74.0567833185196}, "transactions": [], "price": "$", "location": {"address1": "125B Plaza Ctr", "address2": "", "address3": "", "city": "Secaucus", "zip_code": "07094", "country": "US", "state": "NJ", "display_address": ["125B Plaza Ctr", "Secaucus, NJ 07094"]}, "phone": "+12013308472", "display_phone": "(201) 330-8472", "distance": 2940.387089119077}, {"id": "QIHn1BpzaAT7DDOwkR0YxA", "alias": "burger-king-moonachie", "name": "Burger King", "image_url": "https://s3-media4.fl.yelpcdn.com/bphoto/_SQ9wvAQJR8NBxRH73GQKA/o.jpg", "is_closed": false, "url": "https://www.yelp.com/biz/burger-king-moonachie?adjust_creative=a2JdNtFqB-C38ga_06BHvw&utm_campaign=yelp_api_v3&utm_medium=api_v3_business_search&utm_source=a2JdNtFqB-C38ga_06BHvw", "review_count": 10, "categories": [{"alias": "burgers", "title": "Burgers"}, {"alias": "hotdogs", "title": "Fast Food"}], "rating": 3.0, "coordinates": {"latitude": 40.8353191113673, "longitude": -74.0523431413567}, "transactions": ["delivery"], "price": "$", "location": {"address1": "195 Moonachie Rd", "address2": null, "address3": null, "city": "Moonachie", "zip_code": "07074", "country": "US", "state": "NJ", "display_address": ["195 Moonachie Rd", "Moonachie, NJ 07074"]}, "phone": "+12014409700", "display_phone": "(201) 440-9700", "distance": 3050.1661557149846}, {"id": "eQDO-Pmih0iMwvD_y1TSWw", "alias": "new-taste-of-china-east-rutherford", "name": "New Taste of China", "image_url": "https://s3-media3.fl.yelpcdn.com/bphoto/VCDsz__AKB7rhqXRmfWayA/o.jpg", "is_closed": false, "url": "https://www.yelp.com/biz/new-taste-of-china-east-rutherford?adjust_creative=a2JdNtFqB-C38ga_06BHvw&utm_campaign=yelp_api_v3&utm_medium=api_v3_business_search&utm_source=a2JdNtFqB-C38ga_06BHvw", "review_count": 13, "categories": [{"alias": "chinese", "title": "Chinese"}], "rating": 3.0, "coordinates": {"latitude": 40.83251, "longitude": -74.09694}, "transactions": ["delivery"], "location": {"address1": "128 Park Ave", "address2": "", "address3": "", "city": "East Rutherford", "zip_code": "07073", "country": "US", "state": "NJ", "display_address": ["128 Park Ave", "East Rutherford, NJ 07073"]}, "phone": "+12018968381", "display_phone": "(201) 896-8381", "distance": 2838.9308083164947}, {"id": "LE0vXs3cyPCt0x92HaWTlA", "alias": "the-hot-dog-man-lyndhurst", "name": "The Hot Dog Man", "image_url": "https://s3-media1.fl.yelpcdn.com/bphoto/a0vIjAEWtdInthxPfUjYMw/o.jpg", "is_closed": false, "url": "https://www.yelp.com/biz/the-hot-dog-man-lyndhurst?adjust_creative=a2JdNtFqB-C38ga_06BHvw&utm_campaign=yelp_api_v3&utm_medium=api_v3_business_search&utm_source=a2JdNtFqB-C38ga_06BHvw", "review_count": 2, "categories": [{"alias": "foodtrucks", "title": "Food Trucks"}, {"alias": "italian", "title": "Italian"}, {"alias": "breakfast_brunch", "title": "Breakfast & Brunch"}], "rating": 5.0, "coordinates": {"latitude": 40.8062051892419, "longitude": -74.1025277227163}, "transactions": [], "price": "$", "location": {"address1": "1099 Wall St", "address2": "", "address3": "", "city": "Lyndhurst", "zip_code": "07071", "country": "US", "state": "NJ", "display_address": ["1099 Wall St", "Lyndhurst, NJ 07071"]}, "phone": "+12012649113", "display_phone": "(201) 264-9113", "distance": 2506.4972454287486}, {"id": "MlEjNsgrazDi1FkXOksY9A", "alias": "linos-pizzeria-east-rutherford", "name": "Linos Pizzeria", "image_url": "https://s3-media3.fl.yelpcdn.com/bphoto/O_XXW5VeQQeJaBA-3oErVQ/o.jpg", "is_closed": false, "url": "https://www.yelp.com/biz/linos-pizzeria-east-rutherford?adjust_creative=a2JdNtFqB-C38ga_06BHvw&utm_campaign=yelp_api_v3&utm_medium=api_v3_business_search&utm_source=a2JdNtFqB-C38ga_06BHvw", "review_count": 2, "categories": [{"alias": "pizza", "title": "Pizza"}], "rating": 4.5, "coordinates": {"latitude": 40.8380669, "longitude": -74.0997636}, "transactions": ["delivery", "pickup"], "location": {"address1": "369 Paterson Ave", "address2": "", "address3": null, "city": "East Rutherford", "zip_code": "07073", "country": "US", "state": "NJ", "display_address": ["369 Paterson Ave", "East Rutherford, NJ 07073"]}, "phone": "+12019392416", "display_phone": "(201) 939-2416", "distance": 3447.8494578644495}, {"id": "NcAPqUpUeyOPLiOo3koTWQ", "alias": "society-liquor-lounge-and-cafe-lyndhurst", "name": "Society Liquor Lounge and Cafe", "image_url": "https://s3-media4.fl.yelpcdn.com/bphoto/wzddrFN84a3Q5uYW2rgTtQ/o.jpg", "is_closed": false, "url": "https://www.yelp.com/biz/society-liquor-lounge-and-cafe-lyndhurst?adjust_creative=a2JdNtFqB-C38ga_06BHvw&utm_campaign=yelp_api_v3&utm_medium=api_v3_business_search&utm_source=a2JdNtFqB-C38ga_06BHvw", "review_count": 2, "categories": [{"alias": "cafes", "title": "Cafes"}, {"alias": "lounges", "title": "Lounges"}, {"alias": "pizza", "title": "Pizza"}], "rating": 4.5, "coordinates": {"latitude": 40.806294, "longitude": -74.104591}, "transactions": ["delivery"], "location": {"address1": "1050 Wall St W", "address2": "", "address3": null, "city": "Lyndhurst", "zip_code": "07071", "country": "US", "state": "NJ", "display_address": ["1050 Wall St W", "Lyndhurst, NJ 07071"]}, "phone": "+18625916596", "display_phone": "(862) 591-6596", "distance": 2670.6255252668075}, {"id": "ZWaB-LGP8xJDLqD6BQU-HA", "alias": "andys-deli-moonachie", "name": "Andy's Deli", "image_url": "https://s3-media4.fl.yelpcdn.com/bphoto/FCgY7EIJMOpW1BX2AQ09HQ/o.jpg", "is_closed": false, "url": "https://www.yelp.com/biz/andys-deli-moonachie?adjust_creative=a2JdNtFqB-C38ga_06BHvw&utm_campaign=yelp_api_v3&utm_medium=api_v3_business_search&utm_source=a2JdNtFqB-C38ga_06BHvw", "review_count": 2, "categories": [{"alias": "delis", "title": "Delis"}, {"alias": "sandwiches", "title": "Sandwiches"}], "rating": 4.5, "coordinates": {"latitude": 40.83897, "longitude": -74.0679}, "transactions": ["delivery"], "location": {"address1": "103 Moonachie Ave", "address2": "", "address3": "", "city": "Moonachie", "zip_code": "07074", "country": "US", "state": "NJ", "display_address": ["103 Moonachie Ave", "Moonachie, NJ 07074"]}, "phone": "+12014382996", "display_phone": "(201) 438-2996", "distance": 2885.657089562446}, {"id": "CaMqJykvwM2FLzGfUosPNA", "alias": "burger-king-rutherford", "name": "Burger King", "image_url": "https://s3-media3.fl.yelpcdn.com/bphoto/F8eBsrxpjI5KJLGbfJrXAA/o.jpg", "is_closed": false, "url": "https://www.yelp.com/biz/burger-king-rutherford?adjust_creative=a2JdNtFqB-C38ga_06BHvw&utm_campaign=yelp_api_v3&utm_medium=api_v3_business_search&utm_source=a2JdNtFqB-C38ga_06BHvw", "review_count": 20, "categories": [{"alias": "burgers", "title": "Burgers"}, {"alias": "hotdogs", "title": "Fast Food"}], "rating": 2.0, "coordinates": {"latitude": 40.8223014394758, "longitude": -74.1001813913066}, "transactions": ["delivery"], "price": "$", "location": {"address1": "36 Route 17 S", "address2": "", "address3": "", "city": "Rutherford", "zip_code": "07070", "country": "US", "state": "NJ", "display_address": ["36 Route 17 S", "Rutherford, NJ 07070"]}, "phone": "+12018961725", "display_phone": "(201) 896-1725", "distance": 2381.7749011738324}, {"id": "xWGu8y1nAzxoETe7nm-8ow", "alias": "latin-grill-east-rutherford", "name": "Latin Grill", "image_url": "https://s3-media3.fl.yelpcdn.com/bphoto/bRVHjRmr0ql1Y0dbGu4LGA/o.jpg", "is_closed": false, "url": "https://www.yelp.com/biz/latin-grill-east-rutherford?adjust_creative=a2JdNtFqB-C38ga_06BHvw&utm_campaign=yelp_api_v3&utm_medium=api_v3_business_search&utm_source=a2JdNtFqB-C38ga_06BHvw", "review_count": 2, "categories": [{"alias": "latin", "title": "Latin American"}], "rating": 4.0, "coordinates": {"latitude": 40.808091, "longitude": -74.068973}, "transactions": [], "location": {"address1": "1 American Dream Way", "address2": "", "address3": null, "city": "East Rutherford", "zip_code": "07073", "country": "US", "state": "NJ", "display_address": ["1 American Dream Way", "East Rutherford, NJ 07073"]}, "phone": "", "display_phone": "", "distance": 772.6875858154654}, {"id": "LXFs3Ax5n0T0wPyzeoX7qA", "alias": "cobblestone-hill-deli-carlstadt", "name": "Cobblestone Hill Deli", "image_url": "https://s3-media4.fl.yelpcdn.com/bphoto/F1CaS_PYLs40TE4ehfkFog/o.jpg", "is_closed": false, "url": "https://www.yelp.com/biz/cobblestone-hill-deli-carlstadt?adjust_creative=a2JdNtFqB-C38ga_06BHvw&utm_campaign=yelp_api_v3&utm_medium=api_v3_business_search&utm_source=a2JdNtFqB-C38ga_06BHvw", "review_count": 1, "categories": [{"alias": "delis", "title": "Delis"}, {"alias": "pizza", "title": "Pizza"}, {"alias": "sandwiches", "title": "Sandwiches"}], "rating": 5.0, "coordinates": {"latitude": 40.8349526, "longitude": -74.0870547}, "transactions": ["delivery"], "location": {"address1": "287 Broad St", "address2": "", "address3": "", "city": "Carlstadt", "zip_code": "07072", "country": "US", "state": "NJ", "display_address": ["287 Broad St", "Carlstadt, NJ 07072"]}, "phone": "+12019390248", "display_phone": "(201) 939-0248", "distance": 2610.7825409356205}, {"id": "OI3-lGbruW6WgdIlW2MYbQ", "alias": "nishimoto-trading-carlstadt", "name": "Nishimoto Trading", "image_url": "", "is_closed": false, "url": "https://www.yelp.com/biz/nishimoto-trading-carlstadt?adjust_creative=a2JdNtFqB-C38ga_06BHvw&utm_campaign=yelp_api_v3&utm_medium=api_v3_business_search&utm_source=a2JdNtFqB-C38ga_06BHvw", "review_count": 1, "categories": [{"alias": "japanese", "title": "Japanese"}], "rating": 5.0, "coordinates": {"latitude": 40.82516, "longitude": -74.05824}, "transactions": [], "location": {"address1": "602 Washington Ave", "address2": "", "address3": "", "city": "Carlstadt", "zip_code": "07072", "country": "US", "state": "NJ", "display_address": ["602 Washington Ave", "Carlstadt, NJ 07072"]}, "phone": "+12018041600", "display_phone": "(201) 804-1600", "distance": 1783.6188179635465}, {"id": "BQcvvJwFR_iXcZmGSA757g", "alias": "cafe-amore-caterers-rutherford", "name": "Cafe Amore Caterers", "image_url": "https://s3-media1.fl.yelpcdn.com/bphoto/t-H6aq7X30BFHTGq8zeM9g/o.jpg", "is_closed": false, "url": "https://www.yelp.com/biz/cafe-amore-caterers-rutherford?adjust_creative=a2JdNtFqB-C38ga_06BHvw&utm_campaign=yelp_api_v3&utm_medium=api_v3_business_search&utm_source=a2JdNtFqB-C38ga_06BHvw", "review_count": 1, "categories": [{"alias": "cafes", "title": "Cafes"}, {"alias": "catering", "title": "Caterers"}, {"alias": "delis", "title": "Delis"}], "rating": 5.0, "coordinates": {"latitude": 40.8178045, "longitude": -74.1012943}, "transactions": ["delivery", "pickup"], "location": {"address1": "301 State Rt 17", "address2": null, "address3": "", "city": "Rutherford", "zip_code": "07070", "country": "US", "state": "NJ", "display_address": ["301 State Rt 17", "Rutherford, NJ 07070"]}, "phone": "+12019330001", "display_phone": "(201) 933-0001", "distance": 2315.8918788283586}, {"id": "IOe40QpDBxW2UWDwixCmTw", "alias": "waffle-and-bubble-secaucus", "name": "Waffle & Bubble", "image_url": "https://s3-media3.fl.yelpcdn.com/bphoto/lRksYa0ETv0TdwjwHVaLlw/o.jpg", "is_closed": false, "url": "https://www.yelp.com/biz/waffle-and-bubble-secaucus?adjust_creative=a2JdNtFqB-C38ga_06BHvw&utm_campaign=yelp_api_v3&utm_medium=api_v3_business_search&utm_source=a2JdNtFqB-C38ga_06BHvw", "review_count": 1, "categories": [{"alias": "chicken_wings", "title": "Chicken Wings"}, {"alias": "bubbletea", "title": "Bubble Tea"}, {"alias": "waffles", "title": "Waffles"}], "rating": 5.0, "coordinates": {"latitude": 40.79164147165907, "longitude": -74.05658693126207}, "transactions": [], "location": {"address1": "123 Plaza Ctr", "address2": "", "address3": null, "city": "Secaucus", "zip_code": "07094", "country": "US", "state": "NJ", "display_address": ["123 Plaza Ctr", "Secaucus, NJ 07094"]}, "phone": "+12012102053", "display_phone": "(201) 210-2053", "distance": 2856.7325025353903}, {"id": "_XL5tXz83_cumkJhMtsacw", "alias": "total-food-network-at-the-meadowlands-plaza-rutherford", "name": "Total Food Network At the Meadowlands Plaza", "image_url": "https://s3-media2.fl.yelpcdn.com/bphoto/ERTYMh8JqLNxTF_1uI-kpQ/o.jpg", "is_closed": false, "url": "https://www.yelp.com/biz/total-food-network-at-the-meadowlands-plaza-rutherford?adjust_creative=a2JdNtFqB-C38ga_06BHvw&utm_campaign=yelp_api_v3&utm_medium=api_v3_business_search&utm_source=a2JdNtFqB-C38ga_06BHvw", "review_count": 1, "categories": [{"alias": "foodstands", "title": "Food Stands"}], "rating": 5.0, "coordinates": {"latitude": 40.82685, "longitude": -74.10801}, "transactions": [], "location": {"address1": null, "address2": null, "address3": null, "city": "Rutherford", "zip_code": "07070", "country": "US", "state": "NJ", "display_address": ["Rutherford, NJ 07070"]}, "phone": "+12014604460", "display_phone": "(201) 460-4460", "distance": 3197.4867933461546}, {"id": "b1vIN40cscPtNcK_e1dCIw", "alias": "wall-street-cafe-lyndhurst", "name": "Wall Street Cafe", "image_url": "", "is_closed": false, "url": "https://www.yelp.com/biz/wall-street-cafe-lyndhurst?adjust_creative=a2JdNtFqB-C38ga_06BHvw&utm_campaign=yelp_api_v3&utm_medium=api_v3_business_search&utm_source=a2JdNtFqB-C38ga_06BHvw", "review_count": 1, "categories": [{"alias": "dominican", "title": "Dominican"}, {"alias": "breakfast_brunch", "title": "Breakfast & Brunch"}, {"alias": "coffee", "title": "Coffee & Tea"}], "rating": 5.0, "coordinates": {"latitude": 40.80638, "longitude": -74.10267}, "transactions": ["delivery", "pickup"], "location": {"address1": "1099 Wall Street West", "address2": null, "address3": "", "city": "Lyndhurst", "zip_code": "07071", "country": "US", "state": "NJ", "display_address": ["1099 Wall Street West", "Lyndhurst, NJ 07071"]}, "phone": "+12019331099", "display_phone": "(201) 933-1099", "distance": 2571.948589095184}, {"id": "f4yLLYP2uwbNkylW8I9Qsw", "alias": "skyline-gourmet-lyndhurst", "name": "Skyline Gourmet", "image_url": "https://s3-media2.fl.yelpcdn.com/bphoto/lhPVQB2s0lPOoSf2fp28yA/o.jpg", "is_closed": false, "url": "https://www.yelp.com/biz/skyline-gourmet-lyndhurst?adjust_creative=a2JdNtFqB-C38ga_06BHvw&utm_campaign=yelp_api_v3&utm_medium=api_v3_business_search&utm_source=a2JdNtFqB-C38ga_06BHvw", "review_count": 5, "categories": [{"alias": "salad", "title": "Salad"}, {"alias": "sandwiches", "title": "Sandwiches"}, {"alias": "breakfast_brunch", "title": "Breakfast & Brunch"}], "rating": 2.5, "coordinates": {"latitude": 40.802978515625, "longitude": -74.0984420776367}, "transactions": [], "location": {"address1": "125 Chubb Ave", "address2": null, "address3": null, "city": "Lyndhurst", "zip_code": "07071", "country": "US", "state": "NJ", "display_address": ["125 Chubb Ave", "Lyndhurst, NJ 07071"]}, "phone": "+12019393663", "display_phone": "(201) 939-3663", "distance": 2353.506425175886}, {"id": "CtUpX9qu_axr2H8jYx_FFg", "alias": "charleys-philly-steaks-secaucus", "name": "Charleys Philly Steaks", "image_url": "https://s3-media1.fl.yelpcdn.com/bphoto/rHyb1U1EATcCyauJAjqJvw/o.jpg", "is_closed": false, "url": "https://www.yelp.com/biz/charleys-philly-steaks-secaucus?adjust_creative=a2JdNtFqB-C38ga_06BHvw&utm_campaign=yelp_api_v3&utm_medium=api_v3_business_search&utm_source=a2JdNtFqB-C38ga_06BHvw", "review_count": 3, "categories": [{"alias": "hotdogs", "title": "Fast Food"}], "rating": 3.0, "coordinates": {"latitude": 40.80912404304721, "longitude": -74.06982116646606}, "transactions": ["pickup"], "location": {"address1": "One American Way", "address2": "", "address3": "American Dream Mall", "city": "Secaucus", "zip_code": "07073", "country": "US", "state": "NJ", "display_address": ["One American Way", "American Dream Mall", "Secaucus, NJ 07073"]}, "phone": "", "display_phone": "", "distance": 621.1127383386281}, {"id": "3bvhJeZUbFnu4xuz4Psjew", "alias": "sushi-zen-secaucus", "name": "Sushi Zen", "image_url": "https://s3-media2.fl.yelpcdn.com/bphoto/yGncCbF8rd22cv-G29ilGQ/o.jpg", "is_closed": false, "url": "https://www.yelp.com/biz/sushi-zen-secaucus?adjust_creative=a2JdNtFqB-C38ga_06BHvw&utm_campaign=yelp_api_v3&utm_medium=api_v3_business_search&utm_source=a2JdNtFqB-C38ga_06BHvw", "review_count": 2, "categories": [{"alias": "sushi", "title": "Sushi Bars"}], "rating": 3.5, "coordinates": {"latitude": 40.7917245, "longitude": -74.05694767}, "transactions": ["delivery", "pickup"], "location": {"address1": "101 Plaza Ctr", "address2": "", "address3": null, "city": "Secaucus", "zip_code": "07094", "country": "US", "state": "NJ", "display_address": ["101 Plaza Ctr", "Secaucus, NJ 07094"]}, "phone": "+12013300191", "display_phone": "(201) 330-0191", "distance": 2834.6002869821855}, {"id": "PT-bG410KopuIN9mUFvICA", "alias": "best-pizza-east-rutherford", "name": "Best Pizza", "image_url": "https://s3-media4.fl.yelpcdn.com/bphoto/WjBjiicocdFGl033bM0cFA/o.jpg", "is_closed": false, "url": "https://www.yelp.com/biz/best-pizza-east-rutherford?adjust_creative=a2JdNtFqB-C38ga_06BHvw&utm_campaign=yelp_api_v3&utm_medium=api_v3_business_search&utm_source=a2JdNtFqB-C38ga_06BHvw", "review_count": 2, "categories": [{"alias": "pizza", "title": "Pizza"}], "rating": 3.0, "coordinates": {"latitude": 40.808091, "longitude": -74.068973}, "transactions": [], "location": {"address1": "1 American Dream Way", "address2": "", "address3": null, "city": "East Rutherford", "zip_code": "07073", "country": "US", "state": "NJ", "display_address": ["1 American Dream Way", "East Rutherford, NJ 07073"]}, "phone": "", "display_phone": "", "distance": 772.6875858154654}, {"id": "Bk--H5IrIBWsANls0A6gFg", "alias": "good-to-go-organics-east-rutherford", "name": "Good To Go Organics", "image_url": "https://s3-media2.fl.yelpcdn.com/bphoto/XKmT8kO2CtopemGttaFeIQ/o.jpg", "is_closed": false, "url": "https://www.yelp.com/biz/good-to-go-organics-east-rutherford?adjust_creative=a2JdNtFqB-C38ga_06BHvw&utm_campaign=yelp_api_v3&utm_medium=api_v3_business_search&utm_source=a2JdNtFqB-C38ga_06BHvw", "review_count": 1, "categories": [{"alias": "foodstands", "title": "Food Stands"}], "rating": 4.0, "coordinates": {"latitude": 40.8132489491711, "longitude": -74.0757894515991}, "transactions": [], "location": {"address1": "MetLife Stadium", "address2": "", "address3": "", "city": "East Rutherford", "zip_code": "07073", "country": "US", "state": "NJ", "display_address": ["MetLife Stadium", "East Rutherford, NJ 07073"]}, "phone": "+18477122684", "display_phone": "(847) 712-2684", "distance": 124.1540622880346}, {"id": "Gvq0dst-rZz1IaddtgbxLA", "alias": "wendys-east-rutherford", "name": "Wendy's", "image_url": "https://s3-media2.fl.yelpcdn.com/bphoto/H0JZwnIcPiljrSwRlGx5kQ/o.jpg", "is_closed": false, "url": "https://www.yelp.com/biz/wendys-east-rutherford?adjust_creative=a2JdNtFqB-C38ga_06BHvw&utm_campaign=yelp_api_v3&utm_medium=api_v3_business_search&utm_source=a2JdNtFqB-C38ga_06BHvw", "review_count": 1, "categories": [{"alias": "burgers", "title": "Burgers"}, {"alias": "hotdogs", "title": "Fast Food"}], "rating": 4.0, "coordinates": {"latitude": 40.809151, "longitude": -74.069161}, "transactions": [], "location": {"address1": "1 American Dream Way", "address2": "court C, 334", "address3": "Xanadu Entertainment Complex", "city": "East Rutherford", "zip_code": "07073", "country": "US", "state": "NJ", "display_address": ["1 American Dream Way", "court C, 334", "Xanadu Entertainment Complex", "East Rutherford, NJ 07073"]}, "phone": "+15512177700", "display_phone": "(551) 217-7700", "distance": 772.6875858154654}, {"id": "a3UO0CTiHiS_93ifx3r9mQ", "alias": "taco-bell-east-rutherford", "name": "Taco Bell", "image_url": "https://s3-media3.fl.yelpcdn.com/bphoto/JjyLcYISn_xN82udY878SQ/o.jpg", "is_closed": false, "url": "https://www.yelp.com/biz/taco-bell-east-rutherford?adjust_creative=a2JdNtFqB-C38ga_06BHvw&utm_campaign=yelp_api_v3&utm_medium=api_v3_business_search&utm_source=a2JdNtFqB-C38ga_06BHvw", "review_count": 1, "categories": [{"alias": "hotdogs", "title": "Fast Food"}, {"alias": "mexican", "title": "Mexican"}], "rating": 4.0, "coordinates": {"latitude": 40.80882200442482, "longitude": -74.06892020211414}, "transactions": [], "location": {"address1": "1 American Dream Way", "address2": "Ste FC305", "address3": "", "city": "East Rutherford", "zip_code": "07073", "country": "US", "state": "NJ", "display_address": ["1 American Dream Way", "Ste FC305", "East Rutherford, NJ 07073"]}, "phone": "+12016917909", "display_phone": "(201) 691-7909", "distance": 695.336756091432}, {"id": "X85RI4JJiPdt8vl8QC3GlQ", "alias": "subway-carlstadt-4", "name": "Subway", "image_url": "https://s3-media2.fl.yelpcdn.com/bphoto/INZ7QVWH7PgcK9ybW70byg/o.jpg", "is_closed": false, "url": "https://www.yelp.com/biz/subway-carlstadt-4?adjust_creative=a2JdNtFqB-C38ga_06BHvw&utm_campaign=yelp_api_v3&utm_medium=api_v3_business_search&utm_source=a2JdNtFqB-C38ga_06BHvw", "review_count": 1, "categories": [{"alias": "sandwiches", "title": "Sandwiches"}], "rating": 4.0, "coordinates": {"latitude": 40.8180910332774, "longitude": -74.0664563138047}, "transactions": ["delivery", "pickup"], "location": {"address1": "300 Washington Ave", "address2": null, "address3": null, "city": "Carlstadt", "zip_code": "07072", "country": "US", "state": "NJ", "display_address": ["300 Washington Ave", "Carlstadt, NJ 07072"]}, "phone": "+12016359200", "display_phone": "(201) 635-9200", "distance": 836.6267615881771}, {"id": "AZkioQOQn8zTHdHncFr8lQ", "alias": "east-rutherford-east-rutherford-2", "name": "East Rutherford", "image_url": "https://s3-media3.fl.yelpcdn.com/bphoto/cWH00msyKQ2pUHHbvrAVsA/o.jpg", "is_closed": false, "url": "https://www.yelp.com/biz/east-rutherford-east-rutherford-2?adjust_creative=a2JdNtFqB-C38ga_06BHvw&utm_campaign=yelp_api_v3&utm_medium=api_v3_business_search&utm_source=a2JdNtFqB-C38ga_06BHvw", "review_count": 1, "categories": [{"alias": "restaurants", "title": "Restaurants"}], "rating": 4.0, "coordinates": {"latitude": 40.8329233531893, "longitude": -74.0968462024154}, "transactions": [], "location": {"address1": "", "address2": "", "address3": "", "city": "East Rutherford", "zip_code": "", "country": "US", "state": "NJ", "display_address": ["East Rutherford, NJ"]}, "phone": "", "display_phone": "", "distance": 2868.9504008386966}, {"id": "sQLCNUajaO0p65d8xCjO1Q", "alias": "mr-hamburger-carlstadt", "name": "Mr. Hamburger", "image_url": "https://s3-media1.fl.yelpcdn.com/bphoto/KjDfBRQf9DlSOCrgmWtSmA/o.jpg", "is_closed": false, "url": "https://www.yelp.com/biz/mr-hamburger-carlstadt?adjust_creative=a2JdNtFqB-C38ga_06BHvw&utm_campaign=yelp_api_v3&utm_medium=api_v3_business_search&utm_source=a2JdNtFqB-C38ga_06BHvw", "review_count": 3, "categories": [{"alias": "hotdog", "title": "Hot Dogs"}, {"alias": "burgers", "title": "Burgers"}], "rating": 2.5, "coordinates": {"latitude": 40.81818, "longitude": -74.06567}, "transactions": [], "price": "$", "location": {"address1": "300 Washington Ave", "address2": null, "address3": null, "city": "Carlstadt", "zip_code": "07072", "country": "US", "state": "NJ", "display_address": ["300 Washington Ave", "Carlstadt, NJ 07072"]}, "phone": "", "display_phone": "", "distance": 866.5631520780022}, {"id": "U2L-u7LuPAYWV1d3w0hovQ", "alias": "subway-secaucus-7", "name": "Subway", "image_url": "https://s3-media3.fl.yelpcdn.com/bphoto/KehkiBq7zM8TomlEogMmNQ/o.jpg", "is_closed": false, "url": "https://www.yelp.com/biz/subway-secaucus-7?adjust_creative=a2JdNtFqB-C38ga_06BHvw&utm_campaign=yelp_api_v3&utm_medium=api_v3_business_search&utm_source=a2JdNtFqB-C38ga_06BHvw", "review_count": 8, "categories": [{"alias": "sandwiches", "title": "Sandwiches"}], "rating": 1.5, "coordinates": {"latitude": 40.7981859124168, "longitude": -74.065089416504}, "transactions": [], "price": "$", "location": {"address1": "10 Meadowlands Pkwy", "address2": "Store E", "address3": "", "city": "Secaucus", "zip_code": "07094", "country": "US", "state": "NJ", "display_address": ["10 Meadowlands Pkwy", "Store E", "Secaucus, NJ 07094"]}, "phone": "+12018671200", "display_phone": "(201) 867-1200", "distance": 1875.9683841093324}, {"id": "TaatfeRhF1n7SFR8Cq5hTw", "alias": "wendys-rutherford-2", "name": "Wendy's", "image_url": "https://s3-media3.fl.yelpcdn.com/bphoto/etOnrP9WeXMPXEQ0Z0MzfQ/o.jpg", "is_closed": false, "url": "https://www.yelp.com/biz/wendys-rutherford-2?adjust_creative=a2JdNtFqB-C38ga_06BHvw&utm_campaign=yelp_api_v3&utm_medium=api_v3_business_search&utm_source=a2JdNtFqB-C38ga_06BHvw", "review_count": 7, "categories": [{"alias": "burgers", "title": "Burgers"}, {"alias": "hotdogs", "title": "Fast Food"}], "rating": 1.5, "coordinates": {"latitude": 40.8226650066585, "longitude": -74.0996557474136}, "transactions": [], "price": "$", "location": {"address1": "30 State Hwy 17 N S", "address2": null, "address3": null, "city": "Rutherford", "zip_code": "07070", "country": "US", "state": "NJ", "display_address": ["30 State Hwy 17 N S", "Rutherford, NJ 07070"]}, "phone": "+12014389884", "display_phone": "(201) 438-9884", "distance": 2358.616650872944}, {"id": "9Xe07l3nVuc_kHQWIobGtQ", "alias": "mcdonalds-secaucus", "name": "McDonald's", "image_url": "https://s3-media2.fl.yelpcdn.com/bphoto/42La2iYRIYMbFT_AvPhlwQ/o.jpg", "is_closed": false, "url": "https://www.yelp.com/biz/mcdonalds-secaucus?adjust_creative=a2JdNtFqB-C38ga_06BHvw&utm_campaign=yelp_api_v3&utm_medium=api_v3_business_search&utm_source=a2JdNtFqB-C38ga_06BHvw", "review_count": 6, "categories": [{"alias": "hotdogs", "title": "Fast Food"}, {"alias": "burgers", "title": "Burgers"}, {"alias": "coffee", "title": "Coffee & Tea"}], "rating": 1.5, "coordinates": {"latitude": 40.7929863199589, "longitude": -74.0424120426177}, "transactions": [], "price": "$", "location": {"address1": "400 Park Pl", "address2": null, "address3": null, "city": "Secaucus", "zip_code": "07094", "country": "US", "state": "NJ", "display_address": ["400 Park Pl", "Secaucus, NJ 07094"]}, "phone": "+12012710020", "display_phone": "(201) 271-0020", "distance": 3528.271244950109}, {"id": "lZxVj6L5Uk7wq1EMjDrbQA", "alias": "park-city-bar-and-grille-east-rutherford", "name": "Park City Bar & Grille", "image_url": "", "is_closed": false, "url": "https://www.yelp.com/biz/park-city-bar-and-grille-east-rutherford?adjust_creative=a2JdNtFqB-C38ga_06BHvw&utm_campaign=yelp_api_v3&utm_medium=api_v3_business_search&utm_source=a2JdNtFqB-C38ga_06BHvw", "review_count": 1, "categories": [{"alias": "restaurants", "title": "Restaurants"}], "rating": 3.0, "coordinates": {"latitude": 40.83279, "longitude": -74.09714}, "transactions": [], "location": {"address1": "125 Park Ave", "address2": "", "address3": "", "city": "East Rutherford", "zip_code": "07073", "country": "US", "state": "NJ", "display_address": ["125 Park Ave", "East Rutherford, NJ 07073"]}, "phone": "+12019333308", "display_phone": "(201) 933-3308", "distance": 2872.283620569389}, {"id": "KoN78tupJB8yrCK3_P78Qw", "alias": "china-town-kitchen-jersey-city", "name": "China-Town Kitchen", "image_url": "", "is_closed": false, "url": "https://www.yelp.com/biz/china-town-kitchen-jersey-city?adjust_creative=a2JdNtFqB-C38ga_06BHvw&utm_campaign=yelp_api_v3&utm_medium=api_v3_business_search&utm_source=a2JdNtFqB-C38ga_06BHvw", "review_count": 1, "categories": [{"alias": "chinese", "title": "Chinese"}], "rating": 3.0, "coordinates": {"latitude": 40.792646, "longitude": -74.064997}, "transactions": [], "location": {"address1": "287 Center Ave", "address2": "", "address3": "", "city": "Jersey City", "zip_code": "07307", "country": "US", "state": "NJ", "display_address": ["287 Center Ave", "Jersey City, NJ 07307"]}, "phone": "+12012160133", "display_phone": "(201) 216-0133", "distance": 2452.091504090684}, {"id": "xNEZWjdptU2p38PEd6Bx2g", "alias": "popeyes-louisiana-kitchen-east-rutherford", "name": "Popeyes Louisiana Kitchen", "image_url": "https://s3-media2.fl.yelpcdn.com/bphoto/nW_XyLDJRwR-_IgzSxgfRw/o.jpg", "is_closed": false, "url": "https://www.yelp.com/biz/popeyes-louisiana-kitchen-east-rutherford?adjust_creative=a2JdNtFqB-C38ga_06BHvw&utm_campaign=yelp_api_v3&utm_medium=api_v3_business_search&utm_source=a2JdNtFqB-C38ga_06BHvw", "review_count": 1, "categories": [{"alias": "chicken_wings", "title": "Chicken Wings"}, {"alias": "hotdogs", "title": "Fast Food"}], "rating": 3.0, "coordinates": {"latitude": 40.80945017740535, "longitude": -74.06692676246165}, "transactions": [], "location": {"address1": "1 American Dream Way", "address2": "", "address3": null, "city": "East Rutherford", "zip_code": "07073", "country": "US", "state": "NJ", "display_address": ["1 American Dream Way", "East Rutherford, NJ 07073"]}, "phone": "+16099945811", "display_phone": "(609) 994-5811", "distance": 772.6916182943592}, {"id": "RiHdROGyYdg8Y4Q8b27E4A", "alias": "nicks-hot-dogs-lyndhurst", "name": "Nick's Hot Dogs", "image_url": "https://s3-media1.fl.yelpcdn.com/bphoto/JH4mfKgLKDO7g6rLlYqDpg/o.jpg", "is_closed": false, "url": "https://www.yelp.com/biz/nicks-hot-dogs-lyndhurst?adjust_creative=a2JdNtFqB-C38ga_06BHvw&utm_campaign=yelp_api_v3&utm_medium=api_v3_business_search&utm_source=a2JdNtFqB-C38ga_06BHvw", "review_count": 2, "categories": [{"alias": "hotdog", "title": "Hot Dogs"}, {"alias": "foodtrucks", "title": "Food Trucks"}], "rating": 1.0, "coordinates": {"latitude": 40.81112, "longitude": -74.12036}, "transactions": [], "location": {"address1": "", "address2": "", "address3": null, "city": "Lyndhurst", "zip_code": "07071", "country": "US", "state": "NJ", "display_address": ["Lyndhurst, NJ 07071"]}, "phone": "", "display_phone": "", "distance": 3246.924888525374}, {"id": "YSY3iBHRXHnelO_9eCemSw", "alias": "cheeseburger-cheeseburger-rutherford-2", "name": "Cheeseburger Cheeseburger", "image_url": "", "is_closed": false, "url": "https://www.yelp.com/biz/cheeseburger-cheeseburger-rutherford-2?adjust_creative=a2JdNtFqB-C38ga_06BHvw&utm_campaign=yelp_api_v3&utm_medium=api_v3_business_search&utm_source=a2JdNtFqB-C38ga_06BHvw", "review_count": 1, "categories": [{"alias": "burgers", "title": "Burgers"}], "rating": 1.0, "coordinates": {"latitude": 40.8216861, "longitude": -74.09891383114027}, "transactions": [], "location": {"address1": "49 State RT 17 SE", "address2": "", "address3": "", "city": "Rutherford", "zip_code": "07073", "country": "US", "state": "NJ", "display_address": ["49 State RT 17 SE", "Rutherford, NJ 07073"]}, "phone": "", "display_phone": "", "distance": 2256.527330893945}, {"id": "If-aJ6Lt3ba1YbFpamFMMQ", "alias": "lyndhurst-cafe-and-catering-lyndhurst", "name": "Lyndhurst Cafe and Catering", "image_url": "https://s3-media2.fl.yelpcdn.com/bphoto/MUM5yP6GRt_PyO6kXrB3mA/o.jpg", "is_closed": false, "url": "https://www.yelp.com/biz/lyndhurst-cafe-and-catering-lyndhurst?adjust_creative=a2JdNtFqB-C38ga_06BHvw&utm_campaign=yelp_api_v3&utm_medium=api_v3_business_search&utm_source=a2JdNtFqB-C38ga_06BHvw", "review_count": 1, "categories": [{"alias": "cafeteria", "title": "Cafeteria"}, {"alias": "newamerican", "title": "American (New)"}, {"alias": "coffee", "title": "Coffee & Tea"}], "rating": 1.0, "coordinates": {"latitude": 40.8044662475586, "longitude": -74.1026763916016}, "transactions": ["delivery"], "location": {"address1": "1200 Wall St W", "address2": "", "address3": "Lobby", "city": "Lyndhurst", "zip_code": "07071", "country": "US", "state": "NJ", "display_address": ["1200 Wall St W", "Lobby", "Lyndhurst, NJ 07071"]}, "phone": "+12018819484", "display_phone": "(201) 881-9484", "distance": 2581.1337111412754}], "absolute total": 170, "total": 170}