{"league": "MLB", "team": "Kansas City Royals", "stadium": "Kauffman Stadium", "stadium latitude": 39.051, "stadium longitude": -94.48, "radius": "3000 meters", "city": "Kansas City", "state": "Missouri", "businesses": [{"id": "GqBadACBm0Ssl_ieMgSDfQ", "alias": "leeds-diner-kansas-city", "name": "Leed's Diner", "image_url": "https://s3-media1.fl.yelpcdn.com/bphoto/wFssYNkOBhyOmI6oewaHrA/o.jpg", "is_closed": false, "url": "https://www.yelp.com/biz/leeds-diner-kansas-city?adjust_creative=a2JdNtFqB-C38ga_06BHvw&utm_campaign=yelp_api_v3&utm_medium=api_v3_business_search&utm_source=a2JdNtFqB-C38ga_06BHvw", "review_count": 40, "categories": [{"alias": "diners", "title": "Diners"}], "rating": 4.5, "coordinates": {"latitude": 39.0577956, "longitude": -94.508761}, "transactions": ["delivery"], "price": "$", "location": {"address1": "6422 Stadium Dr", "address2": null, "address3": null, "city": "Kansas City", "zip_code": "64129", "country": "US", "state": "MO", "display_address": ["6422 Stadium Dr", "Kansas City, MO 64129"]}, "phone": "+18168615333", "display_phone": "(816) 861-5333", "distance": 2595.8715674038317}, {"id": "BQOl7ezAUQ5OKRPjD8PwPQ", "alias": "peachtree-buffet-kansas-city", "name": "Peachtree Buffet", "image_url": "https://s3-media1.fl.yelpcdn.com/bphoto/OxMVBxY7ptYZjk4zHG0Lqw/o.jpg", "is_closed": false, "url": "https://www.yelp.com/biz/peachtree-buffet-kansas-city?adjust_creative=a2JdNtFqB-C38ga_06BHvw&utm_campaign=yelp_api_v3&utm_medium=api_v3_business_search&utm_source=a2JdNtFqB-C38ga_06BHvw", "review_count": 136, "categories": [{"alias": "soulfood", "title": "Soul Food"}, {"alias": "buffets", "title": "Buffets"}], "rating": 4.0, "coordinates": {"latitude": 39.03122, "longitude": -94.50428}, "transactions": ["delivery"], "price": "$$", "location": {"address1": "6800 Eastwood Trafficwy", "address2": "", "address3": "", "city": "Kansas City", "zip_code": "64129", "country": "US", "state": "MO", "display_address": ["6800 Eastwood Trafficwy", "Kansas City, MO 64129"]}, "phone": "+18169230099", "display_phone": "(816) 923-0099", "distance": 3051.079058075425}, {"id": "MfbD2hiEA3TSolSl-t4kXQ", "alias": "machetes-independence", "name": "Machetes", "image_url": "https://s3-media3.fl.yelpcdn.com/bphoto/eoOr22D0KbU5GU9U5K0cIg/o.jpg", "is_closed": false, "url": "https://www.yelp.com/biz/machetes-independence?adjust_creative=a2JdNtFqB-C38ga_06BHvw&utm_campaign=yelp_api_v3&utm_medium=api_v3_business_search&utm_source=a2JdNtFqB-C38ga_06BHvw", "review_count": 31, "categories": [{"alias": "mexican", "title": "Mexican"}], "rating": 4.5, "coordinates": {"latitude": 39.06, "longitude": -94.47095}, "transactions": ["delivery", "pickup"], "price": "$", "location": {"address1": "9104 E 35th St", "address2": null, "address3": "", "city": "Independence", "zip_code": "64052", "country": "US", "state": "MO", "display_address": ["9104 E 35th St", "Independence, MO 64052"]}, "phone": "+18163817968", "display_phone": "(816) 381-7968", "distance": 1264.8922118269543}, {"id": "7lsHtPIZlutIwoTKa09Z3w", "alias": "dixons-chili-parlor-independence-3", "name": "Dixon's Chili Parlor", "image_url": "https://s3-media3.fl.yelpcdn.com/bphoto/D3Wul39UmGCqm7bZ-JhtZA/o.jpg", "is_closed": false, "url": "https://www.yelp.com/biz/dixons-chili-parlor-independence-3?adjust_creative=a2JdNtFqB-C38ga_06BHvw&utm_campaign=yelp_api_v3&utm_medium=api_v3_business_search&utm_source=a2JdNtFqB-C38ga_06BHvw", "review_count": 145, "categories": [{"alias": "diners", "title": "Diners"}, {"alias": "mexican", "title": "Mexican"}], "rating": 4.0, "coordinates": {"latitude": 39.05926, "longitude": -94.47176}, "transactions": ["delivery", "pickup"], "price": "$", "location": {"address1": "9105 E US Hwy 40", "address2": "", "address3": "", "city": "Independence", "zip_code": "64055", "country": "US", "state": "MO", "display_address": ["9105 E US Hwy 40", "Independence, MO 64055"]}, "phone": "+18168617308", "display_phone": "(816) 861-7308", "distance": 1170.8614191130255}, {"id": "jPbtqjisYEUNqEl3RJ8guw", "alias": "thai-spice-kansas-city", "name": "Thai Spice", "image_url": "https://s3-media3.fl.yelpcdn.com/bphoto/pMcb0vvqYECKiUD7OhQd9g/o.jpg", "is_closed": false, "url": "https://www.yelp.com/biz/thai-spice-kansas-city?adjust_creative=a2JdNtFqB-C38ga_06BHvw&utm_campaign=yelp_api_v3&utm_medium=api_v3_business_search&utm_source=a2JdNtFqB-C38ga_06BHvw", "review_count": 43, "categories": [{"alias": "thai", "title": "Thai"}], "rating": 4.0, "coordinates": {"latitude": 39.046951, "longitude": -94.445893}, "transactions": ["delivery"], "price": "$$", "location": {"address1": "4171 Sterling Ave", "address2": "", "address3": null, "city": "Kansas City", "zip_code": "64133", "country": "US", "state": "MO", "display_address": ["4171 Sterling Ave", "Kansas City, MO 64133"]}, "phone": "+18167371881", "display_phone": "(816) 737-1881", "distance": 2979.514169340747}, {"id": "zl04xgbwoAl0yx1tmqzjyQ", "alias": "vs-italiano-ristorante-independence-2", "name": "V's Italiano Ristorante", "image_url": "https://s3-media2.fl.yelpcdn.com/bphoto/qv_FWriL32WQtD_6NS1jAQ/o.jpg", "is_closed": false, "url": "https://www.yelp.com/biz/vs-italiano-ristorante-independence-2?adjust_creative=a2JdNtFqB-C38ga_06BHvw&utm_campaign=yelp_api_v3&utm_medium=api_v3_business_search&utm_source=a2JdNtFqB-C38ga_06BHvw", "review_count": 139, "categories": [{"alias": "italian", "title": "Italian"}], "rating": 3.5, "coordinates": {"latitude": 39.0504598, "longitude": -94.4504935}, "transactions": ["delivery", "pickup"], "price": "$$", "location": {"address1": "10819 E US Hwy 40", "address2": "", "address3": "", "city": "Independence", "zip_code": "64055", "country": "US", "state": "MO", "display_address": ["10819 E US Hwy 40", "Independence, MO 64055"]}, "phone": "+18163531241", "display_phone": "(816) 353-1241", "distance": 2548.6709305391114}, {"id": "fQE9rl4-CzLqIQcoapmLnw", "alias": "hiboy-drive-in-independence", "name": "HiBoy Drive-In", "image_url": "https://s3-media2.fl.yelpcdn.com/bphoto/qmYZs1eRAOfRI5OPeQk5eA/o.jpg", "is_closed": false, "url": "https://www.yelp.com/biz/hiboy-drive-in-independence?adjust_creative=a2JdNtFqB-C38ga_06BHvw&utm_campaign=yelp_api_v3&utm_medium=api_v3_business_search&utm_source=a2JdNtFqB-C38ga_06BHvw", "review_count": 58, "categories": [{"alias": "burgers", "title": "Burgers"}, {"alias": "hotdogs", "title": "Fast Food"}], "rating": 4.0, "coordinates": {"latitude": 39.0608172612177, "longitude": -94.4720869099519}, "transactions": ["delivery"], "price": "$", "location": {"address1": "3424 S Blue Ridge Cut Off", "address2": "", "address3": "", "city": "Independence", "zip_code": "64055", "country": "US", "state": "MO", "display_address": ["3424 S Blue Ridge Cut Off", "Independence, MO 64055"]}, "phone": "+18168612677", "display_phone": "(816) 861-2677", "distance": 1287.8294815594043}, {"id": "AhQZhXoFSehvRxMw0PTdRA", "alias": "fat-jacks-chicken-and-fish-kansas-city", "name": "Fat Jack's Chicken and Fish", "image_url": "https://s3-media2.fl.yelpcdn.com/bphoto/lTvmX8s-UJPAB-imX1G81g/o.jpg", "is_closed": false, "url": "https://www.yelp.com/biz/fat-jacks-chicken-and-fish-kansas-city?adjust_creative=a2JdNtFqB-C38ga_06BHvw&utm_campaign=yelp_api_v3&utm_medium=api_v3_business_search&utm_source=a2JdNtFqB-C38ga_06BHvw", "review_count": 25, "categories": [{"alias": "chickenshop", "title": "Chicken Shop"}, {"alias": "fishnchips", "title": "Fish & Chips"}, {"alias": "soulfood", "title": "Soul Food"}], "rating": 4.0, "coordinates": {"latitude": 39.03422, "longitude": -94.51429}, "transactions": ["delivery", "pickup"], "location": {"address1": "5912 Blue Pkwy", "address2": "", "address3": null, "city": "Kansas City", "zip_code": "64129", "country": "US", "state": "MO", "display_address": ["5912 Blue Pkwy", "Kansas City, MO 64129"]}, "phone": "+18162167686", "display_phone": "(816) 216-7686", "distance": 3553.9360058688944}, {"id": "qlmwk4e8GDdu7RfQtfxRwA", "alias": "rosies-cafe-independence", "name": "Rosie's Cafe", "image_url": "https://s3-media4.fl.yelpcdn.com/bphoto/k5iGBqt5b1C1lmeJlfs7kg/o.jpg", "is_closed": false, "url": "https://www.yelp.com/biz/rosies-cafe-independence?adjust_creative=a2JdNtFqB-C38ga_06BHvw&utm_campaign=yelp_api_v3&utm_medium=api_v3_business_search&utm_source=a2JdNtFqB-C38ga_06BHvw", "review_count": 32, "categories": [{"alias": "cafes", "title": "Cafes"}], "rating": 4.0, "coordinates": {"latitude": 39.052791595459, "longitude": -94.4530639648438}, "transactions": ["delivery"], "price": "$", "location": {"address1": "10690 E US Hwy 40", "address2": "", "address3": "", "city": "Independence", "zip_code": "64055", "country": "US", "state": "MO", "display_address": ["10690 E US Hwy 40", "Independence, MO 64055"]}, "phone": "+18163535835", "display_phone": "(816) 353-5835", "distance": 2332.19441255924}, {"id": "3uI3VMXNuKKaFmLizAV29g", "alias": "big-ts-kansas-city-2", "name": "Big T's", "image_url": "https://s3-media3.fl.yelpcdn.com/bphoto/4RJB2iM39fIrqwqRQbHSvQ/o.jpg", "is_closed": false, "url": "https://www.yelp.com/biz/big-ts-kansas-city-2?adjust_creative=a2JdNtFqB-C38ga_06BHvw&utm_campaign=yelp_api_v3&utm_medium=api_v3_business_search&utm_source=a2JdNtFqB-C38ga_06BHvw", "review_count": 104, "categories": [{"alias": "bbq", "title": "Barbeque"}], "rating": 3.5, "coordinates": {"latitude": 39.0320860378814, "longitude": -94.5134925842285}, "transactions": ["delivery"], "price": "$$", "location": {"address1": "6201 Blue Pkwy", "address2": "", "address3": "", "city": "Kansas City", "zip_code": "64129", "country": "US", "state": "MO", "display_address": ["6201 Blue Pkwy", "Kansas City, MO 64129"]}, "phone": "+18169232278", "display_phone": "(816) 923-2278", "distance": 3576.3119233619423}, {"id": "Cmcz02onC_nYEO6De6ldFw", "alias": "gates-on-east-40-hwy-independence-2", "name": "Gates on East 40 Hwy", "image_url": "https://s3-media1.fl.yelpcdn.com/bphoto/5JonFenmQ4VNpzt3YM74XQ/o.jpg", "is_closed": false, "url": "https://www.yelp.com/biz/gates-on-east-40-hwy-independence-2?adjust_creative=a2JdNtFqB-C38ga_06BHvw&utm_campaign=yelp_api_v3&utm_medium=api_v3_business_search&utm_source=a2JdNtFqB-C38ga_06BHvw", "review_count": 163, "categories": [{"alias": "bbq", "title": "Barbeque"}, {"alias": "sandwiches", "title": "Sandwiches"}], "rating": 3.0, "coordinates": {"latitude": 39.05363, "longitude": -94.45488}, "transactions": ["delivery"], "price": "$$", "location": {"address1": "10440 E US Highway 40", "address2": "", "address3": "", "city": "Independence", "zip_code": "64055", "country": "US", "state": "MO", "display_address": ["10440 E US Highway 40", "Independence, MO 64055"]}, "phone": "+18163535880", "display_phone": "(816) 353-5880", "distance": 2180.089047596006}, {"id": "k1qnC6QFQx0ZE90GvnMxxg", "alias": "firehouse-subs-kansas-city-2", "name": "Firehouse Subs", "image_url": "https://s3-media2.fl.yelpcdn.com/bphoto/b8wkiK8GJwORVGN9Au-jpQ/o.jpg", "is_closed": false, "url": "https://www.yelp.com/biz/firehouse-subs-kansas-city-2?adjust_creative=a2JdNtFqB-C38ga_06BHvw&utm_campaign=yelp_api_v3&utm_medium=api_v3_business_search&utm_source=a2JdNtFqB-C38ga_06BHvw", "review_count": 28, "categories": [{"alias": "sandwiches", "title": "Sandwiches"}, {"alias": "hotdogs", "title": "Fast Food"}, {"alias": "delis", "title": "Delis"}], "rating": 3.5, "coordinates": {"latitude": 39.046765, "longitude": -94.44600733}, "transactions": ["delivery"], "price": "$", "location": {"address1": "4167 Sterling Ave", "address2": "", "address3": null, "city": "Kansas City", "zip_code": "64133", "country": "US", "state": "MO", "display_address": ["4167 Sterling Ave", "Kansas City, MO 64133"]}, "phone": "+18169979555", "display_phone": "(816) 997-9555", "distance": 2969.776818372172}, {"id": "AMIdqrOnhcRxaRipMPW_5g", "alias": "pepperjax-grill-kansas-city-3", "name": "Pepperjax Grill", "image_url": "https://s3-media1.fl.yelpcdn.com/bphoto/iMN7cRDdGZ7YT3bjRvL0eg/o.jpg", "is_closed": false, "url": "https://www.yelp.com/biz/pepperjax-grill-kansas-city-3?adjust_creative=a2JdNtFqB-C38ga_06BHvw&utm_campaign=yelp_api_v3&utm_medium=api_v3_business_search&utm_source=a2JdNtFqB-C38ga_06BHvw", "review_count": 22, "categories": [{"alias": "sandwiches", "title": "Sandwiches"}, {"alias": "hotdogs", "title": "Fast Food"}, {"alias": "mexican", "title": "Mexican"}], "rating": 3.0, "coordinates": {"latitude": 39.046691032623, "longitude": -94.4456273310532}, "transactions": ["delivery"], "price": "$", "location": {"address1": "4179 Sterling Ave", "address2": "", "address3": "", "city": "Kansas City", "zip_code": "64133", "country": "US", "state": "MO", "display_address": ["4179 Sterling Ave", "Kansas City, MO 64133"]}, "phone": "+18168004374", "display_phone": "(816) 800-4374", "distance": 3006.670818653886}, {"id": "ZA845aKEbNA-z6VsfVcrLw", "alias": "ararat-shrine-restaurant-kansas-city", "name": "Ararat Shrine Restaurant", "image_url": "https://s3-media4.fl.yelpcdn.com/bphoto/i8cGDqUhbbkhrvX2ZmQ9GQ/o.jpg", "is_closed": false, "url": "https://www.yelp.com/biz/ararat-shrine-restaurant-kansas-city?adjust_creative=a2JdNtFqB-C38ga_06BHvw&utm_campaign=yelp_api_v3&utm_medium=api_v3_business_search&utm_source=a2JdNtFqB-C38ga_06BHvw", "review_count": 5, "categories": [{"alias": "tradamerican", "title": "American (Traditional)"}, {"alias": "burgers", "title": "Burgers"}], "rating": 4.5, "coordinates": {"latitude": 39.033344985859, "longitude": -94.5037873426833}, "transactions": ["delivery"], "price": "$$", "location": {"address1": "5100 Ararat Dr", "address2": "", "address3": "", "city": "Kansas City", "zip_code": "64129", "country": "US", "state": "MO", "display_address": ["5100 Ararat Dr", "Kansas City, MO 64129"]}, "phone": "+18169231995", "display_phone": "(816) 923-1995", "distance": 2841.528835045856}, {"id": "c4mC4sLlT304SUHkA06X4w", "alias": "la-fuente-mexican-restaurant-independence-2", "name": "La Fuente Mexican Restaurant", "image_url": "https://s3-media2.fl.yelpcdn.com/bphoto/HJ4jbGXMDZX20lAXELqbbA/o.jpg", "is_closed": false, "url": "https://www.yelp.com/biz/la-fuente-mexican-restaurant-independence-2?adjust_creative=a2JdNtFqB-C38ga_06BHvw&utm_campaign=yelp_api_v3&utm_medium=api_v3_business_search&utm_source=a2JdNtFqB-C38ga_06BHvw", "review_count": 12, "categories": [{"alias": "mexican", "title": "Mexican"}, {"alias": "salad", "title": "Salad"}, {"alias": "soup", "title": "Soup"}], "rating": 3.5, "coordinates": {"latitude": 39.0497, "longitude": -94.44928}, "transactions": ["delivery"], "location": {"address1": "10839 E US Hwy 40", "address2": "", "address3": null, "city": "Independence", "zip_code": "64055", "country": "US", "state": "MO", "display_address": ["10839 E US Hwy 40", "Independence, MO 64055"]}, "phone": "+18163535100", "display_phone": "(816) 353-5100", "distance": 2676.466597517962}, {"id": "H1dFdmjqNKmmFfuvI-d_PQ", "alias": "chipotle-mexican-grill-kansas-city-10", "name": "Chipotle Mexican Grill", "image_url": "https://s3-media2.fl.yelpcdn.com/bphoto/pVNUHwB_OXLtso13dn3vhA/o.jpg", "is_closed": false, "url": "https://www.yelp.com/biz/chipotle-mexican-grill-kansas-city-10?adjust_creative=a2JdNtFqB-C38ga_06BHvw&utm_campaign=yelp_api_v3&utm_medium=api_v3_business_search&utm_source=a2JdNtFqB-C38ga_06BHvw", "review_count": 28, "categories": [{"alias": "mexican", "title": "Mexican"}, {"alias": "hotdogs", "title": "Fast Food"}], "rating": 2.5, "coordinates": {"latitude": 39.046579, "longitude": -94.4469523}, "transactions": ["delivery"], "price": "$", "location": {"address1": "4151 Sterling Ave", "address2": "Ste B", "address3": "", "city": "Kansas City", "zip_code": "64133", "country": "US", "state": "MO", "display_address": ["4151 Sterling Ave", "Ste B", "Kansas City, MO 64133"]}, "phone": "+18162457324", "display_phone": "(816) 245-7324", "distance": 2895.8637664053254}, {"id": "8044uC32GE7IVsYqvVKosw", "alias": "sandbar-independence-2", "name": "Sandbar", "image_url": "https://s3-media3.fl.yelpcdn.com/bphoto/qpEIsSshNVCgvDTOowN6Vw/o.jpg", "is_closed": false, "url": "https://www.yelp.com/biz/sandbar-independence-2?adjust_creative=a2JdNtFqB-C38ga_06BHvw&utm_campaign=yelp_api_v3&utm_medium=api_v3_business_search&utm_source=a2JdNtFqB-C38ga_06BHvw", "review_count": 7, "categories": [{"alias": "bars", "title": "Bars"}, {"alias": "breakfast_brunch", "title": "Breakfast & Brunch"}], "rating": 3.5, "coordinates": {"latitude": 39.055675, "longitude": -94.46331}, "transactions": [], "price": "$$", "location": {"address1": "9807 US Hwy 40", "address2": "", "address3": null, "city": "Independence", "zip_code": "64055", "country": "US", "state": "MO", "display_address": ["9807 US Hwy 40", "Independence, MO 64055"]}, "phone": "+18163132091", "display_phone": "(816) 313-2091", "distance": 1537.4963267624003}, {"id": "ikOIVDD8gkGoghPx-X5Ttg", "alias": "cali-kc-independence", "name": "Cali KC", "image_url": "https://s3-media1.fl.yelpcdn.com/bphoto/h6B4_rXxQ5H0FS8wEdlu1g/o.jpg", "is_closed": false, "url": "https://www.yelp.com/biz/cali-kc-independence?adjust_creative=a2JdNtFqB-C38ga_06BHvw&utm_campaign=yelp_api_v3&utm_medium=api_v3_business_search&utm_source=a2JdNtFqB-C38ga_06BHvw", "review_count": 2, "categories": [{"alias": "mexican", "title": "Mexican"}], "rating": 5.0, "coordinates": {"latitude": 39.05021, "longitude": -94.447788}, "transactions": ["delivery"], "location": {"address1": "11100 E US Hwy 40", "address2": "", "address3": null, "city": "Independence", "zip_code": "64055", "country": "US", "state": "MO", "display_address": ["11100 E US Hwy 40", "Independence, MO 64055"]}, "phone": "+17146056171", "display_phone": "(714) 605-6171", "distance": 2782.9815968259054}, {"id": "FYDyL-J25m58DF3fhYqDkg", "alias": "ihop-kansas-city-2", "name": "IHOP", "image_url": "https://s3-media1.fl.yelpcdn.com/bphoto/IhQEyg4Rm9hY7kiBRLlDCA/o.jpg", "is_closed": false, "url": "https://www.yelp.com/biz/ihop-kansas-city-2?adjust_creative=a2JdNtFqB-C38ga_06BHvw&utm_campaign=yelp_api_v3&utm_medium=api_v3_business_search&utm_source=a2JdNtFqB-C38ga_06BHvw", "review_count": 51, "categories": [{"alias": "tradamerican", "title": "American (Traditional)"}, {"alias": "breakfast_brunch", "title": "Breakfast & Brunch"}, {"alias": "burgers", "title": "Burgers"}], "rating": 2.0, "coordinates": {"latitude": 39.04652, "longitude": -94.44714}, "transactions": ["delivery", "pickup"], "price": "$", "location": {"address1": "4149 Sterling Ave", "address2": "", "address3": "", "city": "Kansas City", "zip_code": "64133", "country": "US", "state": "MO", "display_address": ["4149 Sterling Ave", "Kansas City, MO 64133"]}, "phone": "+18162986122", "display_phone": "(816) 298-6122", "distance": 2881.019791045512}, {"id": "-yb0I9hVLKuHdbFwUqUvZQ", "alias": "subway-independence-29", "name": "Subway", "image_url": "https://s3-media2.fl.yelpcdn.com/bphoto/mXZwTKoETv5ekHmjHVTxOg/o.jpg", "is_closed": false, "url": "https://www.yelp.com/biz/subway-independence-29?adjust_creative=a2JdNtFqB-C38ga_06BHvw&utm_campaign=yelp_api_v3&utm_medium=api_v3_business_search&utm_source=a2JdNtFqB-C38ga_06BHvw", "review_count": 6, "categories": [{"alias": "sandwiches", "title": "Sandwiches"}], "rating": 3.0, "coordinates": {"latitude": 39.051072, "longitude": -94.449882}, "transactions": ["delivery", "pickup"], "price": "$", "location": {"address1": "10910 Hwy 40", "address2": null, "address3": null, "city": "Independence", "zip_code": "64055", "country": "US", "state": "MO", "display_address": ["10910 Hwy 40", "Independence, MO 64055"]}, "phone": "+18163538990", "display_phone": "(816) 353-8990", "distance": 2600.768658551291}, {"id": "qZgeJafpPRGyWKRhXxHzbw", "alias": "boulevard-grill-kansas-city-2", "name": "Boulevard Grill", "image_url": "https://s3-media2.fl.yelpcdn.com/bphoto/H-XZAW1IM15mYeqFtLgTgg/o.jpg", "is_closed": false, "url": "https://www.yelp.com/biz/boulevard-grill-kansas-city-2?adjust_creative=a2JdNtFqB-C38ga_06BHvw&utm_campaign=yelp_api_v3&utm_medium=api_v3_business_search&utm_source=a2JdNtFqB-C38ga_06BHvw", "review_count": 3, "categories": [{"alias": "newamerican", "title": "American (New)"}, {"alias": "breakfast_brunch", "title": "Breakfast & Brunch"}, {"alias": "burgers", "title": "Burgers"}], "rating": 4.0, "coordinates": {"latitude": 39.049423869095, "longitude": -94.4743403003595}, "transactions": ["delivery"], "location": {"address1": "4011 Blue Ridge Cutoff", "address2": "", "address3": "", "city": "Kansas City", "zip_code": "64133", "country": "US", "state": "MO", "display_address": ["4011 Blue Ridge Cutoff", "Kansas City, MO 64133"]}, "phone": "+18163535300", "display_phone": "(816) 353-5300", "distance": 519.2066228708976}, {"id": "gR7HrpUOT1eHJK8eURGugA", "alias": "dennys-kansas-city-8", "name": "Denny's", "image_url": "https://s3-media3.fl.yelpcdn.com/bphoto/0JVPQc6zDxHRbznQ8AH8NQ/o.jpg", "is_closed": false, "url": "https://www.yelp.com/biz/dennys-kansas-city-8?adjust_creative=a2JdNtFqB-C38ga_06BHvw&utm_campaign=yelp_api_v3&utm_medium=api_v3_business_search&utm_source=a2JdNtFqB-C38ga_06BHvw", "review_count": 33, "categories": [{"alias": "diners", "title": "Diners"}, {"alias": "tradamerican", "title": "American (Traditional)"}, {"alias": "breakfast_brunch", "title": "Breakfast & Brunch"}], "rating": 2.0, "coordinates": {"latitude": 39.0529015262692, "longitude": -94.4744315743446}, "transactions": ["pickup", "delivery"], "price": "$", "location": {"address1": "3832 Blue Ridge Cutoff", "address2": "", "address3": "", "city": "Kansas City", "zip_code": "64133", "country": "US", "state": "MO", "display_address": ["3832 Blue Ridge Cutoff", "Kansas City, MO 64133"]}, "phone": "+18169232790", "display_phone": "(816) 923-2790", "distance": 525.2748283438481}, {"id": "2BZfWxnNuzSTMVA7me9Nww", "alias": "quiktrip-independence-16", "name": "QuikTrip", "image_url": "https://s3-media3.fl.yelpcdn.com/bphoto/3hSfEL4HX68EQ86ZS8iwuw/o.jpg", "is_closed": false, "url": "https://www.yelp.com/biz/quiktrip-independence-16?adjust_creative=a2JdNtFqB-C38ga_06BHvw&utm_campaign=yelp_api_v3&utm_medium=api_v3_business_search&utm_source=a2JdNtFqB-C38ga_06BHvw", "review_count": 4, "categories": [{"alias": "servicestations", "title": "Gas Stations"}, {"alias": "convenience", "title": "Convenience Stores"}, {"alias": "hotdogs", "title": "Fast Food"}], "rating": 3.5, "coordinates": {"latitude": 39.049069, "longitude": -94.448246}, "transactions": [], "price": "$", "location": {"address1": "11101 E 40 Hwy", "address2": "", "address3": "", "city": "Independence", "zip_code": "64055", "country": "US", "state": "MO", "display_address": ["11101 E 40 Hwy", "Independence, MO 64055"]}, "phone": "+18163534191", "display_phone": "(816) 353-4191", "distance": 2731.4723941206603}, {"id": "GzXy4RDyDVNP1ivqcJWANg", "alias": "antojos-el-korita-kansas-city", "name": "Antojos El Korita", "image_url": "https://s3-media4.fl.yelpcdn.com/bphoto/Mj-kXEwXf4IPnxY7w7ykhQ/o.jpg", "is_closed": false, "url": "https://www.yelp.com/biz/antojos-el-korita-kansas-city?adjust_creative=a2JdNtFqB-C38ga_06BHvw&utm_campaign=yelp_api_v3&utm_medium=api_v3_business_search&utm_source=a2JdNtFqB-C38ga_06BHvw", "review_count": 2, "categories": [{"alias": "mexican", "title": "Mexican"}], "rating": 4.5, "coordinates": {"latitude": 39.063929, "longitude": -94.48502}, "transactions": ["delivery"], "location": {"address1": "8500 E US Hwy 40", "address2": null, "address3": "", "city": "Kansas City", "zip_code": "64129", "country": "US", "state": "MO", "display_address": ["8500 E US Hwy 40", "Kansas City, MO 64129"]}, "phone": "+18162161035", "display_phone": "(816) 216-1035", "distance": 1502.654003901928}, {"id": "CQi_SQEvMCa5Nm1uTOnRRg", "alias": "mcdonalds-kansas-city-29", "name": "McDonald's", "image_url": "https://s3-media3.fl.yelpcdn.com/bphoto/youVJ60hVaUKbKOmwyU3jQ/o.jpg", "is_closed": false, "url": "https://www.yelp.com/biz/mcdonalds-kansas-city-29?adjust_creative=a2JdNtFqB-C38ga_06BHvw&utm_campaign=yelp_api_v3&utm_medium=api_v3_business_search&utm_source=a2JdNtFqB-C38ga_06BHvw", "review_count": 11, "categories": [{"alias": "hotdogs", "title": "Fast Food"}, {"alias": "burgers", "title": "Burgers"}, {"alias": "coffee", "title": "Coffee & Tea"}], "rating": 2.5, "coordinates": {"latitude": 39.0313713861183, "longitude": -94.5035979151726}, "transactions": ["delivery"], "price": "$", "location": {"address1": "6996 Eastwood Trfy", "address2": "", "address3": "", "city": "Kansas City", "zip_code": "64129", "country": "US", "state": "MO", "display_address": ["6996 Eastwood Trfy", "Kansas City, MO 64129"]}, "phone": "+18169232141", "display_phone": "(816) 923-2141", "distance": 2986.177156841318}, {"id": "YfIkm0Mjlev5fIs36mFE2A", "alias": "sonic-drive-in-independence", "name": "Sonic Drive-In", "image_url": "https://s3-media2.fl.yelpcdn.com/bphoto/Juy8nCfZCRMPAq4HWp4ojA/o.jpg", "is_closed": false, "url": "https://www.yelp.com/biz/sonic-drive-in-independence?adjust_creative=a2JdNtFqB-C38ga_06BHvw&utm_campaign=yelp_api_v3&utm_medium=api_v3_business_search&utm_source=a2JdNtFqB-C38ga_06BHvw", "review_count": 6, "categories": [{"alias": "burgers", "title": "Burgers"}, {"alias": "hotdogs", "title": "Fast Food"}, {"alias": "icecream", "title": "Ice Cream & Frozen Yogurt"}], "rating": 3.0, "coordinates": {"latitude": 39.0522215302829, "longitude": -94.45188050949442}, "transactions": [], "price": "$", "location": {"address1": "10802 Highway 40 E", "address2": "", "address3": "", "city": "Independence", "zip_code": "64055", "country": "US", "state": "MO", "display_address": ["10802 Highway 40 E", "Independence, MO 64055"]}, "phone": "+18167375599", "display_phone": "(816) 737-5599", "distance": 2431.956872060896}, {"id": "5r4yANrLybdGM6Ggmd90Gg", "alias": "p-moore-and-moore-kansas-city", "name": "P Moore & Moore", "image_url": "https://s3-media2.fl.yelpcdn.com/bphoto/Qe-DPp0pY0D8BGnpOOcOiQ/o.jpg", "is_closed": false, "url": "https://www.yelp.com/biz/p-moore-and-moore-kansas-city?adjust_creative=a2JdNtFqB-C38ga_06BHvw&utm_campaign=yelp_api_v3&utm_medium=api_v3_business_search&utm_source=a2JdNtFqB-C38ga_06BHvw", "review_count": 9, "categories": [{"alias": "bbq", "title": "Barbeque"}, {"alias": "breakfast_brunch", "title": "Breakfast & Brunch"}], "rating": 2.0, "coordinates": {"latitude": 39.0517722910825, "longitude": -94.4708529501698}, "transactions": [], "location": {"address1": "9103 E 39th St", "address2": "", "address3": null, "city": "Kansas City", "zip_code": "64133", "country": "US", "state": "MO", "display_address": ["9103 E 39th St", "Kansas City, MO 64133"]}, "phone": "+18167374760", "display_phone": "(816) 737-4760", "distance": 794.5186763205114}, {"id": "QJZ-EY2-6EnP3Cqs41z8YQ", "alias": "trices-kitchen-soul-food-and-catering-raytown", "name": "TRICE'S KITCHEN Soul Food and Catering", "image_url": "https://s3-media4.fl.yelpcdn.com/bphoto/1btzjJjh1ealrDuJuVTh-w/o.jpg", "is_closed": false, "url": "https://www.yelp.com/biz/trices-kitchen-soul-food-and-catering-raytown?adjust_creative=a2JdNtFqB-C38ga_06BHvw&utm_campaign=yelp_api_v3&utm_medium=api_v3_business_search&utm_source=a2JdNtFqB-C38ga_06BHvw", "review_count": 1, "categories": [{"alias": "catering", "title": "Caterers"}, {"alias": "soulfood", "title": "Soul Food"}], "rating": 5.0, "coordinates": {"latitude": 39.01055, "longitude": -94.46301}, "transactions": [], "location": {"address1": null, "address2": null, "address3": null, "city": "Raytown", "zip_code": "64052", "country": "US", "state": "MO", "display_address": ["Raytown, MO 64052"]}, "phone": "+18164471098", "display_phone": "(816) 447-1098", "distance": 3451.776102844908}, {"id": "Yg2I1l5ceJvlW2NajuR45w", "alias": "big-dogs-bbq-kansas-city", "name": "Big Dog's BBQ", "image_url": "", "is_closed": false, "url": "https://www.yelp.com/biz/big-dogs-bbq-kansas-city?adjust_creative=a2JdNtFqB-C38ga_06BHvw&utm_campaign=yelp_api_v3&utm_medium=api_v3_business_search&utm_source=a2JdNtFqB-C38ga_06BHvw", "review_count": 1, "categories": [{"alias": "bbq", "title": "Barbeque"}, {"alias": "foodtrucks", "title": "Food Trucks"}], "rating": 5.0, "coordinates": {"latitude": 39.0328471, "longitude": -94.5139929}, "transactions": [], "location": {"address1": "6151 Blue Pkwy", "address2": "", "address3": null, "city": "Kansas City", "zip_code": "64129", "country": "US", "state": "MO", "display_address": ["6151 Blue Pkwy", "Kansas City, MO 64129"]}, "phone": "+19135575757", "display_phone": "(913) 557-5757", "distance": 3573.464560819092}, {"id": "G_bRxkcjV0ZTSMKm1OqcvA", "alias": "caseys-sports-bar-and-grill-kansas-city-2", "name": "Casey's Sports Bar & Grill", "image_url": "", "is_closed": false, "url": "https://www.yelp.com/biz/caseys-sports-bar-and-grill-kansas-city-2?adjust_creative=a2JdNtFqB-C38ga_06BHvw&utm_campaign=yelp_api_v3&utm_medium=api_v3_business_search&utm_source=a2JdNtFqB-C38ga_06BHvw", "review_count": 7, "categories": [{"alias": "sportsbars", "title": "Sports Bars"}, {"alias": "chicken_wings", "title": "Chicken Wings"}], "rating": 2.5, "coordinates": {"latitude": 39.0515403747559, "longitude": -94.4705352783203}, "transactions": [], "price": "$$", "location": {"address1": "9103 E 39th St", "address2": "", "address3": "Adams Mark Hotel", "city": "Kansas City", "zip_code": "64133", "country": "US", "state": "MO", "display_address": ["9103 E 39th St", "Adams Mark Hotel", "Kansas City, MO 64133"]}, "phone": "+18167370200", "display_phone": "(816) 737-0200", "distance": 796.2440501438494}, {"id": "gD1nSb2oZ0Bnfel5YTGcYw", "alias": "long-john-silvers-independence-2", "name": "Long John Silver's", "image_url": "https://s3-media4.fl.yelpcdn.com/bphoto/5vmJ0XhcdB2WWl3JrO6zGw/o.jpg", "is_closed": false, "url": "https://www.yelp.com/biz/long-john-silvers-independence-2?adjust_creative=a2JdNtFqB-C38ga_06BHvw&utm_campaign=yelp_api_v3&utm_medium=api_v3_business_search&utm_source=a2JdNtFqB-C38ga_06BHvw", "review_count": 21, "categories": [{"alias": "seafood", "title": "Seafood"}, {"alias": "hotdogs", "title": "Fast Food"}], "rating": 1.5, "coordinates": {"latitude": 39.048671, "longitude": -94.446886}, "transactions": [], "price": "$", "location": {"address1": "11211 E 40th Hwy", "address2": "", "address3": "", "city": "Independence", "zip_code": "64055", "country": "US", "state": "MO", "display_address": ["11211 E 40th Hwy", "Independence, MO 64055"]}, "phone": "+18163589733", "display_phone": "(816) 358-9733", "distance": 2871.219216497781}, {"id": "x5ZHZRhxZPB4rTuygP43VA", "alias": "wendys-independence-4", "name": "Wendy's", "image_url": "https://s3-media1.fl.yelpcdn.com/bphoto/6StKHHFMQR3qZgU95VCz9g/o.jpg", "is_closed": false, "url": "https://www.yelp.com/biz/wendys-independence-4?adjust_creative=a2JdNtFqB-C38ga_06BHvw&utm_campaign=yelp_api_v3&utm_medium=api_v3_business_search&utm_source=a2JdNtFqB-C38ga_06BHvw", "review_count": 9, "categories": [{"alias": "burgers", "title": "Burgers"}, {"alias": "hotdogs", "title": "Fast Food"}], "rating": 2.0, "coordinates": {"latitude": 39.06125, "longitude": -94.47286}, "transactions": ["delivery"], "price": "$", "location": {"address1": "9022 East 40 Highway", "address2": null, "address3": null, "city": "Independence", "zip_code": "64055", "country": "US", "state": "MO", "display_address": ["9022 East 40 Highway", "Independence, MO 64055"]}, "phone": "+18169231966", "display_phone": "(816) 923-1966", "distance": 1263.7418716184663}, {"id": "vUlgnwfZB5BkMIA2uPnEag", "alias": "subway-kansas-city-109", "name": "Subway", "image_url": "https://s3-media1.fl.yelpcdn.com/bphoto/hF3nZloYnGg9MKqD42kcog/o.jpg", "is_closed": false, "url": "https://www.yelp.com/biz/subway-kansas-city-109?adjust_creative=a2JdNtFqB-C38ga_06BHvw&utm_campaign=yelp_api_v3&utm_medium=api_v3_business_search&utm_source=a2JdNtFqB-C38ga_06BHvw", "review_count": 3, "categories": [{"alias": "sandwiches", "title": "Sandwiches"}], "rating": 2.5, "coordinates": {"latitude": 39.0480069635124, "longitude": -94.4750380343933}, "transactions": ["pickup", "delivery"], "price": "$", "location": {"address1": "4113 Blue Rdg", "address2": "", "address3": "", "city": "Kansas City", "zip_code": "64133", "country": "US", "state": "MO", "display_address": ["4113 Blue Rdg", "Kansas City, MO 64133"]}, "phone": "+18169212000", "display_phone": "(816) 921-2000", "distance": 542.5521912859144}, {"id": "PGpMKRLxfHSzpHFVxOolUg", "alias": "churchs-chicken-kansas-city-7", "name": "Church's Chicken", "image_url": "https://s3-media3.fl.yelpcdn.com/bphoto/U6SF0eM02TeBfl8MjcuyHQ/o.jpg", "is_closed": false, "url": "https://www.yelp.com/biz/churchs-chicken-kansas-city-7?adjust_creative=a2JdNtFqB-C38ga_06BHvw&utm_campaign=yelp_api_v3&utm_medium=api_v3_business_search&utm_source=a2JdNtFqB-C38ga_06BHvw", "review_count": 6, "categories": [{"alias": "chicken_wings", "title": "Chicken Wings"}, {"alias": "hotdogs", "title": "Fast Food"}], "rating": 2.0, "coordinates": {"latitude": 39.031488, "longitude": -94.501847}, "transactions": ["pickup", "delivery"], "location": {"address1": "7200 Eastwood Trafficway", "address2": "", "address3": "", "city": "Kansas City", "zip_code": "64129", "country": "US", "state": "MO", "display_address": ["7200 Eastwood Trafficway", "Kansas City, MO 64129"]}, "phone": "+18169233352", "display_phone": "(816) 923-3352", "distance": 2875.2941197836453}, {"id": "T6XMHtQjAjMOCPcAAsIcmw", "alias": "kingfish-soulfood-bistro-independence", "name": "Kingfish Soulfood Bistro", "image_url": "", "is_closed": false, "url": "https://www.yelp.com/biz/kingfish-soulfood-bistro-independence?adjust_creative=a2JdNtFqB-C38ga_06BHvw&utm_campaign=yelp_api_v3&utm_medium=api_v3_business_search&utm_source=a2JdNtFqB-C38ga_06BHvw", "review_count": 2, "categories": [{"alias": "soulfood", "title": "Soul Food"}], "rating": 3.0, "coordinates": {"latitude": 39.05952, "longitude": -94.47057}, "transactions": [], "location": {"address1": "9100 E US Hwy 40", "address2": null, "address3": "", "city": "Independence", "zip_code": "64055", "country": "US", "state": "MO", "display_address": ["9100 E US Hwy 40", "Independence, MO 64055"]}, "phone": "+13176836638", "display_phone": "(317) 683-6638", "distance": 1246.205541534286}, {"id": "MI1GTALmPtSWvNPmX7qMBw", "alias": "taco-bell-kansas-city-15", "name": "Taco Bell", "image_url": "https://s3-media2.fl.yelpcdn.com/bphoto/xP4UCqmEoTXjFucGhN1YeA/o.jpg", "is_closed": false, "url": "https://www.yelp.com/biz/taco-bell-kansas-city-15?adjust_creative=a2JdNtFqB-C38ga_06BHvw&utm_campaign=yelp_api_v3&utm_medium=api_v3_business_search&utm_source=a2JdNtFqB-C38ga_06BHvw", "review_count": 11, "categories": [{"alias": "hotdogs", "title": "Fast Food"}, {"alias": "mexican", "title": "Mexican"}], "rating": 1.5, "coordinates": {"latitude": 39.050693, "longitude": -94.47538}, "transactions": ["delivery"], "price": "$", "location": {"address1": "4017 Blue Ridge Cut-Off", "address2": "", "address3": "", "city": "Kansas City", "zip_code": "64133", "country": "US", "state": "MO", "display_address": ["4017 Blue Ridge Cut-Off", "Kansas City, MO 64133"]}, "phone": "+18169240151", "display_phone": "(816) 924-0151", "distance": 400.40618330424945}, {"id": "iGrYAwxzBkUXrT2sSpSiqQ", "alias": "pizza-hut-kansas-city-83", "name": "Pizza Hut", "image_url": "https://s3-media2.fl.yelpcdn.com/bphoto/i-tvkyo_EIkvmQbL4YfVZw/o.jpg", "is_closed": false, "url": "https://www.yelp.com/biz/pizza-hut-kansas-city-83?adjust_creative=a2JdNtFqB-C38ga_06BHvw&utm_campaign=yelp_api_v3&utm_medium=api_v3_business_search&utm_source=a2JdNtFqB-C38ga_06BHvw", "review_count": 8, "categories": [{"alias": "pizza", "title": "Pizza"}, {"alias": "italian", "title": "Italian"}, {"alias": "chicken_wings", "title": "Chicken Wings"}], "rating": 1.5, "coordinates": {"latitude": 39.031928, "longitude": -94.503663}, "transactions": [], "price": "$", "location": {"address1": "5111 Ararat Dr", "address2": "", "address3": "", "city": "Kansas City", "zip_code": "64129", "country": "US", "state": "MO", "display_address": ["5111 Ararat Dr", "Kansas City, MO 64129"]}, "phone": "+18169214001", "display_phone": "(816) 921-4001", "distance": 2943.3741629551732}], "absolute total": 37, "total": 37}