{"league": "MLB", "team": "Milwaukee Brewers", "stadium": "American Family Field", "stadium latitude": 43.028333, "stadium longitude": -87.971111, "radius": "3000 meters", "city": "Milwaukee", "state": "Wisconsin", "businesses": [{"id": "2gsMqFEpjfJemtcMLyvqqg", "alias": "story-hill-bkc-milwaukee", "name": "Story Hill BKC", "image_url": "https://s3-media2.fl.yelpcdn.com/bphoto/xopMAZ75azcZxW6_TEYvDw/o.jpg", "is_closed": false, "url": "https://www.yelp.com/biz/story-hill-bkc-milwaukee?adjust_creative=a2JdNtFqB-C38ga_06BHvw&utm_campaign=yelp_api_v3&utm_medium=api_v3_business_search&utm_source=a2JdNtFqB-C38ga_06BHvw", "review_count": 633, "categories": [{"alias": "newamerican", "title": "American (New)"}, {"alias": "beer_and_wine", "title": "Beer, Wine & Spirits"}, {"alias": "wine_bars", "title": "Wine Bars"}], "rating": 4.5, "coordinates": {"latitude": 43.0368978590487, "longitude": -87.9778010002006}, "transactions": ["delivery", "restaurant_reservation"], "price": "$$", "location": {"address1": "5100 W Bluemound Rd", "address2": "", "address3": "", "city": "Milwaukee", "zip_code": "53208", "country": "US", "state": "WI", "display_address": ["5100 W Bluemound Rd", "Milwaukee, WI 53208"]}, "phone": "+14145394424", "display_phone": "(414) 539-4424", "distance": 1096.6675034012871}, {"id": "jKV8bxDv9VH2GvAnh5YRbw", "alias": "spicy-tuna-west-milwaukee-2", "name": "Spicy Tuna", "image_url": "https://s3-media3.fl.yelpcdn.com/bphoto/EJXxq53FB9pGV1c-lOGhbQ/o.jpg", "is_closed": false, "url": "https://www.yelp.com/biz/spicy-tuna-west-milwaukee-2?adjust_creative=a2JdNtFqB-C38ga_06BHvw&utm_campaign=yelp_api_v3&utm_medium=api_v3_business_search&utm_source=a2JdNtFqB-C38ga_06BHvw", "review_count": 117, "categories": [{"alias": "sushi", "title": "Sushi Bars"}, {"alias": "poke", "title": "Poke"}, {"alias": "ramen", "title": "Ramen"}], "rating": 5.0, "coordinates": {"latitude": 43.01971917, "longitude": -87.97430533}, "transactions": ["delivery", "pickup"], "price": "$$", "location": {"address1": "4823 W National Ave", "address2": null, "address3": "", "city": "West Milwaukee", "zip_code": "53214", "country": "US", "state": "WI", "display_address": ["4823 W National Ave", "West Milwaukee, WI 53214"]}, "phone": "+14146714823", "display_phone": "(414) 671-4823", "distance": 997.8935595790363}, {"id": "GaKN-sw76XuV27wPSThjCA", "alias": "west-allis-cheese-and-sausage-shoppe-west-allis", "name": "West Allis Cheese & Sausage Shoppe", "image_url": "https://s3-media2.fl.yelpcdn.com/bphoto/gcDMZJDZbiVDuOzgu2phhg/o.jpg", "is_closed": false, "url": "https://www.yelp.com/biz/west-allis-cheese-and-sausage-shoppe-west-allis?adjust_creative=a2JdNtFqB-C38ga_06BHvw&utm_campaign=yelp_api_v3&utm_medium=api_v3_business_search&utm_source=a2JdNtFqB-C38ga_06BHvw", "review_count": 227, "categories": [{"alias": "cheese", "title": "Cheese Shops"}, {"alias": "breakfast_brunch", "title": "Breakfast & Brunch"}, {"alias": "desserts", "title": "Desserts"}], "rating": 4.5, "coordinates": {"latitude": 43.0064981, "longitude": -87.9984119}, "transactions": ["delivery"], "price": "$$", "location": {"address1": "6832 W Becher St", "address2": "", "address3": "", "city": "West Allis", "zip_code": "53219", "country": "US", "state": "WI", "display_address": ["6832 W Becher St", "West Allis, WI 53219"]}, "phone": "+14145434230", "display_phone": "(414) 543-4230", "distance": 3319.1304689338626}, {"id": "dEXd35_586er9sk5g10hIQ", "alias": "tavos-signature-cuisine-milwaukee-4", "name": "Tavo's Signature Cuisine", "image_url": "https://s3-media3.fl.yelpcdn.com/bphoto/0UViCyX7_cD6whHkUo7rXA/o.jpg", "is_closed": false, "url": "https://www.yelp.com/biz/tavos-signature-cuisine-milwaukee-4?adjust_creative=a2JdNtFqB-C38ga_06BHvw&utm_campaign=yelp_api_v3&utm_medium=api_v3_business_search&utm_source=a2JdNtFqB-C38ga_06BHvw", "review_count": 90, "categories": [{"alias": "newmexican", "title": "New Mexican Cuisine"}, {"alias": "latin", "title": "Latin American"}], "rating": 4.5, "coordinates": {"latitude": 43.03691, "longitude": -87.98507}, "transactions": ["delivery"], "price": "$$", "location": {"address1": "5814 W Bluemound Rd", "address2": "", "address3": null, "city": "Milwaukee", "zip_code": "53213", "country": "US", "state": "WI", "display_address": ["5814 W Bluemound Rd", "Milwaukee, WI 53213"]}, "phone": "+14142398888", "display_phone": "(414) 239-8888", "distance": 1471.4255573104517}, {"id": "z2XcXJD9K_d_bMzY_NEOFw", "alias": "mad-rooster-cafe-west-milwaukee", "name": "Mad Rooster Cafe", "image_url": "https://s3-media3.fl.yelpcdn.com/bphoto/Hg8RfwYnH31BHa5ZIG_WrQ/o.jpg", "is_closed": false, "url": "https://www.yelp.com/biz/mad-rooster-cafe-west-milwaukee?adjust_creative=a2JdNtFqB-C38ga_06BHvw&utm_campaign=yelp_api_v3&utm_medium=api_v3_business_search&utm_source=a2JdNtFqB-C38ga_06BHvw", "review_count": 1110, "categories": [{"alias": "cafes", "title": "Cafes"}, {"alias": "breakfast_brunch", "title": "Breakfast & Brunch"}], "rating": 4.5, "coordinates": {"latitude": 43.016344, "longitude": -87.968954}, "transactions": ["delivery", "pickup"], "price": "$$", "location": {"address1": "4401 W Greenfield Ave", "address2": "", "address3": "", "city": "West Milwaukee", "zip_code": "53214", "country": "US", "state": "WI", "display_address": ["4401 W Greenfield Ave", "West Milwaukee, WI 53214"]}, "phone": "+14142319120", "display_phone": "(414) 231-9120", "distance": 1344.5972086898314}, {"id": "pz1thL9deYZ6wLRifH600w", "alias": "amaranth-bakery-and-cafe-milwaukee", "name": "Amaranth Bakery & Cafe", "image_url": "https://s3-media2.fl.yelpcdn.com/bphoto/hH1f_AWGfUjQ9boipRPFLA/o.jpg", "is_closed": false, "url": "https://www.yelp.com/biz/amaranth-bakery-and-cafe-milwaukee?adjust_creative=a2JdNtFqB-C38ga_06BHvw&utm_campaign=yelp_api_v3&utm_medium=api_v3_business_search&utm_source=a2JdNtFqB-C38ga_06BHvw", "review_count": 69, "categories": [{"alias": "bakeries", "title": "Bakeries"}, {"alias": "soup", "title": "Soup"}, {"alias": "cafes", "title": "Cafes"}], "rating": 5.0, "coordinates": {"latitude": 43.05416, "longitude": -87.95603}, "transactions": [], "price": "$", "location": {"address1": "3329 W Lisbon Ave", "address2": null, "address3": null, "city": "Milwaukee", "zip_code": "53208", "country": "US", "state": "WI", "display_address": ["3329 W Lisbon Ave", "Milwaukee, WI 53208"]}, "phone": "+14149340587", "display_phone": "(414) 934-0587", "distance": 3142.4979198529854}, {"id": "tnf6a9ywrnwkV6cv5SrWnA", "alias": "oscars-pub-and-grill-milwaukee", "name": "Oscar's Pub & Grill", "image_url": "https://s3-media1.fl.yelpcdn.com/bphoto/BaLIysGslti7yBiz70gzIQ/o.jpg", "is_closed": false, "url": "https://www.yelp.com/biz/oscars-pub-and-grill-milwaukee?adjust_creative=a2JdNtFqB-C38ga_06BHvw&utm_campaign=yelp_api_v3&utm_medium=api_v3_business_search&utm_source=a2JdNtFqB-C38ga_06BHvw", "review_count": 728, "categories": [{"alias": "newamerican", "title": "American (New)"}, {"alias": "pubs", "title": "Pubs"}, {"alias": "burgers", "title": "Burgers"}], "rating": 4.5, "coordinates": {"latitude": 43.02456, "longitude": -87.9348}, "transactions": ["delivery"], "price": "$$", "location": {"address1": "1712 W Pierce St", "address2": "", "address3": "", "city": "Milwaukee", "zip_code": "53204", "country": "US", "state": "WI", "display_address": ["1712 W Pierce St", "Milwaukee, WI 53204"]}, "phone": "+14148101820", "display_phone": "(414) 810-1820", "distance": 2981.451912994515}, {"id": "4NI-tFOdCGjXIvnmFxAWBg", "alias": "double-bs-bbq-west-allis", "name": "Double B's BBQ", "image_url": "https://s3-media3.fl.yelpcdn.com/bphoto/y03mUUdNhugNefGUpGkRfg/o.jpg", "is_closed": false, "url": "https://www.yelp.com/biz/double-bs-bbq-west-allis?adjust_creative=a2JdNtFqB-C38ga_06BHvw&utm_campaign=yelp_api_v3&utm_medium=api_v3_business_search&utm_source=a2JdNtFqB-C38ga_06BHvw", "review_count": 407, "categories": [{"alias": "bbq", "title": "Barbeque"}, {"alias": "burgers", "title": "Burgers"}], "rating": 4.5, "coordinates": {"latitude": 43.0169, "longitude": -88.00531}, "transactions": ["delivery", "pickup"], "price": "$$", "location": {"address1": "7420 W Greenfield Ave", "address2": "", "address3": "", "city": "West Allis", "zip_code": "53214", "country": "US", "state": "WI", "display_address": ["7420 W Greenfield Ave", "West Allis, WI 53214"]}, "phone": "+14142579150", "display_phone": "(414) 257-9150", "distance": 3061.3948347696437}, {"id": "uU8eveRexpJBijVftMoiSg", "alias": "le-reve-patisserie-and-café-wauwatosa", "name": "Le Reve Patisserie & Café", "image_url": "https://s3-media2.fl.yelpcdn.com/bphoto/0aMEAZiXA2Z4zkctuDt9Nw/o.jpg", "is_closed": false, "url": "https://www.yelp.com/biz/le-reve-patisserie-and-caf%C3%A9-wauwatosa?adjust_creative=a2JdNtFqB-C38ga_06BHvw&utm_campaign=yelp_api_v3&utm_medium=api_v3_business_search&utm_source=a2JdNtFqB-C38ga_06BHvw", "review_count": 491, "categories": [{"alias": "bakeries", "title": "Bakeries"}, {"alias": "french", "title": "French"}, {"alias": "breakfast_brunch", "title": "Breakfast & Brunch"}], "rating": 4.5, "coordinates": {"latitude": 43.04985, "longitude": -88.00784}, "transactions": ["delivery"], "price": "$$", "location": {"address1": "7610 Harwood Ave", "address2": "", "address3": "", "city": "Wauwatosa", "zip_code": "53213", "country": "US", "state": "WI", "display_address": ["7610 Harwood Ave", "Wauwatosa, WI 53213"]}, "phone": "+14147783333", "display_phone": "(414) 778-3333", "distance": 3823.3885402841797}, {"id": "poMcdF7PM-EmOdm327qsgA", "alias": "maxies-milwaukee", "name": "Maxie's", "image_url": "https://s3-media2.fl.yelpcdn.com/bphoto/nl7nxMiyeo6rATLjc-eeNw/o.jpg", "is_closed": false, "url": "https://www.yelp.com/biz/maxies-milwaukee?adjust_creative=a2JdNtFqB-C38ga_06BHvw&utm_campaign=yelp_api_v3&utm_medium=api_v3_business_search&utm_source=a2JdNtFqB-C38ga_06BHvw", "review_count": 750, "categories": [{"alias": "southern", "title": "Southern"}, {"alias": "bbq", "title": "Barbeque"}, {"alias": "seafood", "title": "Seafood"}], "rating": 4.0, "coordinates": {"latitude": 43.03162, "longitude": -87.99712}, "transactions": ["delivery", "restaurant_reservation"], "price": "$$", "location": {"address1": "6732 W Fairview Ave", "address2": "", "address3": "", "city": "Milwaukee", "zip_code": "53213", "country": "US", "state": "WI", "display_address": ["6732 W Fairview Ave", "Milwaukee, WI 53213"]}, "phone": "+14142923969", "display_phone": "(414) 292-3969", "distance": 2154.3919170373715}, {"id": "5zvh9K8MEEa4coGSPnB0lg", "alias": "al-pastor-west-allis", "name": "Al Pastor", "image_url": "https://s3-media3.fl.yelpcdn.com/bphoto/CMwXz9bjnMAtlExGR6oicA/o.jpg", "is_closed": false, "url": "https://www.yelp.com/biz/al-pastor-west-allis?adjust_creative=a2JdNtFqB-C38ga_06BHvw&utm_campaign=yelp_api_v3&utm_medium=api_v3_business_search&utm_source=a2JdNtFqB-C38ga_06BHvw", "review_count": 134, "categories": [{"alias": "mexican", "title": "Mexican"}, {"alias": "bars", "title": "Bars"}], "rating": 4.5, "coordinates": {"latitude": 43.012062, "longitude": -87.994213}, "transactions": ["delivery", "pickup"], "price": "$", "location": {"address1": "6533 W Mitchell St", "address2": "", "address3": null, "city": "West Allis", "zip_code": "53219", "country": "US", "state": "WI", "display_address": ["6533 W Mitchell St", "West Allis, WI 53219"]}, "phone": "+14142105714", "display_phone": "(414) 210-5714", "distance": 2611.671432622567}, {"id": "Ra3T_WEif9vdwCLGUBdoGA", "alias": "wild-roots-west-allis", "name": "Wild Roots", "image_url": "https://s3-media2.fl.yelpcdn.com/bphoto/sRtcAwc4VKJE4_cWDIJ9ww/o.jpg", "is_closed": false, "url": "https://www.yelp.com/biz/wild-roots-west-allis?adjust_creative=a2JdNtFqB-C38ga_06BHvw&utm_campaign=yelp_api_v3&utm_medium=api_v3_business_search&utm_source=a2JdNtFqB-C38ga_06BHvw", "review_count": 71, "categories": [{"alias": "breakfast_brunch", "title": "Breakfast & Brunch"}, {"alias": "newamerican", "title": "American (New)"}, {"alias": "beer_and_wine", "title": "Beer, Wine & Spirits"}], "rating": 4.5, "coordinates": {"latitude": 43.00629, "longitude": -87.99829}, "transactions": ["delivery"], "price": "$$", "location": {"address1": "6807 W Becher St", "address2": "", "address3": null, "city": "West Allis", "zip_code": "53219", "country": "US", "state": "WI", "display_address": ["6807 W Becher St", "West Allis, WI 53219"]}, "phone": "+14142319081", "display_phone": "(414) 231-9081", "distance": 3296.3508485366015}, {"id": "bMC-YkJmcOUhj3YoBFj3Uw", "alias": "public-table-west-allis-2", "name": "Public Table", "image_url": "https://s3-media2.fl.yelpcdn.com/bphoto/4VFq0tAf2gqK875hUGqH9Q/o.jpg", "is_closed": false, "url": "https://www.yelp.com/biz/public-table-west-allis-2?adjust_creative=a2JdNtFqB-C38ga_06BHvw&utm_campaign=yelp_api_v3&utm_medium=api_v3_business_search&utm_source=a2JdNtFqB-C38ga_06BHvw", "review_count": 93, "categories": [{"alias": "newamerican", "title": "American (New)"}, {"alias": "bars", "title": "Bars"}, {"alias": "breakfast_brunch", "title": "Breakfast & Brunch"}], "rating": 4.5, "coordinates": {"latitude": 43.0175212776413, "longitude": -87.9859761893749}, "transactions": ["delivery"], "price": "$$", "location": {"address1": "5835 W National Ave", "address2": "", "address3": null, "city": "West Allis", "zip_code": "53214", "country": "US", "state": "WI", "display_address": ["5835 W National Ave", "West Allis, WI 53214"]}, "phone": "+14144882948", "display_phone": "(414) 488-2948", "distance": 1704.581279408307}, {"id": "PA2OogbjnMeZFwdumicSsA", "alias": "urban-joe-cafe-west-allis", "name": "Urban Joe Cafe", "image_url": "https://s3-media4.fl.yelpcdn.com/bphoto/viyKKJjsey2frx3vGJTxSQ/o.jpg", "is_closed": false, "url": "https://www.yelp.com/biz/urban-joe-cafe-west-allis?adjust_creative=a2JdNtFqB-C38ga_06BHvw&utm_campaign=yelp_api_v3&utm_medium=api_v3_business_search&utm_source=a2JdNtFqB-C38ga_06BHvw", "review_count": 118, "categories": [{"alias": "coffee", "title": "Coffee & Tea"}, {"alias": "salad", "title": "Salad"}, {"alias": "breakfast_brunch", "title": "Breakfast & Brunch"}], "rating": 4.5, "coordinates": {"latitude": 43.0167792, "longitude": -88.0007784}, "transactions": ["delivery"], "price": "$", "location": {"address1": "7028 W Greenfield Ave", "address2": "", "address3": "", "city": "West Allis", "zip_code": "53214", "country": "US", "state": "WI", "display_address": ["7028 W Greenfield Ave", "West Allis, WI 53214"]}, "phone": "+14142661500", "display_phone": "(414) 266-1500", "distance": 2732.5886463323154}, {"id": "8p9CYuiVLA70TtUxubq-GA", "alias": "kin-by-rice-n-roll-wauwatosa-2", "name": "Kin by Rice n Roll", "image_url": "https://s3-media2.fl.yelpcdn.com/bphoto/vIWrlmE8ea1EFrskOfRwPA/o.jpg", "is_closed": false, "url": "https://www.yelp.com/biz/kin-by-rice-n-roll-wauwatosa-2?adjust_creative=a2JdNtFqB-C38ga_06BHvw&utm_campaign=yelp_api_v3&utm_medium=api_v3_business_search&utm_source=a2JdNtFqB-C38ga_06BHvw", "review_count": 74, "categories": [{"alias": "sushi", "title": "Sushi Bars"}, {"alias": "asianfusion", "title": "Asian Fusion"}], "rating": 4.5, "coordinates": {"latitude": 43.0490401, "longitude": -88.0058033}, "transactions": ["delivery"], "price": "$$", "location": {"address1": "7484 W State St", "address2": "", "address3": null, "city": "Wauwatosa", "zip_code": "53213", "country": "US", "state": "WI", "display_address": ["7484 W State St", "Wauwatosa, WI 53213"]}, "phone": "+14145249056", "display_phone": "(414) 524-9056", "distance": 3650.7780477901993}, {"id": "rfGoG2ZHCKR0ClxPbQQWSA", "alias": "triciclo-peru-milwaukee", "name": "Triciclo Peru", "image_url": "https://s3-media1.fl.yelpcdn.com/bphoto/mTKguk5gX0YLfzTVuwCiIA/o.jpg", "is_closed": false, "url": "https://www.yelp.com/biz/triciclo-peru-milwaukee?adjust_creative=a2JdNtFqB-C38ga_06BHvw&utm_campaign=yelp_api_v3&utm_medium=api_v3_business_search&utm_source=a2JdNtFqB-C38ga_06BHvw", "review_count": 66, "categories": [{"alias": "peruvian", "title": "Peruvian"}], "rating": 4.5, "coordinates": {"latitude": 43.04848, "longitude": -87.9614}, "transactions": ["delivery"], "location": {"address1": "3801 W Vliet St", "address2": "", "address3": null, "city": "Milwaukee", "zip_code": "53208", "country": "US", "state": "WI", "display_address": ["3801 W Vliet St", "Milwaukee, WI 53208"]}, "phone": "+14142398388", "display_phone": "(414) 239-8388", "distance": 2397.79801626561}, {"id": "k3f1SMZB1ABIcmuRH-YNQA", "alias": "five-o-clock-steakhouse-milwaukee-2", "name": "Five O'Clock Steakhouse", "image_url": "https://s3-media1.fl.yelpcdn.com/bphoto/vN4Hb5Pe8nXSxOfI7zuZLQ/o.jpg", "is_closed": false, "url": "https://www.yelp.com/biz/five-o-clock-steakhouse-milwaukee-2?adjust_creative=a2JdNtFqB-C38ga_06BHvw&utm_campaign=yelp_api_v3&utm_medium=api_v3_business_search&utm_source=a2JdNtFqB-C38ga_06BHvw", "review_count": 422, "categories": [{"alias": "steak", "title": "Steakhouses"}, {"alias": "seafood", "title": "Seafood"}, {"alias": "venues", "title": "Venues & Event Spaces"}], "rating": 4.0, "coordinates": {"latitude": 43.04341, "longitude": -87.94316}, "transactions": ["delivery"], "price": "$$$", "location": {"address1": "2416 W State St", "address2": "", "address3": "", "city": "Milwaukee", "zip_code": "53233", "country": "US", "state": "WI", "display_address": ["2416 W State St", "Milwaukee, WI 53233"]}, "phone": "+14143423553", "display_phone": "(414) 342-3553", "distance": 2805.505893313365}, {"id": "5rC88Lcb7UIQnQ1mTNRtmw", "alias": "jackson-grill-milwaukee", "name": "Jackson Grill", "image_url": "https://s3-media1.fl.yelpcdn.com/bphoto/GfjIZVwg09LyOtA9Q5ul6w/o.jpg", "is_closed": false, "url": "https://www.yelp.com/biz/jackson-grill-milwaukee?adjust_creative=a2JdNtFqB-C38ga_06BHvw&utm_campaign=yelp_api_v3&utm_medium=api_v3_business_search&utm_source=a2JdNtFqB-C38ga_06BHvw", "review_count": 110, "categories": [{"alias": "steak", "title": "Steakhouses"}, {"alias": "salad", "title": "Salad"}, {"alias": "seafood", "title": "Seafood"}], "rating": 4.5, "coordinates": {"latitude": 43.0125999, "longitude": -87.9614868}, "transactions": ["delivery"], "price": "$$$", "location": {"address1": "3736 W Mitchell St", "address2": "", "address3": "", "city": "Milwaukee", "zip_code": "53215", "country": "US", "state": "WI", "display_address": ["3736 W Mitchell St", "Milwaukee, WI 53215"]}, "phone": "+14143847384", "display_phone": "(414) 384-7384", "distance": 1923.6359555046254}, {"id": "Qmye_6S3HbH7G1KOqNEwXg", "alias": "chilango-express-west-allis", "name": "Chilango Express", "image_url": "https://s3-media3.fl.yelpcdn.com/bphoto/hwK4_m4G0dmWgw8BCsiMog/o.jpg", "is_closed": false, "url": "https://www.yelp.com/biz/chilango-express-west-allis?adjust_creative=a2JdNtFqB-C38ga_06BHvw&utm_campaign=yelp_api_v3&utm_medium=api_v3_business_search&utm_source=a2JdNtFqB-C38ga_06BHvw", "review_count": 131, "categories": [{"alias": "mexican", "title": "Mexican"}], "rating": 4.5, "coordinates": {"latitude": 43.003019, "longitude": -88.001412}, "transactions": ["delivery"], "price": "$", "location": {"address1": "7030 W Lincoln Ave", "address2": "", "address3": "", "city": "West Allis", "zip_code": "53219", "country": "US", "state": "WI", "display_address": ["7030 W Lincoln Ave", "West Allis, WI 53219"]}, "phone": "+14145418201", "display_phone": "(414) 541-8201", "distance": 3740.588456234303}, {"id": "8WzEOIoDoVv2wyIUhm6MAQ", "alias": "golden-gyros-milwaukee", "name": "Golden Gyros", "image_url": "https://s3-media4.fl.yelpcdn.com/bphoto/jjQO56sZ2xpUQDSO785qhw/o.jpg", "is_closed": false, "url": "https://www.yelp.com/biz/golden-gyros-milwaukee?adjust_creative=a2JdNtFqB-C38ga_06BHvw&utm_campaign=yelp_api_v3&utm_medium=api_v3_business_search&utm_source=a2JdNtFqB-C38ga_06BHvw", "review_count": 138, "categories": [{"alias": "greek", "title": "Greek"}], "rating": 4.0, "coordinates": {"latitude": 43.00256, "longitude": -88.00364}, "transactions": ["delivery"], "price": "$", "location": {"address1": "7233 W Lincoln Ave", "address2": "", "address3": "", "city": "Milwaukee", "zip_code": "53219", "country": "US", "state": "WI", "display_address": ["7233 W Lincoln Ave", "Milwaukee, WI 53219"]}, "phone": "+14145417580", "display_phone": "(414) 541-7580", "distance": 3899.9816100313565}, {"id": "_nhRK23FgfZmTZeZ2TIlPQ", "alias": "orenda-cafe-milwaukee", "name": "Orenda Cafe", "image_url": "https://s3-media1.fl.yelpcdn.com/bphoto/01Wc-xOcXCmNb-4AMR6JBA/o.jpg", "is_closed": false, "url": "https://www.yelp.com/biz/orenda-cafe-milwaukee?adjust_creative=a2JdNtFqB-C38ga_06BHvw&utm_campaign=yelp_api_v3&utm_medium=api_v3_business_search&utm_source=a2JdNtFqB-C38ga_06BHvw", "review_count": 66, "categories": [{"alias": "breakfast_brunch", "title": "Breakfast & Brunch"}, {"alias": "coffee", "title": "Coffee & Tea"}, {"alias": "cocktailbars", "title": "Cocktail Bars"}], "rating": 4.5, "coordinates": {"latitude": 43.0219, "longitude": -87.95826}, "transactions": ["pickup", "delivery"], "price": "$$", "location": {"address1": "3514 W National Ave", "address2": null, "address3": "", "city": "Milwaukee", "zip_code": "53215", "country": "US", "state": "WI", "display_address": ["3514 W National Ave", "Milwaukee, WI 53215"]}, "phone": "+14142128573", "display_phone": "(414) 212-8573", "distance": 1276.281820261302}, {"id": "wmStGUk6Lqiqu2-maCGz5Q", "alias": "sobelmans-pub-and-grill-milwaukee", "name": "Sobelman's Pub & Grill", "image_url": "https://s3-media1.fl.yelpcdn.com/bphoto/28yTNK8ZrjIeFBXuTdNUvw/o.jpg", "is_closed": false, "url": "https://www.yelp.com/biz/sobelmans-pub-and-grill-milwaukee?adjust_creative=a2JdNtFqB-C38ga_06BHvw&utm_campaign=yelp_api_v3&utm_medium=api_v3_business_search&utm_source=a2JdNtFqB-C38ga_06BHvw", "review_count": 789, "categories": [{"alias": "pubs", "title": "Pubs"}, {"alias": "tradamerican", "title": "American (Traditional)"}, {"alias": "burgers", "title": "Burgers"}], "rating": 4.0, "coordinates": {"latitude": 43.034992, "longitude": -87.936775}, "transactions": ["delivery"], "price": "$$", "location": {"address1": "1900 W St Paul Ave", "address2": "", "address3": "", "city": "Milwaukee", "zip_code": "53233", "country": "US", "state": "WI", "display_address": ["1900 W St Paul Ave", "Milwaukee, WI 53233"]}, "phone": "+14149311919", "display_phone": "(414) 931-1919", "distance": 2875.3404262128497}, {"id": "DH7PASym3gRXSOxHdZ3k4A", "alias": "conways-smokin-bar-and-grill-milwaukee", "name": "Conway's Smokin' Bar & Grill", "image_url": "https://s3-media2.fl.yelpcdn.com/bphoto/Md66ZmwG-34EsnGhhpMnpA/o.jpg", "is_closed": false, "url": "https://www.yelp.com/biz/conways-smokin-bar-and-grill-milwaukee?adjust_creative=a2JdNtFqB-C38ga_06BHvw&utm_campaign=yelp_api_v3&utm_medium=api_v3_business_search&utm_source=a2JdNtFqB-C38ga_06BHvw", "review_count": 39, "categories": [{"alias": "bbq", "title": "Barbeque"}, {"alias": "divebars", "title": "Dive Bars"}], "rating": 4.5, "coordinates": {"latitude": 43.0401551, "longitude": -87.9401794}, "transactions": ["pickup", "delivery"], "price": "$", "location": {"address1": "2127 W Wells St", "address2": "", "address3": "", "city": "Milwaukee", "zip_code": "53233", "country": "US", "state": "WI", "display_address": ["2127 W Wells St", "Milwaukee, WI 53233"]}, "phone": "+14143441262", "display_phone": "(414) 344-1262", "distance": 2834.065516771399}, {"id": "upzBEOFSNvoe9e0OfSgg2g", "alias": "kegels-inn-west-allis", "name": "Kegel's Inn", "image_url": "https://s3-media3.fl.yelpcdn.com/bphoto/sx9rDzvRRz3CMoDshZyNPg/o.jpg", "is_closed": false, "url": "https://www.yelp.com/biz/kegels-inn-west-allis?adjust_creative=a2JdNtFqB-C38ga_06BHvw&utm_campaign=yelp_api_v3&utm_medium=api_v3_business_search&utm_source=a2JdNtFqB-C38ga_06BHvw", "review_count": 214, "categories": [{"alias": "german", "title": "German"}], "rating": 4.0, "coordinates": {"latitude": 43.0174339, "longitude": -87.986316}, "transactions": ["delivery"], "price": "$$", "location": {"address1": "5901 W National Ave", "address2": "", "address3": "", "city": "West Allis", "zip_code": "53214", "country": "US", "state": "WI", "display_address": ["5901 W National Ave", "West Allis, WI 53214"]}, "phone": "+14142579999", "display_phone": "(414) 257-9999", "distance": 1731.0636418421313}, {"id": "Sb_e93sf27Xl0Y8ULsGlZg", "alias": "neighborhood-draft-milwaukee", "name": "Neighborhood Draft", "image_url": "https://s3-media1.fl.yelpcdn.com/bphoto/dXD3su-cU6bBU-iHhGdwwA/o.jpg", "is_closed": false, "url": "https://www.yelp.com/biz/neighborhood-draft-milwaukee?adjust_creative=a2JdNtFqB-C38ga_06BHvw&utm_campaign=yelp_api_v3&utm_medium=api_v3_business_search&utm_source=a2JdNtFqB-C38ga_06BHvw", "review_count": 40, "categories": [{"alias": "newamerican", "title": "American (New)"}, {"alias": "pubs", "title": "Pubs"}], "rating": 4.5, "coordinates": {"latitude": 43.04966, "longitude": -87.98713}, "transactions": ["delivery"], "location": {"address1": "5921 W Vliet St", "address2": "", "address3": null, "city": "Milwaukee", "zip_code": "53208", "country": "US", "state": "WI", "display_address": ["5921 W Vliet St", "Milwaukee, WI 53208"]}, "phone": "+14148852028", "display_phone": "(414) 885-2028", "distance": 2717.4121981608964}, {"id": "ZdV50L1nghpH_wWD6lmZkg", "alias": "wyeast-pizza-milwaukee", "name": "Wy'east Pizza", "image_url": "https://s3-media1.fl.yelpcdn.com/bphoto/hxQ8ubBn6cam2eqdVfIDGQ/o.jpg", "is_closed": false, "url": "https://www.yelp.com/biz/wyeast-pizza-milwaukee?adjust_creative=a2JdNtFqB-C38ga_06BHvw&utm_campaign=yelp_api_v3&utm_medium=api_v3_business_search&utm_source=a2JdNtFqB-C38ga_06BHvw", "review_count": 87, "categories": [{"alias": "pizza", "title": "Pizza"}], "rating": 4.5, "coordinates": {"latitude": 43.04932, "longitude": -87.98343}, "transactions": ["delivery"], "price": "$$", "location": {"address1": "5601 W Vliet St", "address2": "", "address3": "", "city": "Milwaukee", "zip_code": "53208", "country": "US", "state": "WI", "display_address": ["5601 W Vliet St", "Milwaukee, WI 53208"]}, "phone": "+14149433278", "display_phone": "(414) 943-3278", "distance": 2538.306532181932}, {"id": "lBrM5Oj9qvbO12AIwjCs6A", "alias": "antigua-latin-inspired-kitchen-west-allis", "name": "Antigua Latin Inspired Kitchen", "image_url": "https://s3-media3.fl.yelpcdn.com/bphoto/bKhbcMbbtotQtGA8IUi26w/o.jpg", "is_closed": false, "url": "https://www.yelp.com/biz/antigua-latin-inspired-kitchen-west-allis?adjust_creative=a2JdNtFqB-C38ga_06BHvw&utm_campaign=yelp_api_v3&utm_medium=api_v3_business_search&utm_source=a2JdNtFqB-C38ga_06BHvw", "review_count": 194, "categories": [{"alias": "latin", "title": "Latin American"}, {"alias": "mexican", "title": "Mexican"}, {"alias": "spanish", "title": "Spanish"}], "rating": 4.0, "coordinates": {"latitude": 43.0164001, "longitude": -87.990203}, "transactions": ["pickup", "delivery"], "price": "$$", "location": {"address1": "6207 W National Ave", "address2": null, "address3": null, "city": "West Allis", "zip_code": "53219", "country": "US", "state": "WI", "display_address": ["6207 W National Ave", "West Allis, WI 53219"]}, "phone": "+14143215775", "display_phone": "(414) 321-5775", "distance": 2041.9243265117955}, {"id": "xXKdRjC19WMlgz3wJe2_Wg", "alias": "el-senorial-milwaukee-3", "name": "El Senorial", "image_url": "https://s3-media1.fl.yelpcdn.com/bphoto/BbTrV9KmLsVjcy6SiXXIVg/o.jpg", "is_closed": false, "url": "https://www.yelp.com/biz/el-senorial-milwaukee-3?adjust_creative=a2JdNtFqB-C38ga_06BHvw&utm_campaign=yelp_api_v3&utm_medium=api_v3_business_search&utm_source=a2JdNtFqB-C38ga_06BHvw", "review_count": 143, "categories": [{"alias": "mexican", "title": "Mexican"}], "rating": 4.0, "coordinates": {"latitude": 43.01009, "longitude": -87.95298}, "transactions": ["delivery"], "price": "$$", "location": {"address1": "1901 S 31st St", "address2": "", "address3": "", "city": "Milwaukee", "zip_code": "53215", "country": "US", "state": "WI", "display_address": ["1901 S 31st St", "Milwaukee, WI 53215"]}, "phone": "+14143859506", "display_phone": "(414) 385-9506", "distance": 2514.948881480197}, {"id": "5zoto1GpEiujgDOmGwKykw", "alias": "taqueria-buenavista-milwaukee", "name": "Taqueria Buenavista", "image_url": "https://s3-media1.fl.yelpcdn.com/bphoto/gVhpjYUINtU3MTSwAoITfQ/o.jpg", "is_closed": false, "url": "https://www.yelp.com/biz/taqueria-buenavista-milwaukee?adjust_creative=a2JdNtFqB-C38ga_06BHvw&utm_campaign=yelp_api_v3&utm_medium=api_v3_business_search&utm_source=a2JdNtFqB-C38ga_06BHvw", "review_count": 189, "categories": [{"alias": "mexican", "title": "Mexican"}], "rating": 4.0, "coordinates": {"latitude": 43.01042, "longitude": -87.98762}, "transactions": ["delivery"], "price": "$", "location": {"address1": "6000 W Burnham St", "address2": null, "address3": null, "city": "Milwaukee", "zip_code": "53219", "country": "US", "state": "WI", "display_address": ["6000 W Burnham St", "Milwaukee, WI 53219"]}, "phone": "+14145461197", "display_phone": "(414) 546-1197", "distance": 2407.142516234004}, {"id": "4NQgGqIiOKGfxfzWXHpxXg", "alias": "peanut-butter-and-jelly-deli-west-allis", "name": "Peanut Butter and Jelly Deli", "image_url": "https://s3-media2.fl.yelpcdn.com/bphoto/Nerpzi9smCpUnoIUJHLkMg/o.jpg", "is_closed": false, "url": "https://www.yelp.com/biz/peanut-butter-and-jelly-deli-west-allis?adjust_creative=a2JdNtFqB-C38ga_06BHvw&utm_campaign=yelp_api_v3&utm_medium=api_v3_business_search&utm_source=a2JdNtFqB-C38ga_06BHvw", "review_count": 56, "categories": [{"alias": "gourmet", "title": "Specialty Food"}, {"alias": "sandwiches", "title": "Sandwiches"}], "rating": 4.5, "coordinates": {"latitude": 43.01653, "longitude": -87.98957}, "transactions": ["pickup", "delivery"], "price": "$", "location": {"address1": "6125 W Greenfield Ave", "address2": "", "address3": null, "city": "West Allis", "zip_code": "53214", "country": "US", "state": "WI", "display_address": ["6125 W Greenfield Ave", "West Allis, WI 53214"]}, "phone": "+14148977987", "display_phone": "(414) 897-7987", "distance": 1991.319542414796}, {"id": "jaVzuyp6DLaE-EAw9r6wDQ", "alias": "ristorante-bartolotta-dal-1993-wauwatosa", "name": "Ristorante Bartolotta dal 1993", "image_url": "https://s3-media2.fl.yelpcdn.com/bphoto/Q4Y-fnyBytDcwVK6DZZ20w/o.jpg", "is_closed": false, "url": "https://www.yelp.com/biz/ristorante-bartolotta-dal-1993-wauwatosa?adjust_creative=a2JdNtFqB-C38ga_06BHvw&utm_campaign=yelp_api_v3&utm_medium=api_v3_business_search&utm_source=a2JdNtFqB-C38ga_06BHvw", "review_count": 168, "categories": [{"alias": "italian", "title": "Italian"}, {"alias": "wine_bars", "title": "Wine Bars"}], "rating": 4.0, "coordinates": {"latitude": 43.0494838550359, "longitude": -88.0077641524391}, "transactions": ["delivery"], "price": "$$$", "location": {"address1": "7616 W State St", "address2": "", "address3": "", "city": "Wauwatosa", "zip_code": "53213", "country": "US", "state": "WI", "display_address": ["7616 W State St", "Wauwatosa, WI 53213"]}, "phone": "+14147717910", "display_phone": "(414) 771-7910", "distance": 3795.364805311485}, {"id": "m8wQjC8h7ICH4r_OK20whA", "alias": "anodyne-coffee-roasting-co-wauwatosa-2", "name": "Anodyne Coffee Roasting Co", "image_url": "https://s3-media3.fl.yelpcdn.com/bphoto/3PkjfjxfxvxTwKhBLryrNA/o.jpg", "is_closed": false, "url": "https://www.yelp.com/biz/anodyne-coffee-roasting-co-wauwatosa-2?adjust_creative=a2JdNtFqB-C38ga_06BHvw&utm_campaign=yelp_api_v3&utm_medium=api_v3_business_search&utm_source=a2JdNtFqB-C38ga_06BHvw", "review_count": 27, "categories": [{"alias": "coffeeroasteries", "title": "Coffee Roasteries"}, {"alias": "cafes", "title": "Cafes"}], "rating": 4.5, "coordinates": {"latitude": 43.05028, "longitude": -88.0061799}, "transactions": ["delivery"], "price": "$", "location": {"address1": "7471 Harwood Ave", "address2": "", "address3": null, "city": "Wauwatosa", "zip_code": "53213", "country": "US", "state": "WI", "display_address": ["7471 Harwood Ave", "Wauwatosa, WI 53213"]}, "phone": "+14149300469", "display_phone": "(414) 930-0469", "distance": 3752.1239147062183}, {"id": "jWL-bP8ADT1X1yRjIP1b4w", "alias": "grebes-bakery-milwaukee", "name": "Grebe's Bakery", "image_url": "https://s3-media2.fl.yelpcdn.com/bphoto/yOPQSCrPaw4vmEjij7E1xg/o.jpg", "is_closed": false, "url": "https://www.yelp.com/biz/grebes-bakery-milwaukee?adjust_creative=a2JdNtFqB-C38ga_06BHvw&utm_campaign=yelp_api_v3&utm_medium=api_v3_business_search&utm_source=a2JdNtFqB-C38ga_06BHvw", "review_count": 93, "categories": [{"alias": "bakeries", "title": "Bakeries"}, {"alias": "breakfast_brunch", "title": "Breakfast & Brunch"}], "rating": 4.0, "coordinates": {"latitude": 43.003497, "longitude": -87.978242}, "transactions": ["delivery"], "price": "$", "location": {"address1": "5132 W Lincoln Ave", "address2": "", "address3": "", "city": "Milwaukee", "zip_code": "53219", "country": "US", "state": "WI", "display_address": ["5132 W Lincoln Ave", "Milwaukee, WI 53219"]}, "phone": "+14145437000", "display_phone": "(414) 543-7000", "distance": 2821.834020842846}, {"id": "ptN3Di3Etcn0hjhbOHWQjQ", "alias": "balistreris-italian-american-ristorante-wauwatosa", "name": "Balistreri's Italian American Ristorante", "image_url": "https://s3-media3.fl.yelpcdn.com/bphoto/38QgGtGqWf7-MMn2XgmPag/o.jpg", "is_closed": false, "url": "https://www.yelp.com/biz/balistreris-italian-american-ristorante-wauwatosa?adjust_creative=a2JdNtFqB-C38ga_06BHvw&utm_campaign=yelp_api_v3&utm_medium=api_v3_business_search&utm_source=a2JdNtFqB-C38ga_06BHvw", "review_count": 197, "categories": [{"alias": "pizza", "title": "Pizza"}, {"alias": "italian", "title": "Italian"}], "rating": 4.0, "coordinates": {"latitude": 43.04007, "longitude": -87.99693}, "transactions": ["delivery"], "price": "$$", "location": {"address1": "812 N 68th St", "address2": "", "address3": "", "city": "Wauwatosa", "zip_code": "53213", "country": "US", "state": "WI", "display_address": ["812 N 68th St", "Wauwatosa, WI 53213"]}, "phone": "+14144751414", "display_phone": "(414) 475-1414", "distance": 2490.8316074807694}, {"id": "WmUOV7kfmdjwEGNvjf1UiQ", "alias": "colectivo-coffee-east-tosa-wauwatosa", "name": "Colectivo Coffee East Tosa", "image_url": "https://s3-media1.fl.yelpcdn.com/bphoto/m-TCIK-RZhuldCGkZdOAHw/o.jpg", "is_closed": false, "url": "https://www.yelp.com/biz/colectivo-coffee-east-tosa-wauwatosa?adjust_creative=a2JdNtFqB-C38ga_06BHvw&utm_campaign=yelp_api_v3&utm_medium=api_v3_business_search&utm_source=a2JdNtFqB-C38ga_06BHvw", "review_count": 109, "categories": [{"alias": "coffee", "title": "Coffee & Tea"}, {"alias": "sandwiches", "title": "Sandwiches"}], "rating": 4.0, "coordinates": {"latitude": 43.039404, "longitude": -87.997017}, "transactions": ["delivery"], "price": "$", "location": {"address1": "6745 W Wells St", "address2": "", "address3": "", "city": "Wauwatosa", "zip_code": "53213", "country": "US", "state": "WI", "display_address": ["6745 W Wells St", "Wauwatosa, WI 53213"]}, "phone": "+14144534800", "display_phone": "(414) 453-4800", "distance": 2439.0452814806804}, {"id": "Mpzgu46pBRvgucEJbRP4fA", "alias": "charles-e-fromage-milwaukee-2", "name": "Charles E Fromage", "image_url": "https://s3-media4.fl.yelpcdn.com/bphoto/gEOM9_vFBQKhjh87c80vsw/o.jpg", "is_closed": false, "url": "https://www.yelp.com/biz/charles-e-fromage-milwaukee-2?adjust_creative=a2JdNtFqB-C38ga_06BHvw&utm_campaign=yelp_api_v3&utm_medium=api_v3_business_search&utm_source=a2JdNtFqB-C38ga_06BHvw", "review_count": 15, "categories": [{"alias": "beerbar", "title": "Beer Bar"}, {"alias": "wine_bars", "title": "Wine Bars"}, {"alias": "salad", "title": "Salad"}], "rating": 5.0, "coordinates": {"latitude": 43.0497235, "longitude": -87.98567983}, "transactions": ["delivery"], "location": {"address1": "5811 W Vliet St", "address2": null, "address3": "", "city": "Milwaukee", "zip_code": "53208", "country": "US", "state": "WI", "display_address": ["5811 W Vliet St", "Milwaukee, WI 53208"]}, "phone": "+14143051458", "display_phone": "(414) 305-1458", "distance": 2649.733990774298}, {"id": "9zGzoNCAFFM4VcMEr0uS6g", "alias": "siam-thai-west-milwaukee", "name": "Siam Thai", "image_url": "https://s3-media3.fl.yelpcdn.com/bphoto/fNFCRnG6_jM-8DeCD1aypg/o.jpg", "is_closed": false, "url": "https://www.yelp.com/biz/siam-thai-west-milwaukee?adjust_creative=a2JdNtFqB-C38ga_06BHvw&utm_campaign=yelp_api_v3&utm_medium=api_v3_business_search&utm_source=a2JdNtFqB-C38ga_06BHvw", "review_count": 65, "categories": [{"alias": "thai", "title": "Thai"}], "rating": 4.0, "coordinates": {"latitude": 43.0197688985516, "longitude": -87.9742575380287}, "transactions": ["pickup", "delivery"], "price": "$$", "location": {"address1": "4819 West National Ave", "address2": "", "address3": null, "city": "West Milwaukee", "zip_code": "53214", "country": "US", "state": "WI", "display_address": ["4819 West National Ave", "West Milwaukee, WI 53214"]}, "phone": "+14146727426", "display_phone": "(414) 672-7426", "distance": 986.0374807912182}, {"id": "7b78yFjHu1uJ8ekrJDw9ug", "alias": "oscars-winners-circle-milwaukee", "name": "Oscar's Winner's Circle", "image_url": "https://s3-media2.fl.yelpcdn.com/bphoto/XxKq5g-JsQrqiYpj8i9rCQ/o.jpg", "is_closed": false, "url": "https://www.yelp.com/biz/oscars-winners-circle-milwaukee?adjust_creative=a2JdNtFqB-C38ga_06BHvw&utm_campaign=yelp_api_v3&utm_medium=api_v3_business_search&utm_source=a2JdNtFqB-C38ga_06BHvw", "review_count": 72, "categories": [{"alias": "burgers", "title": "Burgers"}, {"alias": "tradamerican", "title": "American (Traditional)"}, {"alias": "mexican", "title": "Mexican"}], "rating": 4.0, "coordinates": {"latitude": 43.0104412893141, "longitude": -87.9614802013591}, "transactions": ["delivery"], "price": "$", "location": {"address1": "3800 W Burnham St", "address2": "", "address3": null, "city": "Milwaukee", "zip_code": "53215", "country": "US", "state": "WI", "display_address": ["3800 W Burnham St", "Milwaukee, WI 53215"]}, "phone": "+14142495701", "display_phone": "(414) 249-5701", "distance": 2137.987734747145}, {"id": "3aA-hfu8mqqCCl0_zuibCQ", "alias": "china-east-wauwatosa", "name": "China East", "image_url": "https://s3-media4.fl.yelpcdn.com/bphoto/XQ8CjaU7dKsl6ekgncGbMw/o.jpg", "is_closed": false, "url": "https://www.yelp.com/biz/china-east-wauwatosa?adjust_creative=a2JdNtFqB-C38ga_06BHvw&utm_campaign=yelp_api_v3&utm_medium=api_v3_business_search&utm_source=a2JdNtFqB-C38ga_06BHvw", "review_count": 65, "categories": [{"alias": "chinese", "title": "Chinese"}, {"alias": "seafood", "title": "Seafood"}], "rating": 4.0, "coordinates": {"latitude": 43.04673, "longitude": -87.99759}, "transactions": ["delivery"], "price": "$$", "location": {"address1": "6810 W State St", "address2": "", "address3": "", "city": "Wauwatosa", "zip_code": "53213", "country": "US", "state": "WI", "display_address": ["6810 W State St", "Wauwatosa, WI 53213"]}, "phone": "+14144569988", "display_phone": "(414) 456-9988", "distance": 2981.594358072064}, {"id": "5nMX_FkUUP5YnKvERDgE-g", "alias": "caradaro-club-milwaukee-2", "name": "Caradaro Club", "image_url": "https://s3-media1.fl.yelpcdn.com/bphoto/RGFXTSUf4lu-rMYoC7fqpA/o.jpg", "is_closed": false, "url": "https://www.yelp.com/biz/caradaro-club-milwaukee-2?adjust_creative=a2JdNtFqB-C38ga_06BHvw&utm_campaign=yelp_api_v3&utm_medium=api_v3_business_search&utm_source=a2JdNtFqB-C38ga_06BHvw", "review_count": 44, "categories": [{"alias": "pizza", "title": "Pizza"}], "rating": 4.5, "coordinates": {"latitude": 43.04915, "longitude": -87.97629}, "transactions": ["delivery"], "price": "$$", "location": {"address1": "5010 W Vliet St", "address2": "", "address3": "", "city": "Milwaukee", "zip_code": "53208", "country": "US", "state": "WI", "display_address": ["5010 W Vliet St", "Milwaukee, WI 53208"]}, "phone": "+14144767700", "display_phone": "(414) 476-7700", "distance": 2350.4998557655545}, {"id": "xfSlTpkCRnV8FEoEvUrzkQ", "alias": "bamboo-milwaukee", "name": "Bamboo", "image_url": "https://s3-media1.fl.yelpcdn.com/bphoto/-IpECJVvy6zW1M5OF_IRXg/o.jpg", "is_closed": false, "url": "https://www.yelp.com/biz/bamboo-milwaukee?adjust_creative=a2JdNtFqB-C38ga_06BHvw&utm_campaign=yelp_api_v3&utm_medium=api_v3_business_search&utm_source=a2JdNtFqB-C38ga_06BHvw", "review_count": 86, "categories": [{"alias": "laotian", "title": "Laotian"}, {"alias": "thai", "title": "Thai"}, {"alias": "chinese", "title": "Chinese"}], "rating": 4.0, "coordinates": {"latitude": 43.02134, "longitude": -87.95726}, "transactions": ["pickup", "delivery"], "price": "$$", "location": {"address1": "3427 W National Ave", "address2": "", "address3": "", "city": "Milwaukee", "zip_code": "53215", "country": "US", "state": "WI", "display_address": ["3427 W National Ave", "Milwaukee, WI 53215"]}, "phone": "+14143169023", "display_phone": "(414) 316-9023", "distance": 1362.4987519045592}, {"id": "q4zmV3tjJ0juagpUoLGV8A", "alias": "daddys-soul-food-grille-milwaukee", "name": "Daddys Soul Food Grille", "image_url": "https://s3-media4.fl.yelpcdn.com/bphoto/jREpuqDGstpPIyM3ThrH3w/o.jpg", "is_closed": false, "url": "https://www.yelp.com/biz/daddys-soul-food-grille-milwaukee?adjust_creative=a2JdNtFqB-C38ga_06BHvw&utm_campaign=yelp_api_v3&utm_medium=api_v3_business_search&utm_source=a2JdNtFqB-C38ga_06BHvw", "review_count": 72, "categories": [{"alias": "soulfood", "title": "Soul Food"}, {"alias": "tradamerican", "title": "American (Traditional)"}, {"alias": "southern", "title": "Southern"}], "rating": 4.0, "coordinates": {"latitude": 43.0390525717958, "longitude": -87.9471604063316}, "transactions": ["pickup", "delivery"], "price": "$$", "location": {"address1": "754 N 27th St", "address2": "", "address3": "", "city": "Milwaukee", "zip_code": "53208", "country": "US", "state": "WI", "display_address": ["754 N 27th St", "Milwaukee, WI 53208"]}, "phone": "+14144486165", "display_phone": "(414) 448-6165", "distance": 2282.5977645646385}, {"id": "04jqXru-05yXS4tsexv9eQ", "alias": "barbieres-italian-inn-milwaukee", "name": "Barbiere's Italian Inn", "image_url": "https://s3-media1.fl.yelpcdn.com/bphoto/pzv3iat6Mca2W73uaFL3vw/o.jpg", "is_closed": false, "url": "https://www.yelp.com/biz/barbieres-italian-inn-milwaukee?adjust_creative=a2JdNtFqB-C38ga_06BHvw&utm_campaign=yelp_api_v3&utm_medium=api_v3_business_search&utm_source=a2JdNtFqB-C38ga_06BHvw", "review_count": 111, "categories": [{"alias": "italian", "title": "Italian"}, {"alias": "pizza", "title": "Pizza"}], "rating": 4.0, "coordinates": {"latitude": 43.03664, "longitude": -87.98571}, "transactions": ["delivery"], "price": "$$", "location": {"address1": "5844 W Bluemound Rd", "address2": "", "address3": "", "city": "Milwaukee", "zip_code": "53213", "country": "US", "state": "WI", "display_address": ["5844 W Bluemound Rd", "Milwaukee, WI 53213"]}, "phone": "+14144533800", "display_phone": "(414) 453-3800", "distance": 1516.160060102205}, {"id": "iNGUnsNJd0V3KR3Qr5Lg4A", "alias": "vientiane-noodle-shop-milwaukee", "name": "Vientiane Noodle Shop", "image_url": "https://s3-media2.fl.yelpcdn.com/bphoto/oKku_VYWAytys0aLHEHGRw/o.jpg", "is_closed": false, "url": "https://www.yelp.com/biz/vientiane-noodle-shop-milwaukee?adjust_creative=a2JdNtFqB-C38ga_06BHvw&utm_campaign=yelp_api_v3&utm_medium=api_v3_business_search&utm_source=a2JdNtFqB-C38ga_06BHvw", "review_count": 92, "categories": [{"alias": "thai", "title": "Thai"}, {"alias": "noodles", "title": "Noodles"}, {"alias": "laotian", "title": "Laotian"}], "rating": 4.0, "coordinates": {"latitude": 43.02196, "longitude": -87.95726}, "transactions": ["delivery"], "price": "$", "location": {"address1": "3422 W National Ave", "address2": "", "address3": "", "city": "Milwaukee", "zip_code": "53215", "country": "US", "state": "WI", "display_address": ["3422 W National Ave", "Milwaukee, WI 53215"]}, "phone": "+14146728440", "display_phone": "(414) 672-8440", "distance": 1346.6914765469498}, {"id": "xmJRb0onQuuRLphBaGZrYg", "alias": "camino-west-allis", "name": "Camino", "image_url": "https://s3-media2.fl.yelpcdn.com/bphoto/-hbDTCHnnvDwG1SERUjFiQ/o.jpg", "is_closed": false, "url": "https://www.yelp.com/biz/camino-west-allis?adjust_creative=a2JdNtFqB-C38ga_06BHvw&utm_campaign=yelp_api_v3&utm_medium=api_v3_business_search&utm_source=a2JdNtFqB-C38ga_06BHvw", "review_count": 27, "categories": [{"alias": "tradamerican", "title": "American (Traditional)"}, {"alias": "beerbar", "title": "Beer Bar"}], "rating": 4.5, "coordinates": {"latitude": 43.0164, "longitude": -88.00283}, "transactions": ["delivery"], "location": {"address1": "7211 W Greenfield Ave", "address2": "", "address3": null, "city": "West Allis", "zip_code": "53214", "country": "US", "state": "WI", "display_address": ["7211 W Greenfield Ave", "West Allis, WI 53214"]}, "phone": "+14148104838", "display_phone": "(414) 810-4838", "distance": 2901.892463235671}, {"id": "LGeNi8PP4lmFnj5CRk_5rw", "alias": "leffs-lucky-town-wauwatosa", "name": "Leff's Lucky Town", "image_url": "https://s3-media3.fl.yelpcdn.com/bphoto/YAABDy0q6uAA5XUjN0fZzg/o.jpg", "is_closed": false, "url": "https://www.yelp.com/biz/leffs-lucky-town-wauwatosa?adjust_creative=a2JdNtFqB-C38ga_06BHvw&utm_campaign=yelp_api_v3&utm_medium=api_v3_business_search&utm_source=a2JdNtFqB-C38ga_06BHvw", "review_count": 166, "categories": [{"alias": "sportsbars", "title": "Sports Bars"}, {"alias": "tradamerican", "title": "American (Traditional)"}], "rating": 4.0, "coordinates": {"latitude": 43.04827, "longitude": -88.00248}, "transactions": ["delivery"], "price": "$", "location": {"address1": "7208 W State St", "address2": "", "address3": "", "city": "Wauwatosa", "zip_code": "53213", "country": "US", "state": "WI", "display_address": ["7208 W State St", "Wauwatosa, WI 53213"]}, "phone": "+14142589886", "display_phone": "(414) 258-9886", "distance": 3370.110882493721}, {"id": "h9NtiP1QHtC2Dmb9sgg96g", "alias": "tu-casa-mexican-restaurant-and-bar-milwaukee", "name": "Tu Casa Mexican Restaurant & Bar", "image_url": "https://s3-media1.fl.yelpcdn.com/bphoto/hFknH7lCEQv8Tnitoswb5A/o.jpg", "is_closed": false, "url": "https://www.yelp.com/biz/tu-casa-mexican-restaurant-and-bar-milwaukee?adjust_creative=a2JdNtFqB-C38ga_06BHvw&utm_campaign=yelp_api_v3&utm_medium=api_v3_business_search&utm_source=a2JdNtFqB-C38ga_06BHvw", "review_count": 65, "categories": [{"alias": "bars", "title": "Bars"}, {"alias": "mexican", "title": "Mexican"}, {"alias": "seafood", "title": "Seafood"}], "rating": 4.0, "coordinates": {"latitude": 43.00324, "longitude": -87.961}, "transactions": ["pickup", "delivery"], "price": "$$", "location": {"address1": "3710 W Lincoln Ave", "address2": "", "address3": "", "city": "Milwaukee", "zip_code": "53215", "country": "US", "state": "WI", "display_address": ["3710 W Lincoln Ave", "Milwaukee, WI 53215"]}, "phone": "+14143834666", "display_phone": "(414) 383-4666", "distance": 2908.147407868987}, {"id": "pYW8RYM1Gg8P-_IW9vEncg", "alias": "pizzeria-piccola-wauwatosa-3", "name": "Pizzeria Piccola", "image_url": "https://s3-media3.fl.yelpcdn.com/bphoto/5tBYFzSuYWdolw6Umg8TQA/o.jpg", "is_closed": false, "url": "https://www.yelp.com/biz/pizzeria-piccola-wauwatosa-3?adjust_creative=a2JdNtFqB-C38ga_06BHvw&utm_campaign=yelp_api_v3&utm_medium=api_v3_business_search&utm_source=a2JdNtFqB-C38ga_06BHvw", "review_count": 157, "categories": [{"alias": "pizza", "title": "Pizza"}], "rating": 3.5, "coordinates": {"latitude": 43.049377, "longitude": -88.0072645}, "transactions": ["pickup", "delivery"], "price": "$$", "location": {"address1": "7606 W State St", "address2": "", "address3": "", "city": "Wauwatosa", "zip_code": "53213", "country": "US", "state": "WI", "display_address": ["7606 W State St", "Wauwatosa, WI 53213"]}, "phone": "+14144430800", "display_phone": "(414) 443-0800", "distance": 3776.218384088225}, {"id": "6q5aFM2gbUFlT9nVjx7yBA", "alias": "4th-base-restaurant-west-milwaukee-4", "name": "4th Base Restaurant", "image_url": "https://s3-media3.fl.yelpcdn.com/bphoto/fsSwCiJ-vllrpul0AsvF_Q/o.jpg", "is_closed": false, "url": "https://www.yelp.com/biz/4th-base-restaurant-west-milwaukee-4?adjust_creative=a2JdNtFqB-C38ga_06BHvw&utm_campaign=yelp_api_v3&utm_medium=api_v3_business_search&utm_source=a2JdNtFqB-C38ga_06BHvw", "review_count": 150, "categories": [{"alias": "seafood", "title": "Seafood"}, {"alias": "steak", "title": "Steakhouses"}, {"alias": "sportsbars", "title": "Sports Bars"}], "rating": 3.5, "coordinates": {"latitude": 43.01896, "longitude": -87.97739}, "transactions": ["pickup", "delivery"], "price": "$$", "location": {"address1": "5117 W National Ave", "address2": "", "address3": "", "city": "West Milwaukee", "zip_code": "53214", "country": "US", "state": "WI", "display_address": ["5117 W National Ave", "West Milwaukee, WI 53214"]}, "phone": "+14146478509", "display_phone": "(414) 647-8509", "distance": 1148.2258210171726}, {"id": "L6eJ4RjQVJqN5HOX30WR8Q", "alias": "happy-tap-milwaukee", "name": "Happy Tap", "image_url": "https://s3-media3.fl.yelpcdn.com/bphoto/VbCWDBv3wf51AmXKogcQwQ/o.jpg", "is_closed": false, "url": "https://www.yelp.com/biz/happy-tap-milwaukee?adjust_creative=a2JdNtFqB-C38ga_06BHvw&utm_campaign=yelp_api_v3&utm_medium=api_v3_business_search&utm_source=a2JdNtFqB-C38ga_06BHvw", "review_count": 41, "categories": [{"alias": "bars", "title": "Bars"}, {"alias": "pizza", "title": "Pizza"}], "rating": 4.0, "coordinates": {"latitude": 43.00233, "longitude": -87.997634}, "transactions": ["delivery"], "price": "$", "location": {"address1": "6801 W Beloit Rd", "address2": "", "address3": "", "city": "Milwaukee", "zip_code": "53219", "country": "US", "state": "WI", "display_address": ["6801 W Beloit Rd", "Milwaukee, WI 53219"]}, "phone": "+14145413550", "display_phone": "(414) 541-3550", "distance": 3599.0264140022746}, {"id": "_XDPdJuJcGJVCkFjJAakrw", "alias": "gilles-frozen-custard-drive-in-milwaukee", "name": "Gilles Frozen Custard Drive-In", "image_url": "https://s3-media2.fl.yelpcdn.com/bphoto/MQRaQ4TJ-DntkEu-rRQxfA/o.jpg", "is_closed": false, "url": "https://www.yelp.com/biz/gilles-frozen-custard-drive-in-milwaukee?adjust_creative=a2JdNtFqB-C38ga_06BHvw&utm_campaign=yelp_api_v3&utm_medium=api_v3_business_search&utm_source=a2JdNtFqB-C38ga_06BHvw", "review_count": 143, "categories": [{"alias": "icecream", "title": "Ice Cream & Frozen Yogurt"}, {"alias": "burgers", "title": "Burgers"}, {"alias": "hotdogs", "title": "Fast Food"}], "rating": 3.5, "coordinates": {"latitude": 43.0352282, "longitude": -88.0062848}, "transactions": ["delivery"], "price": "$", "location": {"address1": "7515 W Bluemound Rd", "address2": "", "address3": "", "city": "Milwaukee", "zip_code": "53213", "country": "US", "state": "WI", "display_address": ["7515 W Bluemound Rd", "Milwaukee, WI 53213"]}, "phone": "+14144534875", "display_phone": "(414) 453-4875", "distance": 2972.6000985685578}, {"id": "2OOj2uGOanpeAoLaPVka3Q", "alias": "freds-frozen-custard-and-grill-milwaukee", "name": "Fred's Frozen Custard & Grill", "image_url": "https://s3-media1.fl.yelpcdn.com/bphoto/pssOKFNKrFi6aZDvBz1W_g/o.jpg", "is_closed": false, "url": "https://www.yelp.com/biz/freds-frozen-custard-and-grill-milwaukee?adjust_creative=a2JdNtFqB-C38ga_06BHvw&utm_campaign=yelp_api_v3&utm_medium=api_v3_business_search&utm_source=a2JdNtFqB-C38ga_06BHvw", "review_count": 36, "categories": [{"alias": "burgers", "title": "Burgers"}, {"alias": "hotdogs", "title": "Fast Food"}], "rating": 4.0, "coordinates": {"latitude": 43.0489998, "longitude": -87.9733505}, "transactions": ["delivery"], "price": "$", "location": {"address1": "4726 W Vliet St", "address2": "", "address3": "", "city": "Milwaukee", "zip_code": "53208", "country": "US", "state": "WI", "display_address": ["4726 W Vliet St", "Milwaukee, WI 53208"]}, "phone": "", "display_phone": "", "distance": 2302.1309802710703}, {"id": "WKkzIdpeueigZmJzhfeZDA", "alias": "milwaukee-steakhouse-milwaukee", "name": "Milwaukee Steakhouse", "image_url": "https://s3-media4.fl.yelpcdn.com/bphoto/CFz3_86kB3MT9zBxMLH6HA/o.jpg", "is_closed": false, "url": "https://www.yelp.com/biz/milwaukee-steakhouse-milwaukee?adjust_creative=a2JdNtFqB-C38ga_06BHvw&utm_campaign=yelp_api_v3&utm_medium=api_v3_business_search&utm_source=a2JdNtFqB-C38ga_06BHvw", "review_count": 79, "categories": [{"alias": "steak", "title": "Steakhouses"}], "rating": 4.0, "coordinates": {"latitude": 43.03677, "longitude": -87.98833}, "transactions": ["delivery"], "price": "$$$", "location": {"address1": "6024 W Bluemound Rd", "address2": "", "address3": "", "city": "Milwaukee", "zip_code": "53213", "country": "US", "state": "WI", "display_address": ["6024 W Bluemound Rd", "Milwaukee, WI 53213"]}, "phone": "+14143127891", "display_phone": "(414) 312-7891", "distance": 1683.4578913331966}, {"id": "fkqvbNJXns80dZVwJnYW5w", "alias": "la-caribeña-restaurant-milwaukee", "name": "La Caribeña Restaurant", "image_url": "https://s3-media1.fl.yelpcdn.com/bphoto/6TsaOTV4d1rPYqdFKHXKTQ/o.jpg", "is_closed": false, "url": "https://www.yelp.com/biz/la-caribe%C3%B1a-restaurant-milwaukee?adjust_creative=a2JdNtFqB-C38ga_06BHvw&utm_campaign=yelp_api_v3&utm_medium=api_v3_business_search&utm_source=a2JdNtFqB-C38ga_06BHvw", "review_count": 61, "categories": [{"alias": "latin", "title": "Latin American"}, {"alias": "dominican", "title": "Dominican"}, {"alias": "puertorican", "title": "Puerto Rican"}], "rating": 4.0, "coordinates": {"latitude": 43.01193, "longitude": -87.93669}, "transactions": [], "price": "$$", "location": {"address1": "1704 S Pearl St", "address2": "", "address3": "", "city": "Milwaukee", "zip_code": "53204", "country": "US", "state": "WI", "display_address": ["1704 S Pearl St", "Milwaukee, WI 53204"]}, "phone": "+14142398788", "display_phone": "(414) 239-8788", "distance": 3337.9588442704962}, {"id": "vXGZPf7rtGI23y122f0VvA", "alias": "j-and-bs-blue-ribbon-bar-and-grill-milwaukee", "name": "J&B's Blue Ribbon Bar and Grill", "image_url": "https://s3-media3.fl.yelpcdn.com/bphoto/7aLHNoTSATvNG7Z3xGVP-A/o.jpg", "is_closed": false, "url": "https://www.yelp.com/biz/j-and-bs-blue-ribbon-bar-and-grill-milwaukee?adjust_creative=a2JdNtFqB-C38ga_06BHvw&utm_campaign=yelp_api_v3&utm_medium=api_v3_business_search&utm_source=a2JdNtFqB-C38ga_06BHvw", "review_count": 44, "categories": [{"alias": "sportsbars", "title": "Sports Bars"}, {"alias": "tradamerican", "title": "American (Traditional)"}, {"alias": "venues", "title": "Venues & Event Spaces"}], "rating": 4.0, "coordinates": {"latitude": 43.0369699, "longitude": -87.9796999}, "transactions": ["delivery"], "price": "$", "location": {"address1": "5230 W Bluemound Rd", "address2": "", "address3": "", "city": "Milwaukee", "zip_code": "53214", "country": "US", "state": "WI", "display_address": ["5230 W Bluemound Rd", "Milwaukee, WI 53214"]}, "phone": "+14144431844", "display_phone": "(414) 443-1844", "distance": 1174.007582388647}, {"id": "ohmieJ3hZlLH2QBoOmiBOQ", "alias": "mckiernans-irish-pub-milwaukee-2", "name": "McKiernan's Irish Pub", "image_url": "https://s3-media3.fl.yelpcdn.com/bphoto/N8Mv2QLVxy1ftX2rOpoRRg/o.jpg", "is_closed": false, "url": "https://www.yelp.com/biz/mckiernans-irish-pub-milwaukee-2?adjust_creative=a2JdNtFqB-C38ga_06BHvw&utm_campaign=yelp_api_v3&utm_medium=api_v3_business_search&utm_source=a2JdNtFqB-C38ga_06BHvw", "review_count": 15, "categories": [{"alias": "irish_pubs", "title": "Irish Pub"}, {"alias": "irish", "title": "Irish"}], "rating": 4.5, "coordinates": {"latitude": 43.006984, "longitude": -87.960329}, "transactions": ["delivery"], "price": "$", "location": {"address1": "2066 S 37th St", "address2": null, "address3": null, "city": "Milwaukee", "zip_code": "53215", "country": "US", "state": "WI", "display_address": ["2066 S 37th St", "Milwaukee, WI 53215"]}, "phone": "+14142266761", "display_phone": "(414) 226-6761", "distance": 2530.5662095537823}, {"id": "prAkbereSyBJQe35KO2AGg", "alias": "bennos-milwaukee", "name": "Benno's", "image_url": "https://s3-media1.fl.yelpcdn.com/bphoto/GueoG7VXr8mTuEbDpM3FHA/o.jpg", "is_closed": false, "url": "https://www.yelp.com/biz/bennos-milwaukee?adjust_creative=a2JdNtFqB-C38ga_06BHvw&utm_campaign=yelp_api_v3&utm_medium=api_v3_business_search&utm_source=a2JdNtFqB-C38ga_06BHvw", "review_count": 73, "categories": [{"alias": "pubs", "title": "Pubs"}, {"alias": "tradamerican", "title": "American (Traditional)"}], "rating": 4.0, "coordinates": {"latitude": 43.0165617740417, "longitude": -88.0052467237833}, "transactions": ["delivery"], "price": "$$", "location": {"address1": "7413 W Greenfield Ave", "address2": "", "address3": "", "city": "Milwaukee", "zip_code": "53214", "country": "US", "state": "WI", "display_address": ["7413 W Greenfield Ave", "Milwaukee, WI 53214"]}, "phone": "+14144539094", "display_phone": "(414) 453-9094", "distance": 3068.1947328101023}, {"id": "jkpb1nlZThykna4nSsXnlg", "alias": "bari-pizzeria-west-allis-2", "name": "Bari Pizzeria", "image_url": "https://s3-media2.fl.yelpcdn.com/bphoto/Mro8x2F6o0hVFVOC4VoLkA/o.jpg", "is_closed": false, "url": "https://www.yelp.com/biz/bari-pizzeria-west-allis-2?adjust_creative=a2JdNtFqB-C38ga_06BHvw&utm_campaign=yelp_api_v3&utm_medium=api_v3_business_search&utm_source=a2JdNtFqB-C38ga_06BHvw", "review_count": 62, "categories": [{"alias": "pizza", "title": "Pizza"}, {"alias": "italian", "title": "Italian"}, {"alias": "sandwiches", "title": "Sandwiches"}], "rating": 4.0, "coordinates": {"latitude": 43.009989, "longitude": -87.986948}, "transactions": ["pickup", "delivery"], "price": "$$", "location": {"address1": "5919 W Burnham St", "address2": "", "address3": "", "city": "West Allis", "zip_code": "53219", "country": "US", "state": "WI", "display_address": ["5919 W Burnham St", "West Allis, WI 53219"]}, "phone": "+14143269957", "display_phone": "(414) 326-9957", "distance": 2399.739447384472}, {"id": "GcJJg61avZx3EKKSm5NpGQ", "alias": "mod-pizza-wauwatosa", "name": "MOD Pizza", "image_url": "https://s3-media1.fl.yelpcdn.com/bphoto/IALJlgUy4gJdgoZOfvCQVA/o.jpg", "is_closed": false, "url": "https://www.yelp.com/biz/mod-pizza-wauwatosa?adjust_creative=a2JdNtFqB-C38ga_06BHvw&utm_campaign=yelp_api_v3&utm_medium=api_v3_business_search&utm_source=a2JdNtFqB-C38ga_06BHvw", "review_count": 49, "categories": [{"alias": "hotdogs", "title": "Fast Food"}, {"alias": "pizza", "title": "Pizza"}], "rating": 4.0, "coordinates": {"latitude": 43.049103, "longitude": -88.005583}, "transactions": ["delivery"], "price": "$", "location": {"address1": "7470 W State St", "address2": null, "address3": null, "city": "Wauwatosa", "zip_code": "53213", "country": "US", "state": "WI", "display_address": ["7470 W State St", "Wauwatosa, WI 53213"]}, "phone": "+14142572577", "display_phone": "(414) 257-2577", "distance": 3630.808526299628}, {"id": "lzZU7mvaev8yV_EGtW0yVw", "alias": "balistreris-bluemound-inn-milwaukee", "name": "Balistreri's Bluemound Inn", "image_url": "https://s3-media4.fl.yelpcdn.com/bphoto/UJ469UZmUeSbymwM7w51UA/o.jpg", "is_closed": false, "url": "https://www.yelp.com/biz/balistreris-bluemound-inn-milwaukee?adjust_creative=a2JdNtFqB-C38ga_06BHvw&utm_campaign=yelp_api_v3&utm_medium=api_v3_business_search&utm_source=a2JdNtFqB-C38ga_06BHvw", "review_count": 133, "categories": [{"alias": "pizza", "title": "Pizza"}, {"alias": "italian", "title": "Italian"}], "rating": 3.5, "coordinates": {"latitude": 43.0358047485352, "longitude": -87.9933853149414}, "transactions": ["delivery"], "price": "$$", "location": {"address1": "6501 W Bluemound Rd", "address2": "", "address3": "", "city": "Milwaukee", "zip_code": "53213", "country": "US", "state": "WI", "display_address": ["6501 W Bluemound Rd", "Milwaukee, WI 53213"]}, "phone": "+14142589881", "display_phone": "(414) 258-9881", "distance": 2008.5891849336085}, {"id": "JxpjBLSGr3-xy2LE7-S_jg", "alias": "sazs-state-house-milwaukee-6", "name": "Saz's State House", "image_url": "https://s3-media3.fl.yelpcdn.com/bphoto/LC62ikD2VToUHAMo4u77Vg/o.jpg", "is_closed": false, "url": "https://www.yelp.com/biz/sazs-state-house-milwaukee-6?adjust_creative=a2JdNtFqB-C38ga_06BHvw&utm_campaign=yelp_api_v3&utm_medium=api_v3_business_search&utm_source=a2JdNtFqB-C38ga_06BHvw", "review_count": 194, "categories": [{"alias": "tradamerican", "title": "American (Traditional)"}, {"alias": "bbq", "title": "Barbeque"}, {"alias": "comfortfood", "title": "Comfort Food"}], "rating": 3.5, "coordinates": {"latitude": 43.04347, "longitude": -87.98274}, "transactions": ["delivery", "pickup"], "price": "$$", "location": {"address1": "5539 W State St", "address2": "", "address3": "", "city": "Milwaukee", "zip_code": "53208", "country": "US", "state": "WI", "display_address": ["5539 W State St", "Milwaukee, WI 53208"]}, "phone": "+14144532410", "display_phone": "(414) 453-2410", "distance": 1942.6655562340063}, {"id": "9AXIxFPoOzyMuZF6omXLyQ", "alias": "phans-garden-restaurant-milwaukee", "name": "Phan's Garden Restaurant", "image_url": "https://s3-media2.fl.yelpcdn.com/bphoto/bps273i1Qys97wsrXUCeCg/o.jpg", "is_closed": false, "url": "https://www.yelp.com/biz/phans-garden-restaurant-milwaukee?adjust_creative=a2JdNtFqB-C38ga_06BHvw&utm_campaign=yelp_api_v3&utm_medium=api_v3_business_search&utm_source=a2JdNtFqB-C38ga_06BHvw", "review_count": 75, "categories": [{"alias": "vietnamese", "title": "Vietnamese"}], "rating": 3.5, "coordinates": {"latitude": 43.0226746, "longitude": -87.9371719}, "transactions": ["delivery"], "price": "$$", "location": {"address1": "1923 W National Ave", "address2": "", "address3": "", "city": "Milwaukee", "zip_code": "53204", "country": "US", "state": "WI", "display_address": ["1923 W National Ave", "Milwaukee, WI 53204"]}, "phone": "+14143844522", "display_phone": "(414) 384-4522", "distance": 2820.2242143815974}, {"id": "PcOQorCZIqFzXmgAzFaneg", "alias": "the-fitz-milwaukee", "name": "The Fitz", "image_url": "https://s3-media2.fl.yelpcdn.com/bphoto/PcwrV6ewIjsXUET7_X8UlQ/o.jpg", "is_closed": false, "url": "https://www.yelp.com/biz/the-fitz-milwaukee?adjust_creative=a2JdNtFqB-C38ga_06BHvw&utm_campaign=yelp_api_v3&utm_medium=api_v3_business_search&utm_source=a2JdNtFqB-C38ga_06BHvw", "review_count": 31, "categories": [{"alias": "newamerican", "title": "American (New)"}, {"alias": "diners", "title": "Diners"}, {"alias": "breakfast_brunch", "title": "Breakfast & Brunch"}], "rating": 4.0, "coordinates": {"latitude": 43.03945, "longitude": -87.94224}, "transactions": ["delivery"], "price": "$$", "location": {"address1": "2308 W Wisconsin Ave", "address2": null, "address3": "", "city": "Milwaukee", "zip_code": "53233", "country": "US", "state": "WI", "display_address": ["2308 W Wisconsin Ave", "Milwaukee, WI 53233"]}, "phone": "+14143455015", "display_phone": "(414) 345-5015", "distance": 2663.1595590070924}, {"id": "y3gEGwFb93ICXArhqdt3mQ", "alias": "filippos-italian-restaurant-milwaukee", "name": "Filippo's Italian Restaurant", "image_url": "https://s3-media2.fl.yelpcdn.com/bphoto/lOIlkBfPYgObLLAi8zmgSA/o.jpg", "is_closed": false, "url": "https://www.yelp.com/biz/filippos-italian-restaurant-milwaukee?adjust_creative=a2JdNtFqB-C38ga_06BHvw&utm_campaign=yelp_api_v3&utm_medium=api_v3_business_search&utm_source=a2JdNtFqB-C38ga_06BHvw", "review_count": 87, "categories": [{"alias": "italian", "title": "Italian"}, {"alias": "pizza", "title": "Pizza"}, {"alias": "sandwiches", "title": "Sandwiches"}], "rating": 3.5, "coordinates": {"latitude": 43.002513885498, "longitude": -87.9995956420898}, "transactions": ["delivery"], "price": "$$", "location": {"address1": "6915 W Lincoln Ave", "address2": "", "address3": "", "city": "Milwaukee", "zip_code": "53219", "country": "US", "state": "WI", "display_address": ["6915 W Lincoln Ave", "Milwaukee, WI 53219"]}, "phone": "+14143214040", "display_phone": "(414) 321-4040", "distance": 3677.5107822335804}, {"id": "wV1Dqk1aoGHXezTof5W9Jw", "alias": "thai-bar-b-que-restaurant-milwaukee", "name": "Thai Bar-B-Que Restaurant", "image_url": "https://s3-media2.fl.yelpcdn.com/bphoto/isC8dhFrIfVCKK092MuuEg/o.jpg", "is_closed": false, "url": "https://www.yelp.com/biz/thai-bar-b-que-restaurant-milwaukee?adjust_creative=a2JdNtFqB-C38ga_06BHvw&utm_campaign=yelp_api_v3&utm_medium=api_v3_business_search&utm_source=a2JdNtFqB-C38ga_06BHvw", "review_count": 116, "categories": [{"alias": "thai", "title": "Thai"}], "rating": 3.5, "coordinates": {"latitude": 43.02127, "longitude": -87.95681}, "transactions": ["delivery", "pickup"], "price": "$$", "location": {"address1": "3417 W National Ave", "address2": "", "address3": "", "city": "Milwaukee", "zip_code": "53214", "country": "US", "state": "WI", "display_address": ["3417 W National Ave", "Milwaukee, WI 53214"]}, "phone": "+14146470812", "display_phone": "(414) 647-0812", "distance": 1384.0956453277106}, {"id": "mRmyiWqc0MjTyirhqc-nXQ", "alias": "cheng-wong-restaurant-milwaukee", "name": "Cheng Wong Restaurant", "image_url": "https://s3-media3.fl.yelpcdn.com/bphoto/aFu9U6yNwyCG0aN6D8HxJw/o.jpg", "is_closed": false, "url": "https://www.yelp.com/biz/cheng-wong-restaurant-milwaukee?adjust_creative=a2JdNtFqB-C38ga_06BHvw&utm_campaign=yelp_api_v3&utm_medium=api_v3_business_search&utm_source=a2JdNtFqB-C38ga_06BHvw", "review_count": 47, "categories": [{"alias": "chinese", "title": "Chinese"}], "rating": 4.0, "coordinates": {"latitude": 43.013631, "longitude": -87.96921}, "transactions": ["delivery"], "price": "$", "location": {"address1": "1631 Miller Park Way", "address2": null, "address3": null, "city": "Milwaukee", "zip_code": "53214", "country": "US", "state": "WI", "display_address": ["1631 Miller Park Way", "Milwaukee, WI 53214"]}, "phone": "+14143849000", "display_phone": "(414) 384-9000", "distance": 1642.0744196663875}, {"id": "hxOx8VHr9qHxZkSSVeYvhw", "alias": "highlands-cafe-wauwatosa", "name": "Highlands Cafe", "image_url": "https://s3-media1.fl.yelpcdn.com/bphoto/HfAAeWxS3XQQov4wxPRDHQ/o.jpg", "is_closed": false, "url": "https://www.yelp.com/biz/highlands-cafe-wauwatosa?adjust_creative=a2JdNtFqB-C38ga_06BHvw&utm_campaign=yelp_api_v3&utm_medium=api_v3_business_search&utm_source=a2JdNtFqB-C38ga_06BHvw", "review_count": 66, "categories": [{"alias": "cafes", "title": "Cafes"}, {"alias": "tradamerican", "title": "American (Traditional)"}, {"alias": "breakfast_brunch", "title": "Breakfast & Brunch"}], "rating": 3.5, "coordinates": {"latitude": 43.0500757, "longitude": -87.9876749}, "transactions": ["delivery"], "price": "$$", "location": {"address1": "1413 N 60th St", "address2": "", "address3": "", "city": "Wauwatosa", "zip_code": "53213", "country": "US", "state": "WI", "display_address": ["1413 N 60th St", "Wauwatosa, WI 53213"]}, "phone": "+14147271799", "display_phone": "(414) 727-1799", "distance": 2796.585811447396}, {"id": "vR9_Ly4m3N0KIxL-8dp1xA", "alias": "jonny-hammers-milwaukee-2", "name": "Jonny Hammers", "image_url": "https://s3-media1.fl.yelpcdn.com/bphoto/7QGJCkMZn_dFEPe3Yv9yAw/o.jpg", "is_closed": false, "url": "https://www.yelp.com/biz/jonny-hammers-milwaukee-2?adjust_creative=a2JdNtFqB-C38ga_06BHvw&utm_campaign=yelp_api_v3&utm_medium=api_v3_business_search&utm_source=a2JdNtFqB-C38ga_06BHvw", "review_count": 72, "categories": [{"alias": "sportsbars", "title": "Sports Bars"}, {"alias": "burgers", "title": "Burgers"}, {"alias": "pizza", "title": "Pizza"}], "rating": 3.5, "coordinates": {"latitude": 43.003069659266, "longitude": -87.991372422994}, "transactions": ["delivery"], "price": "$", "location": {"address1": "6300 W Lincoln Ave", "address2": "", "address3": "", "city": "Milwaukee", "zip_code": "53219", "country": "US", "state": "WI", "display_address": ["6300 W Lincoln Ave", "Milwaukee, WI 53219"]}, "phone": "+14144300282", "display_phone": "(414) 430-0282", "distance": 3256.5181660838352}, {"id": "tPAdn3mkN98yXFYsahFVhA", "alias": "sals-pizza-milwaukee", "name": "Sal's Pizza", "image_url": "https://s3-media2.fl.yelpcdn.com/bphoto/UQpJVShBp32FGrW9pMKMQQ/o.jpg", "is_closed": false, "url": "https://www.yelp.com/biz/sals-pizza-milwaukee?adjust_creative=a2JdNtFqB-C38ga_06BHvw&utm_campaign=yelp_api_v3&utm_medium=api_v3_business_search&utm_source=a2JdNtFqB-C38ga_06BHvw", "review_count": 67, "categories": [{"alias": "pizza", "title": "Pizza"}], "rating": 3.5, "coordinates": {"latitude": 43.038851, "longitude": -87.938955}, "transactions": ["delivery", "pickup"], "price": "$", "location": {"address1": "2040 Wisconsin Ave", "address2": "", "address3": "", "city": "Milwaukee", "zip_code": "53233", "country": "US", "state": "WI", "display_address": ["2040 Wisconsin Ave", "Milwaukee, WI 53233"]}, "phone": "+14143449931", "display_phone": "(414) 344-9931", "distance": 2863.3300723341777}, {"id": "LND6GeM7VIVOOJKbvf12Mw", "alias": "valley-inn-milwaukee", "name": "Valley Inn", "image_url": "https://s3-media3.fl.yelpcdn.com/bphoto/Lzrdxd3U-Zuo_rA-4GzTTg/o.jpg", "is_closed": false, "url": "https://www.yelp.com/biz/valley-inn-milwaukee?adjust_creative=a2JdNtFqB-C38ga_06BHvw&utm_campaign=yelp_api_v3&utm_medium=api_v3_business_search&utm_source=a2JdNtFqB-C38ga_06BHvw", "review_count": 26, "categories": [{"alias": "hotdogs", "title": "Fast Food"}, {"alias": "pizza", "title": "Pizza"}], "rating": 4.0, "coordinates": {"latitude": 43.036322822606, "longitude": -87.964302628181}, "transactions": ["delivery"], "price": "$", "location": {"address1": "4000 W Clybourn St", "address2": "", "address3": "", "city": "Milwaukee", "zip_code": "53208", "country": "US", "state": "WI", "display_address": ["4000 W Clybourn St", "Milwaukee, WI 53208"]}, "phone": "+14143441158", "display_phone": "(414) 344-1158", "distance": 1046.6785220128688}, {"id": "6qxP0qFEeZPqi4N1RHkBTg", "alias": "2mesa-mexican-eatery-milwaukee-2", "name": "2Mesa Mexican Eatery", "image_url": "https://s3-media3.fl.yelpcdn.com/bphoto/sCYlkxr3er1pZ6JcZG6uSQ/o.jpg", "is_closed": false, "url": "https://www.yelp.com/biz/2mesa-mexican-eatery-milwaukee-2?adjust_creative=a2JdNtFqB-C38ga_06BHvw&utm_campaign=yelp_api_v3&utm_medium=api_v3_business_search&utm_source=a2JdNtFqB-C38ga_06BHvw", "review_count": 44, "categories": [{"alias": "mexican", "title": "Mexican"}, {"alias": "bars", "title": "Bars"}], "rating": 4.0, "coordinates": {"latitude": 43.04616, "longitude": -87.9659}, "transactions": ["delivery"], "price": "$$", "location": {"address1": "4110 W Martin Dr", "address2": "", "address3": null, "city": "Milwaukee", "zip_code": "53208", "country": "US", "state": "WI", "display_address": ["4110 W Martin Dr", "Milwaukee, WI 53208"]}, "phone": "+14148081594", "display_phone": "(414) 808-1594", "distance": 2027.0073995509774}, {"id": "FqbKDMDe1U8VMDpmzisQ6g", "alias": "randys-neighbors-inn-west-allis", "name": "Randy's Neighbor's Inn", "image_url": "https://s3-media2.fl.yelpcdn.com/bphoto/naEbnCOh2Bvm-BnCgoLvZA/o.jpg", "is_closed": false, "url": "https://www.yelp.com/biz/randys-neighbors-inn-west-allis?adjust_creative=a2JdNtFqB-C38ga_06BHvw&utm_campaign=yelp_api_v3&utm_medium=api_v3_business_search&utm_source=a2JdNtFqB-C38ga_06BHvw", "review_count": 24, "categories": [{"alias": "fishnchips", "title": "Fish & Chips"}, {"alias": "bars", "title": "Bars"}], "rating": 4.0, "coordinates": {"latitude": 43.006395176053, "longitude": -87.9995012283325}, "transactions": ["delivery"], "price": "$$", "location": {"address1": "6922 W Becher St", "address2": "", "address3": "", "city": "West Allis", "zip_code": "53219", "country": "US", "state": "WI", "display_address": ["6922 W Becher St", "West Allis, WI 53219"]}, "phone": "+14145458738", "display_phone": "(414) 545-8738", "distance": 3367.4216486298455}, {"id": "AjODvDRV0VPNK8rrp5ubkg", "alias": "liquid-johnnys-milwaukee", "name": "Liquid Johnny's", "image_url": "https://s3-media3.fl.yelpcdn.com/bphoto/-wqcWf40xMj5S2wa3aHtXw/o.jpg", "is_closed": false, "url": "https://www.yelp.com/biz/liquid-johnnys-milwaukee?adjust_creative=a2JdNtFqB-C38ga_06BHvw&utm_campaign=yelp_api_v3&utm_medium=api_v3_business_search&utm_source=a2JdNtFqB-C38ga_06BHvw", "review_count": 37, "categories": [{"alias": "bars", "title": "Bars"}, {"alias": "tradamerican", "title": "American (Traditional)"}, {"alias": "pizza", "title": "Pizza"}], "rating": 4.0, "coordinates": {"latitude": 43.0263481, "longitude": -88.0068283}, "transactions": ["delivery"], "price": "$", "location": {"address1": "540 S 76th St", "address2": "", "address3": "", "city": "Milwaukee", "zip_code": "53214", "country": "US", "state": "WI", "display_address": ["540 S 76th St", "Milwaukee, WI 53214"]}, "phone": "+14144768668", "display_phone": "(414) 476-8668", "distance": 2919.364012762428}, {"id": "tdAI15i9VRie39kFvCtitg", "alias": "colonel-harts-wauwatosa", "name": "Colonel Hart's", "image_url": "https://s3-media1.fl.yelpcdn.com/bphoto/EuqXvBTOJm6kjbdiEXsWzw/o.jpg", "is_closed": false, "url": "https://www.yelp.com/biz/colonel-harts-wauwatosa?adjust_creative=a2JdNtFqB-C38ga_06BHvw&utm_campaign=yelp_api_v3&utm_medium=api_v3_business_search&utm_source=a2JdNtFqB-C38ga_06BHvw", "review_count": 56, "categories": [{"alias": "sportsbars", "title": "Sports Bars"}, {"alias": "tradamerican", "title": "American (Traditional)"}], "rating": 3.5, "coordinates": {"latitude": 43.0488586425781, "longitude": -88.0045013427734}, "transactions": ["delivery"], "price": "$", "location": {"address1": "7342 W State St", "address2": "", "address3": "", "city": "Wauwatosa", "zip_code": "53213", "country": "US", "state": "WI", "display_address": ["7342 W State St", "Wauwatosa, WI 53213"]}, "phone": "+14144763070", "display_phone": "(414) 476-3070", "distance": 3546.8264978083726}, {"id": "l5h7nksxf68XA-Bh7e0GXg", "alias": "miss-katies-diner-milwaukee", "name": "Miss Katie's Diner", "image_url": "https://s3-media3.fl.yelpcdn.com/bphoto/XqndUqqDyRfhN9lNlUFTYQ/o.jpg", "is_closed": false, "url": "https://www.yelp.com/biz/miss-katies-diner-milwaukee?adjust_creative=a2JdNtFqB-C38ga_06BHvw&utm_campaign=yelp_api_v3&utm_medium=api_v3_business_search&utm_source=a2JdNtFqB-C38ga_06BHvw", "review_count": 192, "categories": [{"alias": "tradamerican", "title": "American (Traditional)"}, {"alias": "diners", "title": "Diners"}], "rating": 3.0, "coordinates": {"latitude": 43.0363, "longitude": -87.9370299}, "transactions": ["delivery", "pickup"], "price": "$", "location": {"address1": "1900 W Clybourn St", "address2": "", "address3": "", "city": "Milwaukee", "zip_code": "53233", "country": "US", "state": "WI", "display_address": ["1900 W Clybourn St", "Milwaukee, WI 53233"]}, "phone": "+14143440044", "display_phone": "(414) 344-0044", "distance": 2916.487611094856}, {"id": "c7ctzkIH3jfHfI1tJTaFdw", "alias": "ruyi-milwaukee", "name": "RuYi", "image_url": "https://s3-media3.fl.yelpcdn.com/bphoto/UVKNZMs6bqjM9lCWKnFtkA/o.jpg", "is_closed": false, "url": "https://www.yelp.com/biz/ruyi-milwaukee?adjust_creative=a2JdNtFqB-C38ga_06BHvw&utm_campaign=yelp_api_v3&utm_medium=api_v3_business_search&utm_source=a2JdNtFqB-C38ga_06BHvw", "review_count": 106, "categories": [{"alias": "chinese", "title": "Chinese"}, {"alias": "sushi", "title": "Sushi Bars"}, {"alias": "japanese", "title": "Japanese"}], "rating": 3.5, "coordinates": {"latitude": 43.030471, "longitude": -87.934636}, "transactions": ["delivery"], "price": "$$", "location": {"address1": "1721 W Canal St", "address2": "", "address3": "", "city": "Milwaukee", "zip_code": "53223", "country": "US", "state": "WI", "display_address": ["1721 W Canal St", "Milwaukee, WI 53223"]}, "phone": "+14148477335", "display_phone": "(414) 847-7335", "distance": 2974.3428505388383}, {"id": "qlv20f92aDaO99Cw9oux9w", "alias": "loup-milwaukee", "name": "Loup", "image_url": "https://s3-media1.fl.yelpcdn.com/bphoto/hPD3o2IAnYLnSb-A7F5Z8A/o.jpg", "is_closed": false, "url": "https://www.yelp.com/biz/loup-milwaukee?adjust_creative=a2JdNtFqB-C38ga_06BHvw&utm_campaign=yelp_api_v3&utm_medium=api_v3_business_search&utm_source=a2JdNtFqB-C38ga_06BHvw", "review_count": 10, "categories": [{"alias": "soup", "title": "Soup"}], "rating": 4.5, "coordinates": {"latitude": 43.049744, "longitude": -88.007101}, "transactions": [], "location": {"address1": "7505 Harwood Ave", "address2": "", "address3": null, "city": "Milwaukee", "zip_code": "53213", "country": "US", "state": "WI", "display_address": ["7505 Harwood Ave", "Milwaukee, WI 53213"]}, "phone": "", "display_phone": "", "distance": 3763.973157157125}, {"id": "lyb7PRmVVZso_f1vZuO5qg", "alias": "national-pizza-pub-and-grille-milwaukee-2", "name": "National Pizza Pub and Grille", "image_url": "https://s3-media1.fl.yelpcdn.com/bphoto/p20n8oZsBUHQ-cUWlz04Fw/o.jpg", "is_closed": false, "url": "https://www.yelp.com/biz/national-pizza-pub-and-grille-milwaukee-2?adjust_creative=a2JdNtFqB-C38ga_06BHvw&utm_campaign=yelp_api_v3&utm_medium=api_v3_business_search&utm_source=a2JdNtFqB-C38ga_06BHvw", "review_count": 35, "categories": [{"alias": "pizza", "title": "Pizza"}, {"alias": "pubs", "title": "Pubs"}, {"alias": "sportsbars", "title": "Sports Bars"}], "rating": 4.0, "coordinates": {"latitude": 43.018411, "longitude": -87.981375}, "transactions": ["delivery", "pickup"], "price": "$$", "location": {"address1": "5501 W National Ave", "address2": "", "address3": "", "city": "Milwaukee", "zip_code": "53214", "country": "US", "state": "WI", "display_address": ["5501 W National Ave", "Milwaukee, WI 53214"]}, "phone": "+14146714224", "display_phone": "(414) 671-4224", "distance": 1383.2583140312404}, {"id": "xoG6eF4wpUYHha8Hj043Kw", "alias": "flour-girl-and-flame-west-allis", "name": "Flour Girl and Flame", "image_url": "https://s3-media2.fl.yelpcdn.com/bphoto/2ZcjuzwkEgetuSKu7uKgZg/o.jpg", "is_closed": false, "url": "https://www.yelp.com/biz/flour-girl-and-flame-west-allis?adjust_creative=a2JdNtFqB-C38ga_06BHvw&utm_campaign=yelp_api_v3&utm_medium=api_v3_business_search&utm_source=a2JdNtFqB-C38ga_06BHvw", "review_count": 9, "categories": [{"alias": "pizza", "title": "Pizza"}], "rating": 5.0, "coordinates": {"latitude": 43.002743, "longitude": -87.996862}, "transactions": [], "location": {"address1": "6735 W Lincoln Ave", "address2": "", "address3": null, "city": "West Allis", "zip_code": "53219", "country": "US", "state": "WI", "display_address": ["6735 W Lincoln Ave", "West Allis, WI 53219"]}, "phone": "+14147770770", "display_phone": "(414) 777-0770", "distance": 3532.695701750159}, {"id": "cF7fUtSKYLDEoLt3cPSQRA", "alias": "ians-pizza-story-hill-milwaukee", "name": "Ian's Pizza Story Hill", "image_url": "https://s3-media1.fl.yelpcdn.com/bphoto/fJyX92tnCboWBWy2U_JjkA/o.jpg", "is_closed": false, "url": "https://www.yelp.com/biz/ians-pizza-story-hill-milwaukee?adjust_creative=a2JdNtFqB-C38ga_06BHvw&utm_campaign=yelp_api_v3&utm_medium=api_v3_business_search&utm_source=a2JdNtFqB-C38ga_06BHvw", "review_count": 23, "categories": [{"alias": "pizza", "title": "Pizza"}], "rating": 4.0, "coordinates": {"latitude": 43.036742774688, "longitude": -87.9800505191088}, "transactions": ["delivery", "pickup"], "location": {"address1": "5300 W Bluemound Rd", "address2": "", "address3": null, "city": "Milwaukee", "zip_code": "53208", "country": "US", "state": "WI", "display_address": ["5300 W Bluemound Rd", "Milwaukee, WI 53208"]}, "phone": "+14147279200", "display_phone": "(414) 727-9200", "distance": 1184.2316030157424}, {"id": "E5E47MB-KzPdYf_RvNsiKw", "alias": "goldcoast-subs-west-allis", "name": "Goldcoast Subs", "image_url": "https://s3-media1.fl.yelpcdn.com/bphoto/T8W-RpT0oi2a_cmks1JlZQ/o.jpg", "is_closed": false, "url": "https://www.yelp.com/biz/goldcoast-subs-west-allis?adjust_creative=a2JdNtFqB-C38ga_06BHvw&utm_campaign=yelp_api_v3&utm_medium=api_v3_business_search&utm_source=a2JdNtFqB-C38ga_06BHvw", "review_count": 16, "categories": [{"alias": "sandwiches", "title": "Sandwiches"}], "rating": 4.5, "coordinates": {"latitude": 43.0100399, "longitude": -87.98653}, "transactions": ["delivery"], "price": "$", "location": {"address1": "5901 W Burnham St", "address2": "", "address3": "", "city": "West Allis", "zip_code": "53219", "country": "US", "state": "WI", "display_address": ["5901 W Burnham St", "West Allis, WI 53219"]}, "phone": "+14143211688", "display_phone": "(414) 321-1688", "distance": 2380.018543411056}, {"id": "YttgUiyl4en9EIzCIR6WKQ", "alias": "dream-dance-steakhouse-milwaukee", "name": "Dream Dance Steakhouse", "image_url": "https://s3-media1.fl.yelpcdn.com/bphoto/dKakpb0ycBVwfPWs7Prbag/o.jpg", "is_closed": false, "url": "https://www.yelp.com/biz/dream-dance-steakhouse-milwaukee?adjust_creative=a2JdNtFqB-C38ga_06BHvw&utm_campaign=yelp_api_v3&utm_medium=api_v3_business_search&utm_source=a2JdNtFqB-C38ga_06BHvw", "review_count": 61, "categories": [{"alias": "steak", "title": "Steakhouses"}, {"alias": "seafood", "title": "Seafood"}], "rating": 3.5, "coordinates": {"latitude": 43.030471, "longitude": -87.934636}, "transactions": ["delivery"], "price": "$$$$", "location": {"address1": "1721 W Canal St", "address2": "", "address3": "", "city": "Milwaukee", "zip_code": "53223", "country": "US", "state": "WI", "display_address": ["1721 W Canal St", "Milwaukee, WI 53223"]}, "phone": "+14148477883", "display_phone": "(414) 847-7883", "distance": 2974.3428505388383}, {"id": "QuyMU8xoIeDq3PVzdfL4EQ", "alias": "dugout-54-milwaukee", "name": "Dugout 54", "image_url": "https://s3-media1.fl.yelpcdn.com/bphoto/JQ5Ln7l9V6l-pJAHePbr0g/o.jpg", "is_closed": false, "url": "https://www.yelp.com/biz/dugout-54-milwaukee?adjust_creative=a2JdNtFqB-C38ga_06BHvw&utm_campaign=yelp_api_v3&utm_medium=api_v3_business_search&utm_source=a2JdNtFqB-C38ga_06BHvw", "review_count": 26, "categories": [{"alias": "gastropubs", "title": "Gastropubs"}, {"alias": "sportsbars", "title": "Sports Bars"}], "rating": 4.0, "coordinates": {"latitude": 43.03686, "longitude": -87.9807}, "transactions": ["delivery"], "price": "$$", "location": {"address1": "5328 W Bluemound Rd", "address2": "", "address3": "", "city": "Milwaukee", "zip_code": "53208", "country": "US", "state": "WI", "display_address": ["5328 W Bluemound Rd", "Milwaukee, WI 53208"]}, "phone": "+14142591200", "display_phone": "(414) 259-1200", "distance": 1231.9637789996852}, {"id": "vzvN7Rp9AJ4jqODx9WntSg", "alias": "spitfires-on-state-milwaukee", "name": "Spitfires On State", "image_url": "https://s3-media2.fl.yelpcdn.com/bphoto/BKneR-7hybwIqaOwsx91gg/o.jpg", "is_closed": false, "url": "https://www.yelp.com/biz/spitfires-on-state-milwaukee?adjust_creative=a2JdNtFqB-C38ga_06BHvw&utm_campaign=yelp_api_v3&utm_medium=api_v3_business_search&utm_source=a2JdNtFqB-C38ga_06BHvw", "review_count": 70, "categories": [{"alias": "tradamerican", "title": "American (Traditional)"}], "rating": 3.5, "coordinates": {"latitude": 43.0445861816406, "longitude": -87.9763107299805}, "transactions": ["delivery"], "price": "$$", "location": {"address1": "5018 W State St", "address2": "", "address3": "", "city": "Milwaukee", "zip_code": "53208", "country": "US", "state": "WI", "display_address": ["5018 W State St", "Milwaukee, WI 53208"]}, "phone": "+14147775060", "display_phone": "(414) 777-5060", "distance": 1844.3965178252631}, {"id": "mdw1ZWCLYY1n6kPoQZQvMw", "alias": "colour-palate-wauwatosa-2", "name": "colour palate", "image_url": "https://s3-media3.fl.yelpcdn.com/bphoto/f-r6uiF3SrCQyCC_tHCebw/o.jpg", "is_closed": false, "url": "https://www.yelp.com/biz/colour-palate-wauwatosa-2?adjust_creative=a2JdNtFqB-C38ga_06BHvw&utm_campaign=yelp_api_v3&utm_medium=api_v3_business_search&utm_source=a2JdNtFqB-C38ga_06BHvw", "review_count": 16, "categories": [{"alias": "salad", "title": "Salad"}, {"alias": "soup", "title": "Soup"}], "rating": 4.0, "coordinates": {"latitude": 43.0492593160143, "longitude": -88.0061010637089}, "transactions": ["pickup", "delivery"], "location": {"address1": "7488 W State St", "address2": "State Street Station", "address3": null, "city": "Wauwatosa", "zip_code": "53213", "country": "US", "state": "WI", "display_address": ["7488 W State St", "State Street Station", "Wauwatosa, WI 53213"]}, "phone": "+14143862212", "display_phone": "(414) 386-2212", "distance": 3674.374201673851}, {"id": "md7gj34hoLpyi75DwhSz8w", "alias": "la-fondita-de-milwaukee-milwaukee", "name": "La Fondita De Milwaukee", "image_url": "https://s3-media1.fl.yelpcdn.com/bphoto/LKVPH3V6z36wEeuZE5h_MQ/o.jpg", "is_closed": false, "url": "https://www.yelp.com/biz/la-fondita-de-milwaukee-milwaukee?adjust_creative=a2JdNtFqB-C38ga_06BHvw&utm_campaign=yelp_api_v3&utm_medium=api_v3_business_search&utm_source=a2JdNtFqB-C38ga_06BHvw", "review_count": 10, "categories": [{"alias": "mexican", "title": "Mexican"}], "rating": 4.5, "coordinates": {"latitude": 43.01664, "longitude": -87.94565}, "transactions": [], "price": "$$", "location": {"address1": "2523 W Greenfield Ave", "address2": "", "address3": "", "city": "Milwaukee", "zip_code": "53204", "country": "US", "state": "WI", "display_address": ["2523 W Greenfield Ave", "Milwaukee, WI 53204"]}, "phone": "+14146490399", "display_phone": "(414) 649-0399", "distance": 2425.0108116714764}, {"id": "XrHo2woGxIlr4rxyMlG_oQ", "alias": "gus-deli-west-allis", "name": "Gus' Deli", "image_url": "https://s3-media3.fl.yelpcdn.com/bphoto/ZWBl2yvbYIw2WLjjyA5sRQ/o.jpg", "is_closed": false, "url": "https://www.yelp.com/biz/gus-deli-west-allis?adjust_creative=a2JdNtFqB-C38ga_06BHvw&utm_campaign=yelp_api_v3&utm_medium=api_v3_business_search&utm_source=a2JdNtFqB-C38ga_06BHvw", "review_count": 6, "categories": [{"alias": "tradamerican", "title": "American (Traditional)"}, {"alias": "diners", "title": "Diners"}, {"alias": "breakfast_brunch", "title": "Breakfast & Brunch"}], "rating": 5.0, "coordinates": {"latitude": 43.023265, "longitude": -87.989629}, "transactions": ["pickup", "delivery"], "location": {"address1": "813 S 60th St", "address2": "", "address3": null, "city": "West Allis", "zip_code": "53214", "country": "US", "state": "WI", "display_address": ["813 S 60th St", "West Allis, WI 53214"]}, "phone": "+14147632286", "display_phone": "(414) 763-2286", "distance": 1607.3287298056011}, {"id": "FeOm--VOiLEkL4ddOxhgUQ", "alias": "tsunami-taqueria-y-marisco-milwaukee", "name": "Tsunami Taqueria Y Marisco", "image_url": "https://s3-media1.fl.yelpcdn.com/bphoto/yy2oBuUQ_RbP9hXpwQ4-hA/o.jpg", "is_closed": false, "url": "https://www.yelp.com/biz/tsunami-taqueria-y-marisco-milwaukee?adjust_creative=a2JdNtFqB-C38ga_06BHvw&utm_campaign=yelp_api_v3&utm_medium=api_v3_business_search&utm_source=a2JdNtFqB-C38ga_06BHvw", "review_count": 10, "categories": [{"alias": "mexican", "title": "Mexican"}], "rating": 4.5, "coordinates": {"latitude": 43.0028951, "longitude": -87.9384531}, "transactions": ["delivery"], "location": {"address1": "2001 W Lincoln Ave", "address2": "", "address3": "", "city": "Milwaukee", "zip_code": "53215", "country": "US", "state": "WI", "display_address": ["2001 W Lincoln Ave", "Milwaukee, WI 53215"]}, "phone": "+14142557759", "display_phone": "(414) 255-7759", "distance": 3878.9023374181097}, {"id": "Xi4PsnE6A7mOzCqGhRJQLA", "alias": "two-brothers-milwaukee", "name": "Two Brothers", "image_url": "https://s3-media4.fl.yelpcdn.com/bphoto/d40Ts_H2dh-9s97lh8Gg7w/o.jpg", "is_closed": false, "url": "https://www.yelp.com/biz/two-brothers-milwaukee?adjust_creative=a2JdNtFqB-C38ga_06BHvw&utm_campaign=yelp_api_v3&utm_medium=api_v3_business_search&utm_source=a2JdNtFqB-C38ga_06BHvw", "review_count": 18, "categories": [{"alias": "diners", "title": "Diners"}], "rating": 4.0, "coordinates": {"latitude": 43.0099, "longitude": -87.97239}, "transactions": ["delivery"], "price": "$", "location": {"address1": "4625 W Burnham St", "address2": "", "address3": "", "city": "Milwaukee", "zip_code": "53219", "country": "US", "state": "WI", "display_address": ["4625 W Burnham St", "Milwaukee, WI 53219"]}, "phone": "+14143844555", "display_phone": "(414) 384-4555", "distance": 2045.8596719142897}, {"id": "gOb3_2vafUPgl6q_9iqL3w", "alias": "cataros-italian-villa-milwaukee", "name": "Cataro's Italian Villa", "image_url": "https://s3-media4.fl.yelpcdn.com/bphoto/P24fhT7-TqxldzsFJwu4KQ/o.jpg", "is_closed": false, "url": "https://www.yelp.com/biz/cataros-italian-villa-milwaukee?adjust_creative=a2JdNtFqB-C38ga_06BHvw&utm_campaign=yelp_api_v3&utm_medium=api_v3_business_search&utm_source=a2JdNtFqB-C38ga_06BHvw", "review_count": 11, "categories": [{"alias": "italian", "title": "Italian"}, {"alias": "pizza", "title": "Pizza"}], "rating": 4.5, "coordinates": {"latitude": 43.0107803, "longitude": -87.9835205}, "transactions": ["delivery"], "price": "$$", "location": {"address1": "5641 W Beloit Rd", "address2": "", "address3": "", "city": "Milwaukee", "zip_code": "53214", "country": "US", "state": "WI", "display_address": ["5641 W Beloit Rd", "Milwaukee, WI 53214"]}, "phone": "+14145451520", "display_phone": "(414) 545-1520", "distance": 2196.6061756688623}, {"id": "X35cMMDfUfM3xXKU41ed9A", "alias": "joses-blue-sombrero-wauwatosa", "name": "Jose's Blue Sombrero", "image_url": "https://s3-media1.fl.yelpcdn.com/bphoto/FuuJBcyMm4Gsp7gdf91bEQ/o.jpg", "is_closed": false, "url": "https://www.yelp.com/biz/joses-blue-sombrero-wauwatosa?adjust_creative=a2JdNtFqB-C38ga_06BHvw&utm_campaign=yelp_api_v3&utm_medium=api_v3_business_search&utm_source=a2JdNtFqB-C38ga_06BHvw", "review_count": 81, "categories": [{"alias": "mexican", "title": "Mexican"}], "rating": 3.0, "coordinates": {"latitude": 43.04901, "longitude": -88.00711}, "transactions": ["delivery"], "location": {"address1": "7615 W State St", "address2": "", "address3": null, "city": "Wauwatosa", "zip_code": "53213", "country": "US", "state": "WI", "display_address": ["7615 W State St", "Wauwatosa, WI 53213"]}, "phone": "+14144532300", "display_phone": "(414) 453-2300", "distance": 3782.780908429914}, {"id": "T5QyEKP6GXmWiooP9lImyg", "alias": "jersey-mikes-subs-west-milwaukee-2", "name": "Jersey Mike's Subs", "image_url": "https://s3-media3.fl.yelpcdn.com/bphoto/PDZQwF-REGAJM7RF5aSQHQ/o.jpg", "is_closed": false, "url": "https://www.yelp.com/biz/jersey-mikes-subs-west-milwaukee-2?adjust_creative=a2JdNtFqB-C38ga_06BHvw&utm_campaign=yelp_api_v3&utm_medium=api_v3_business_search&utm_source=a2JdNtFqB-C38ga_06BHvw", "review_count": 42, "categories": [{"alias": "sandwiches", "title": "Sandwiches"}, {"alias": "hotdogs", "title": "Fast Food"}, {"alias": "delis", "title": "Delis"}], "rating": 3.5, "coordinates": {"latitude": 43.018521, "longitude": -87.967355}, "transactions": ["pickup", "delivery"], "price": "$", "location": {"address1": "1232 South Miller Park Way", "address2": "", "address3": "", "city": "West Milwaukee", "zip_code": "53214", "country": "US", "state": "WI", "display_address": ["1232 South Miller Park Way", "West Milwaukee, WI 53214"]}, "phone": "+14146727827", "display_phone": "(414) 672-7827", "distance": 1132.9621187354428}, {"id": "WvnQJTGvgBJlf0kJHlxsjw", "alias": "wingstop-west-milwaukee-2", "name": "Wingstop", "image_url": "https://s3-media2.fl.yelpcdn.com/bphoto/A0ugP63Stx0mIJ7Jw8-RWw/o.jpg", "is_closed": false, "url": "https://www.yelp.com/biz/wingstop-west-milwaukee-2?adjust_creative=a2JdNtFqB-C38ga_06BHvw&utm_campaign=yelp_api_v3&utm_medium=api_v3_business_search&utm_source=a2JdNtFqB-C38ga_06BHvw", "review_count": 49, "categories": [{"alias": "chicken_wings", "title": "Chicken Wings"}], "rating": 3.0, "coordinates": {"latitude": 43.0069889, "longitude": -87.9667265}, "transactions": [], "price": "$", "location": {"address1": "2086 S Miller Park Way", "address2": "", "address3": "", "city": "West Milwaukee", "zip_code": "53219", "country": "US", "state": "WI", "display_address": ["2086 S Miller Park Way", "West Milwaukee, WI 53219"]}, "phone": "+14146499464", "display_phone": "(414) 649-9464", "distance": 2399.9720962420074}, {"id": "aiTMnUyftpjUjDR_0lgJzA", "alias": "hectors-a-mexican-restaurant-wauwatosa", "name": "Hector's A Mexican Restaurant", "image_url": "https://s3-media4.fl.yelpcdn.com/bphoto/8MDy2guT8MSAErJe7YpRJA/o.jpg", "is_closed": false, "url": "https://www.yelp.com/biz/hectors-a-mexican-restaurant-wauwatosa?adjust_creative=a2JdNtFqB-C38ga_06BHvw&utm_campaign=yelp_api_v3&utm_medium=api_v3_business_search&utm_source=a2JdNtFqB-C38ga_06BHvw", "review_count": 105, "categories": [{"alias": "mexican", "title": "Mexican"}], "rating": 3.0, "coordinates": {"latitude": 43.047882, "longitude": -88.001432}, "transactions": ["delivery"], "price": "$$", "location": {"address1": "7118 W State St", "address2": "", "address3": "", "city": "Wauwatosa", "zip_code": "53213", "country": "US", "state": "WI", "display_address": ["7118 W State St", "Wauwatosa, WI 53213"]}, "phone": "+14142585600", "display_phone": "(414) 258-5600", "distance": 3285.9911038642545}, {"id": "nk3OeXGejlSxvmhB_XcYHA", "alias": "marcos-pizza-west-allis", "name": "Marco's Pizza", "image_url": "https://s3-media3.fl.yelpcdn.com/bphoto/z5VYgltNNZU1DApZNQ0t4A/o.jpg", "is_closed": false, "url": "https://www.yelp.com/biz/marcos-pizza-west-allis?adjust_creative=a2JdNtFqB-C38ga_06BHvw&utm_campaign=yelp_api_v3&utm_medium=api_v3_business_search&utm_source=a2JdNtFqB-C38ga_06BHvw", "review_count": 27, "categories": [{"alias": "pizza", "title": "Pizza"}], "rating": 3.5, "coordinates": {"latitude": 43.0110089557515, "longitude": -88.0078858255242}, "transactions": ["pickup", "delivery"], "price": "$$", "location": {"address1": "1723 S 76th St", "address2": "", "address3": "", "city": "West Allis", "zip_code": "53214", "country": "US", "state": "WI", "display_address": ["1723 S 76th St", "West Allis, WI 53214"]}, "phone": "+14142588400", "display_phone": "(414) 258-8400", "distance": 3556.5342598601774}, {"id": "xRMU5LpNft97iEp7yHSPzQ", "alias": "rounding-third-milwaukee", "name": "Rounding Third", "image_url": "https://s3-media1.fl.yelpcdn.com/bphoto/spVS6kHJ9SNfGc1g6yw-kQ/o.jpg", "is_closed": false, "url": "https://www.yelp.com/biz/rounding-third-milwaukee?adjust_creative=a2JdNtFqB-C38ga_06BHvw&utm_campaign=yelp_api_v3&utm_medium=api_v3_business_search&utm_source=a2JdNtFqB-C38ga_06BHvw", "review_count": 34, "categories": [{"alias": "sportsbars", "title": "Sports Bars"}, {"alias": "newamerican", "title": "American (New)"}, {"alias": "sandwiches", "title": "Sandwiches"}], "rating": 3.5, "coordinates": {"latitude": 43.036055, "longitude": -87.99161}, "transactions": ["delivery"], "price": "$$", "location": {"address1": "6317 W Bluemound Rd", "address2": "", "address3": "", "city": "Milwaukee", "zip_code": "53244", "country": "US", "state": "WI", "display_address": ["6317 W Bluemound Rd", "Milwaukee, WI 53244"]}, "phone": "+14144751982", "display_phone": "(414) 475-1982", "distance": 1874.3973970022387}, {"id": "DN_j9H_mm_YDoPZ6W1lV8Q", "alias": "bella-italiana-milwaukee", "name": "Bella Italiana", "image_url": "https://s3-media2.fl.yelpcdn.com/bphoto/9K3xFTp8ymEgyG7FKUg3tA/o.jpg", "is_closed": false, "url": "https://www.yelp.com/biz/bella-italiana-milwaukee?adjust_creative=a2JdNtFqB-C38ga_06BHvw&utm_campaign=yelp_api_v3&utm_medium=api_v3_business_search&utm_source=a2JdNtFqB-C38ga_06BHvw", "review_count": 60, "categories": [{"alias": "italian", "title": "Italian"}], "rating": 3.0, "coordinates": {"latitude": 43.030471, "longitude": -87.934636}, "transactions": [], "price": "$$", "location": {"address1": "1721 W Canal St", "address2": "", "address3": "", "city": "Milwaukee", "zip_code": "53223", "country": "US", "state": "WI", "display_address": ["1721 W Canal St", "Milwaukee, WI 53223"]}, "phone": "+14148477626", "display_phone": "(414) 847-7626", "distance": 2974.3428505388383}, {"id": "nasgABJCiDrMf6hR-7N-Xg", "alias": "mis-suenos-west-allis", "name": "Mis Suenos", "image_url": "https://s3-media2.fl.yelpcdn.com/bphoto/pGN08fcWbF-8IzMdsTENZw/o.jpg", "is_closed": false, "url": "https://www.yelp.com/biz/mis-suenos-west-allis?adjust_creative=a2JdNtFqB-C38ga_06BHvw&utm_campaign=yelp_api_v3&utm_medium=api_v3_business_search&utm_source=a2JdNtFqB-C38ga_06BHvw", "review_count": 62, "categories": [{"alias": "tacos", "title": "Tacos"}], "rating": 3.0, "coordinates": {"latitude": 43.0165634531724, "longitude": -88.0044093417916}, "transactions": ["delivery"], "price": "$$", "location": {"address1": "7335 W Greenfield Ave", "address2": "", "address3": "", "city": "West Allis", "zip_code": "53214", "country": "US", "state": "WI", "display_address": ["7335 W Greenfield Ave", "West Allis, WI 53214"]}, "phone": "+14147635150", "display_phone": "(414) 763-5150", "distance": 3006.6854980349017}, {"id": "iCKqLpwEuv9U4_h6scZbZw", "alias": "brauns-power-house-west-allis", "name": "Braun's Power House", "image_url": "https://s3-media1.fl.yelpcdn.com/bphoto/rK9brF130JCsjXQKjjoylA/o.jpg", "is_closed": false, "url": "https://www.yelp.com/biz/brauns-power-house-west-allis?adjust_creative=a2JdNtFqB-C38ga_06BHvw&utm_campaign=yelp_api_v3&utm_medium=api_v3_business_search&utm_source=a2JdNtFqB-C38ga_06BHvw", "review_count": 34, "categories": [{"alias": "bars", "title": "Bars"}, {"alias": "newamerican", "title": "American (New)"}, {"alias": "tacos", "title": "Tacos"}], "rating": 3.5, "coordinates": {"latitude": 43.01301, "longitude": -88.0015899}, "transactions": ["delivery"], "price": "$", "location": {"address1": "7100 W National Ave", "address2": "", "address3": "", "city": "West Allis", "zip_code": "53214", "country": "US", "state": "WI", "display_address": ["7100 W National Ave", "West Allis, WI 53214"]}, "phone": "+14144558700", "display_phone": "(414) 455-8700", "distance": 3011.022815762394}, {"id": "DrdOohgSEi5PAnWpb3EG9w", "alias": "culvers-west-milwaukee-2", "name": "Culver's", "image_url": "https://s3-media2.fl.yelpcdn.com/bphoto/OiRpr27BWar5EjwfC0m1AQ/o.jpg", "is_closed": false, "url": "https://www.yelp.com/biz/culvers-west-milwaukee-2?adjust_creative=a2JdNtFqB-C38ga_06BHvw&utm_campaign=yelp_api_v3&utm_medium=api_v3_business_search&utm_source=a2JdNtFqB-C38ga_06BHvw", "review_count": 33, "categories": [{"alias": "icecream", "title": "Ice Cream & Frozen Yogurt"}, {"alias": "burgers", "title": "Burgers"}, {"alias": "hotdogs", "title": "Fast Food"}], "rating": 3.5, "coordinates": {"latitude": 43.0130844116211, "longitude": -87.9682006835938}, "transactions": [], "price": "$", "location": {"address1": "1641 Miller Pkwy", "address2": null, "address3": null, "city": "West Milwaukee", "zip_code": "53214", "country": "US", "state": "WI", "display_address": ["1641 Miller Pkwy", "West Milwaukee, WI 53214"]}, "phone": "+14146451011", "display_phone": "(414) 645-1011", "distance": 1711.9911764157337}, {"id": "e6tfjlv52EpLylZ3Hyot0A", "alias": "michaels-family-restaurant-milwaukee-2", "name": "Michael's Family Restaurant", "image_url": "https://s3-media4.fl.yelpcdn.com/bphoto/2_bxVeE5QSFzFdPX3oQ9FA/o.jpg", "is_closed": false, "url": "https://www.yelp.com/biz/michaels-family-restaurant-milwaukee-2?adjust_creative=a2JdNtFqB-C38ga_06BHvw&utm_campaign=yelp_api_v3&utm_medium=api_v3_business_search&utm_source=a2JdNtFqB-C38ga_06BHvw", "review_count": 37, "categories": [{"alias": "breakfast_brunch", "title": "Breakfast & Brunch"}, {"alias": "tradamerican", "title": "American (Traditional)"}], "rating": 3.5, "coordinates": {"latitude": 43.038944, "longitude": -87.941133}, "transactions": ["pickup", "delivery"], "price": "$", "location": {"address1": "2220 W Wisconsin Ave", "address2": "", "address3": "", "city": "Milwaukee", "zip_code": "53233", "country": "US", "state": "WI", "display_address": ["2220 W Wisconsin Ave", "Milwaukee, WI 53233"]}, "phone": "+14143447333", "display_phone": "(414) 344-7333", "distance": 2707.2032002501633}, {"id": "4KpCV0okoVRvBJAlXCvD2A", "alias": "jj-fish-and-chicken-milwaukee", "name": "JJ Fish & Chicken", "image_url": "https://s3-media3.fl.yelpcdn.com/bphoto/_q4g9Ra7BLMqj2zXDhmLng/o.jpg", "is_closed": false, "url": "https://www.yelp.com/biz/jj-fish-and-chicken-milwaukee?adjust_creative=a2JdNtFqB-C38ga_06BHvw&utm_campaign=yelp_api_v3&utm_medium=api_v3_business_search&utm_source=a2JdNtFqB-C38ga_06BHvw", "review_count": 22, "categories": [{"alias": "chicken_wings", "title": "Chicken Wings"}, {"alias": "hotdogs", "title": "Fast Food"}], "rating": 3.5, "coordinates": {"latitude": 43.0481033325195, "longitude": -87.9573669433594}, "transactions": ["pickup", "delivery"], "price": "$", "location": {"address1": "1334 N 35th St", "address2": null, "address3": null, "city": "Milwaukee", "zip_code": "53208", "country": "US", "state": "WI", "display_address": ["1334 N 35th St", "Milwaukee, WI 53208"]}, "phone": "+14149351000", "display_phone": "(414) 935-1000", "distance": 2476.8530794829026}, {"id": "FVCnFRYwv6u9jI8g9a4j_w", "alias": "rocky-rococo-milwaukee-5", "name": "Rocky Rococo", "image_url": "https://s3-media2.fl.yelpcdn.com/bphoto/NPHtarY4a3VT-5pC5RAA5w/o.jpg", "is_closed": false, "url": "https://www.yelp.com/biz/rocky-rococo-milwaukee-5?adjust_creative=a2JdNtFqB-C38ga_06BHvw&utm_campaign=yelp_api_v3&utm_medium=api_v3_business_search&utm_source=a2JdNtFqB-C38ga_06BHvw", "review_count": 18, "categories": [{"alias": "pizza", "title": "Pizza"}], "rating": 3.5, "coordinates": {"latitude": 43.006344, "longitude": -87.966657}, "transactions": ["pickup", "delivery"], "price": "$", "location": {"address1": "2094 Miller Park Way", "address2": null, "address3": null, "city": "Milwaukee", "zip_code": "53219", "country": "US", "state": "WI", "display_address": ["2094 Miller Park Way", "Milwaukee, WI 53219"]}, "phone": "+14146499900", "display_phone": "(414) 649-9900", "distance": 2471.730942788706}, {"id": "QvzndXYyfJl-zv6tRZvsHA", "alias": "st-sebastian-fish-fry-milwaukee", "name": "St Sebastian Fish Fry", "image_url": "https://s3-media2.fl.yelpcdn.com/bphoto/g5QWeTyfhSBjTCUq7_dQBQ/o.jpg", "is_closed": false, "url": "https://www.yelp.com/biz/st-sebastian-fish-fry-milwaukee?adjust_creative=a2JdNtFqB-C38ga_06BHvw&utm_campaign=yelp_api_v3&utm_medium=api_v3_business_search&utm_source=a2JdNtFqB-C38ga_06BHvw", "review_count": 10, "categories": [{"alias": "fishnchips", "title": "Fish & Chips"}], "rating": 4.0, "coordinates": {"latitude": 43.0544134, "longitude": -87.9818151}, "transactions": [], "location": {"address1": "1740 N 55th St", "address2": "", "address3": "", "city": "Milwaukee", "zip_code": "53208", "country": "US", "state": "WI", "display_address": ["1740 N 55th St", "Milwaukee, WI 53208"]}, "phone": "+14144531061", "display_phone": "(414) 453-1061", "distance": 2913.649890717359}, {"id": "xKGlU-S6Swy1RzZTgeZPIA", "alias": "brewskis-sports-club-bar-and-grill-milwaukee", "name": "Brewski's Sports Club Bar & Grill", "image_url": "https://s3-media1.fl.yelpcdn.com/bphoto/3ItKRxlFgIM7zAB3x3NgxQ/o.jpg", "is_closed": false, "url": "https://www.yelp.com/biz/brewskis-sports-club-bar-and-grill-milwaukee?adjust_creative=a2JdNtFqB-C38ga_06BHvw&utm_campaign=yelp_api_v3&utm_medium=api_v3_business_search&utm_source=a2JdNtFqB-C38ga_06BHvw", "review_count": 60, "categories": [{"alias": "sportsbars", "title": "Sports Bars"}, {"alias": "tradamerican", "title": "American (Traditional)"}], "rating": 3.0, "coordinates": {"latitude": 43.0338133, "longitude": -88.0070551}, "transactions": ["delivery"], "price": "$", "location": {"address1": "304 N 76th St", "address2": "", "address3": "", "city": "Milwaukee", "zip_code": "53213", "country": "US", "state": "WI", "display_address": ["304 N 76th St", "Milwaukee, WI 53213"]}, "phone": "+14144750500", "display_phone": "(414) 475-0500", "distance": 2985.7721811954952}, {"id": "0yCs9S7ynNtVb-KWo2X8Vg", "alias": "aloha-poke-wauwatosa", "name": "Aloha Poke", "image_url": "https://s3-media4.fl.yelpcdn.com/bphoto/2uvzpoqh7TL8icLOl0OMuQ/o.jpg", "is_closed": false, "url": "https://www.yelp.com/biz/aloha-poke-wauwatosa?adjust_creative=a2JdNtFqB-C38ga_06BHvw&utm_campaign=yelp_api_v3&utm_medium=api_v3_business_search&utm_source=a2JdNtFqB-C38ga_06BHvw", "review_count": 5, "categories": [{"alias": "poke", "title": "Poke"}, {"alias": "asianfusion", "title": "Asian Fusion"}], "rating": 5.0, "coordinates": {"latitude": 43.050396, "longitude": -88.007911}, "transactions": [], "location": {"address1": "1417 N Wauwatosa Ave", "address2": null, "address3": null, "city": "Wauwatosa", "zip_code": "53213", "country": "US", "state": "WI", "display_address": ["1417 N Wauwatosa Ave", "Wauwatosa, WI 53213"]}, "phone": "+14142313138", "display_phone": "(414) 231-3138", "distance": 3863.3980106702666}, {"id": "fRzx5Ve0Dp7fpDhQtiJKLg", "alias": "taco-loco-milwaukee", "name": "Taco Loco", "image_url": "https://s3-media2.fl.yelpcdn.com/bphoto/JKkbrmM7g3CxeHm9wLHGvg/o.jpg", "is_closed": false, "url": "https://www.yelp.com/biz/taco-loco-milwaukee?adjust_creative=a2JdNtFqB-C38ga_06BHvw&utm_campaign=yelp_api_v3&utm_medium=api_v3_business_search&utm_source=a2JdNtFqB-C38ga_06BHvw", "review_count": 11, "categories": [{"alias": "mexican", "title": "Mexican"}], "rating": 4.0, "coordinates": {"latitude": 43.0103874, "longitude": -87.9586182}, "transactions": ["delivery"], "price": "$", "location": {"address1": "3524 W Burnham St", "address2": "", "address3": "", "city": "Milwaukee", "zip_code": "53215", "country": "US", "state": "WI", "display_address": ["3524 W Burnham St", "Milwaukee, WI 53215"]}, "phone": "+14146431616", "display_phone": "(414) 643-1616", "distance": 2253.81127985037}, {"id": "14S0vXj9ls0ahzhThNjjow", "alias": "the-soup-market-milwaukee-2", "name": "The Soup Market", "image_url": "https://s3-media3.fl.yelpcdn.com/bphoto/QHx2raOm1H6qmxviifu-7Q/o.jpg", "is_closed": false, "url": "https://www.yelp.com/biz/the-soup-market-milwaukee-2?adjust_creative=a2JdNtFqB-C38ga_06BHvw&utm_campaign=yelp_api_v3&utm_medium=api_v3_business_search&utm_source=a2JdNtFqB-C38ga_06BHvw", "review_count": 37, "categories": [{"alias": "comfortfood", "title": "Comfort Food"}, {"alias": "soup", "title": "Soup"}, {"alias": "sandwiches", "title": "Sandwiches"}], "rating": 3.0, "coordinates": {"latitude": 43.0494118, "longitude": -87.9807434}, "transactions": ["delivery"], "location": {"address1": "5330 West Vliet St", "address2": "", "address3": "", "city": "Milwaukee", "zip_code": "53208", "country": "US", "state": "WI", "display_address": ["5330 West Vliet St", "Milwaukee, WI 53208"]}, "phone": "+14147270699", "display_phone": "(414) 727-0699", "distance": 2485.5184851095123}, {"id": "HUimBj4aN6c1c5yWCf7XMw", "alias": "pepis-pizza-west-allis", "name": "Pepi's Pizza", "image_url": "https://s3-media2.fl.yelpcdn.com/bphoto/m9Yymw2x006j0M1v3CVz-A/o.jpg", "is_closed": false, "url": "https://www.yelp.com/biz/pepis-pizza-west-allis?adjust_creative=a2JdNtFqB-C38ga_06BHvw&utm_campaign=yelp_api_v3&utm_medium=api_v3_business_search&utm_source=a2JdNtFqB-C38ga_06BHvw", "review_count": 16, "categories": [{"alias": "pizza", "title": "Pizza"}], "rating": 3.5, "coordinates": {"latitude": 43.017862, "longitude": -88.000436}, "transactions": [], "location": {"address1": "1329 S 70th St", "address2": "", "address3": null, "city": "West Allis", "zip_code": "53214", "country": "US", "state": "WI", "display_address": ["1329 S 70th St", "West Allis, WI 53214"]}, "phone": "+14149980528", "display_phone": "(414) 998-0528", "distance": 2653.033309084052}, {"id": "MLwTzUB9EuqCjQeR4JpGpA", "alias": "pizzeria-3301-milwaukee-3", "name": "Pizzeria 3301", "image_url": "https://s3-media4.fl.yelpcdn.com/bphoto/usVjRi9ZYjBw4kpUBGlTpA/o.jpg", "is_closed": false, "url": "https://www.yelp.com/biz/pizzeria-3301-milwaukee-3?adjust_creative=a2JdNtFqB-C38ga_06BHvw&utm_campaign=yelp_api_v3&utm_medium=api_v3_business_search&utm_source=a2JdNtFqB-C38ga_06BHvw", "review_count": 16, "categories": [{"alias": "pizza", "title": "Pizza"}], "rating": 3.5, "coordinates": {"latitude": 43.03133, "longitude": -87.95481}, "transactions": ["delivery"], "price": "$", "location": {"address1": "3301 W Canal St", "address2": "", "address3": "", "city": "Milwaukee", "zip_code": "53208", "country": "US", "state": "WI", "display_address": ["3301 W Canal St", "Milwaukee, WI 53208"]}, "phone": "+14144550347", "display_phone": "(414) 455-0347", "distance": 1198.8289940093505}, {"id": "Qx0LdyNak67vOA9v_YfZtA", "alias": "troop-cafe-milwaukee", "name": "Troop Cafe", "image_url": "https://s3-media4.fl.yelpcdn.com/bphoto/IEq1PkLQ1UgvBMNePoe43Q/o.jpg", "is_closed": false, "url": "https://www.yelp.com/biz/troop-cafe-milwaukee?adjust_creative=a2JdNtFqB-C38ga_06BHvw&utm_campaign=yelp_api_v3&utm_medium=api_v3_business_search&utm_source=a2JdNtFqB-C38ga_06BHvw", "review_count": 8, "categories": [{"alias": "sandwiches", "title": "Sandwiches"}, {"alias": "nonprofit", "title": "Community Service/Non-Profit"}], "rating": 4.5, "coordinates": {"latitude": 43.0388053, "longitude": -87.9576836}, "transactions": ["delivery"], "price": "$", "location": {"address1": "3430 W Wisconsin Ave", "address2": "", "address3": "", "city": "Milwaukee", "zip_code": "53208", "country": "US", "state": "WI", "display_address": ["3430 W Wisconsin Ave", "Milwaukee, WI 53208"]}, "phone": "+14147637490", "display_phone": "(414) 763-7490", "distance": 1595.9440961442306}, {"id": "oXvUB4t__y_nIfibcZrh6Q", "alias": "fidencio-s-pizza-milwaukee", "name": "Fidencio’s Pizza", "image_url": "https://s3-media3.fl.yelpcdn.com/bphoto/3WpLjPJnNHH_DkG_teSCJw/o.jpg", "is_closed": false, "url": "https://www.yelp.com/biz/fidencio-s-pizza-milwaukee?adjust_creative=a2JdNtFqB-C38ga_06BHvw&utm_campaign=yelp_api_v3&utm_medium=api_v3_business_search&utm_source=a2JdNtFqB-C38ga_06BHvw", "review_count": 6, "categories": [{"alias": "pizza", "title": "Pizza"}], "rating": 4.5, "coordinates": {"latitude": 43.002214, "longitude": -87.947797}, "transactions": ["delivery"], "location": {"address1": "2344 S 27th St", "address2": "", "address3": null, "city": "Milwaukee", "zip_code": "53215", "country": "US", "state": "WI", "display_address": ["2344 S 27th St", "Milwaukee, WI 53215"]}, "phone": "+14148850033", "display_phone": "(414) 885-0033", "distance": 3472.0837817733}, {"id": "sare5EVxm-sj0-4Vsxf-aA", "alias": "steakhouse100-west-allis", "name": "Steakhouse100", "image_url": "https://s3-media1.fl.yelpcdn.com/bphoto/IGWx-LkrDJiz-HyTBzVZOA/o.jpg", "is_closed": false, "url": "https://www.yelp.com/biz/steakhouse100-west-allis?adjust_creative=a2JdNtFqB-C38ga_06BHvw&utm_campaign=yelp_api_v3&utm_medium=api_v3_business_search&utm_source=a2JdNtFqB-C38ga_06BHvw", "review_count": 35, "categories": [{"alias": "steak", "title": "Steakhouses"}], "rating": 3.0, "coordinates": {"latitude": 43.01690167, "longitude": -88.00371967}, "transactions": ["delivery"], "price": "$$", "location": {"address1": "7246 W Greenfield Ave", "address2": "", "address3": "", "city": "West Allis", "zip_code": "53214", "country": "US", "state": "WI", "display_address": ["7246 W Greenfield Ave", "West Allis, WI 53214"]}, "phone": "+14147272222", "display_phone": "(414) 727-2222", "distance": 2921.5927724739004}, {"id": "6Ba64PMo_wBq5Ryoh0n_Pg", "alias": "the-fire-pit-sports-bar-and-grill-milwaukee", "name": "The Fire Pit Sports Bar & Grill", "image_url": "https://s3-media3.fl.yelpcdn.com/bphoto/SHzsYp6WcaaJ68GupX49Qw/o.jpg", "is_closed": false, "url": "https://www.yelp.com/biz/the-fire-pit-sports-bar-and-grill-milwaukee?adjust_creative=a2JdNtFqB-C38ga_06BHvw&utm_campaign=yelp_api_v3&utm_medium=api_v3_business_search&utm_source=a2JdNtFqB-C38ga_06BHvw", "review_count": 43, "categories": [{"alias": "tradamerican", "title": "American (Traditional)"}, {"alias": "burgers", "title": "Burgers"}, {"alias": "sportsbars", "title": "Sports Bars"}], "rating": 3.0, "coordinates": {"latitude": 43.0302076007274, "longitude": -87.9357125462979}, "transactions": ["delivery"], "price": "$$", "location": {"address1": "1721 W Canal St", "address2": null, "address3": "", "city": "Milwaukee", "zip_code": "53223", "country": "US", "state": "WI", "display_address": ["1721 W Canal St", "Milwaukee, WI 53223"]}, "phone": "+14148477993", "display_phone": "(414) 847-7993", "distance": 2884.867628136852}, {"id": "T_nEi8gE2hThLqZY8_rBog", "alias": "bull-shooter-saloon-milwaukee", "name": "Bull Shooter Saloon", "image_url": "https://s3-media4.fl.yelpcdn.com/bphoto/1aLdc4Ebmam46lywglj1WA/o.jpg", "is_closed": false, "url": "https://www.yelp.com/biz/bull-shooter-saloon-milwaukee?adjust_creative=a2JdNtFqB-C38ga_06BHvw&utm_campaign=yelp_api_v3&utm_medium=api_v3_business_search&utm_source=a2JdNtFqB-C38ga_06BHvw", "review_count": 12, "categories": [{"alias": "newamerican", "title": "American (New)"}], "rating": 3.5, "coordinates": {"latitude": 43.025841, "longitude": -87.992097}, "transactions": ["delivery"], "price": "$", "location": {"address1": "604 S 64th St", "address2": "", "address3": "", "city": "Milwaukee", "zip_code": "53214", "country": "US", "state": "WI", "display_address": ["604 S 64th St", "Milwaukee, WI 53214"]}, "phone": "", "display_phone": "", "distance": 1728.2450429083328}, {"id": "0IG9X2r-bcBX-xtwIalhoQ", "alias": "cousins-subs-wauwatosa-5", "name": "Cousins Subs", "image_url": "https://s3-media2.fl.yelpcdn.com/bphoto/icOa7R0qECbOg1UhHn9qeg/o.jpg", "is_closed": false, "url": "https://www.yelp.com/biz/cousins-subs-wauwatosa-5?adjust_creative=a2JdNtFqB-C38ga_06BHvw&utm_campaign=yelp_api_v3&utm_medium=api_v3_business_search&utm_source=a2JdNtFqB-C38ga_06BHvw", "review_count": 15, "categories": [{"alias": "sandwiches", "title": "Sandwiches"}, {"alias": "delis", "title": "Delis"}], "rating": 3.5, "coordinates": {"latitude": 43.046733, "longitude": -87.997589}, "transactions": ["delivery"], "price": "$", "location": {"address1": "6810 W State St", "address2": "", "address3": "", "city": "Wauwatosa", "zip_code": "53213", "country": "US", "state": "WI", "display_address": ["6810 W State St", "Wauwatosa, WI 53213"]}, "phone": "+14142580575", "display_phone": "(414) 258-0575", "distance": 2981.594358072064}, {"id": "DmthMWYvmPEKmyBSpfEI_w", "alias": "el-tapatio-taco-truck-milwaukee", "name": "El Tapatio Taco Truck", "image_url": "https://s3-media2.fl.yelpcdn.com/bphoto/Yj9IJ_XzMCbaevFd5UkL0Q/o.jpg", "is_closed": false, "url": "https://www.yelp.com/biz/el-tapatio-taco-truck-milwaukee?adjust_creative=a2JdNtFqB-C38ga_06BHvw&utm_campaign=yelp_api_v3&utm_medium=api_v3_business_search&utm_source=a2JdNtFqB-C38ga_06BHvw", "review_count": 5, "categories": [{"alias": "foodtrucks", "title": "Food Trucks"}, {"alias": "tacos", "title": "Tacos"}], "rating": 4.5, "coordinates": {"latitude": 43.0029658582858, "longitude": -87.9348938539624}, "transactions": [], "location": {"address1": "1701 W Lincoln Ave", "address2": "", "address3": null, "city": "Milwaukee", "zip_code": "53215", "country": "US", "state": "WI", "display_address": ["1701 W Lincoln Ave", "Milwaukee, WI 53215"]}, "phone": "+14149026344", "display_phone": "(414) 902-6344", "distance": 4077.567268278073}, {"id": "s2F8zedtmw8mvhp9KIIjnA", "alias": "dopps-bar-and-grill-west-allis", "name": "Dopp's Bar & Grill", "image_url": "https://s3-media2.fl.yelpcdn.com/bphoto/xCCUHSthOPa1S_15xEpT3g/o.jpg", "is_closed": false, "url": "https://www.yelp.com/biz/dopps-bar-and-grill-west-allis?adjust_creative=a2JdNtFqB-C38ga_06BHvw&utm_campaign=yelp_api_v3&utm_medium=api_v3_business_search&utm_source=a2JdNtFqB-C38ga_06BHvw", "review_count": 9, "categories": [{"alias": "bars", "title": "Bars"}, {"alias": "tradamerican", "title": "American (Traditional)"}], "rating": 4.0, "coordinates": {"latitude": 43.0110244750977, "longitude": -87.9982528686523}, "transactions": ["delivery"], "price": "$", "location": {"address1": "1753 S 68th St", "address2": null, "address3": null, "city": "West Allis", "zip_code": "53214", "country": "US", "state": "WI", "display_address": ["1753 S 68th St", "West Allis, WI 53214"]}, "phone": "+14142571400", "display_phone": "(414) 257-1400", "distance": 2918.6520138173223}, {"id": "xJNCcg1XqRuh5xKzWhJJbA", "alias": "the-crooked-crow-west-allis", "name": "The Crooked Crow", "image_url": "https://s3-media4.fl.yelpcdn.com/bphoto/ED4SfBcFneznOlTeG-Pziw/o.jpg", "is_closed": false, "url": "https://www.yelp.com/biz/the-crooked-crow-west-allis?adjust_creative=a2JdNtFqB-C38ga_06BHvw&utm_campaign=yelp_api_v3&utm_medium=api_v3_business_search&utm_source=a2JdNtFqB-C38ga_06BHvw", "review_count": 6, "categories": [{"alias": "bars", "title": "Bars"}, {"alias": "burgers", "title": "Burgers"}], "rating": 4.5, "coordinates": {"latitude": 43.01812, "longitude": -87.98771}, "transactions": ["delivery"], "location": {"address1": "1309 S 60th St", "address2": null, "address3": "", "city": "West Allis", "zip_code": "53214", "country": "US", "state": "WI", "display_address": ["1309 S 60th St", "West Allis, WI 53214"]}, "phone": "+14147632511", "display_phone": "(414) 763-2511", "distance": 1764.417537190906}, {"id": "MQrwwxtB4VVoYZ3MbguB4A", "alias": "the-buffet-milwaukee", "name": "The Buffet", "image_url": "https://s3-media3.fl.yelpcdn.com/bphoto/v8ahgRcOrGk4Yg8y5fWEsw/o.jpg", "is_closed": false, "url": "https://www.yelp.com/biz/the-buffet-milwaukee?adjust_creative=a2JdNtFqB-C38ga_06BHvw&utm_campaign=yelp_api_v3&utm_medium=api_v3_business_search&utm_source=a2JdNtFqB-C38ga_06BHvw", "review_count": 40, "categories": [{"alias": "buffets", "title": "Buffets"}, {"alias": "breakfast_brunch", "title": "Breakfast & Brunch"}], "rating": 2.5, "coordinates": {"latitude": 43.030426, "longitude": -87.934866}, "transactions": [], "price": "$$", "location": {"address1": "1721 W Canal St", "address2": "", "address3": "", "city": "Milwaukee", "zip_code": "53223", "country": "US", "state": "WI", "display_address": ["1721 W Canal St", "Milwaukee, WI 53223"]}, "phone": "+14148477882", "display_phone": "(414) 847-7882", "distance": 2955.310587805946}, {"id": "dqkicZtQnUQ3V-Qlh-pr-Q", "alias": "noodles-and-company-milwaukee-12", "name": "Noodles & Company", "image_url": "https://s3-media1.fl.yelpcdn.com/bphoto/L4ugGS6J0ZjQdRszdNomaA/o.jpg", "is_closed": false, "url": "https://www.yelp.com/biz/noodles-and-company-milwaukee-12?adjust_creative=a2JdNtFqB-C38ga_06BHvw&utm_campaign=yelp_api_v3&utm_medium=api_v3_business_search&utm_source=a2JdNtFqB-C38ga_06BHvw", "review_count": 16, "categories": [{"alias": "noodles", "title": "Noodles"}, {"alias": "salad", "title": "Salad"}, {"alias": "pastashops", "title": "Pasta Shops"}], "rating": 3.5, "coordinates": {"latitude": 43.0176563471536, "longitude": -87.9672798514367}, "transactions": [], "price": "$", "location": {"address1": "1310 Miller Park Way", "address2": "", "address3": "", "city": "Milwaukee", "zip_code": "53214", "country": "US", "state": "WI", "display_address": ["1310 Miller Park Way", "Milwaukee, WI 53214"]}, "phone": "+14145095192", "display_phone": "(414) 509-5192", "distance": 1227.3600660769368}, {"id": "OrSK6tIcPiG9nnE0mXPFSg", "alias": "villas-milwaukee", "name": "Villa's", "image_url": "https://s3-media2.fl.yelpcdn.com/bphoto/z86MaBSxbYSjnrPBjnrzPg/o.jpg", "is_closed": false, "url": "https://www.yelp.com/biz/villas-milwaukee?adjust_creative=a2JdNtFqB-C38ga_06BHvw&utm_campaign=yelp_api_v3&utm_medium=api_v3_business_search&utm_source=a2JdNtFqB-C38ga_06BHvw", "review_count": 6, "categories": [{"alias": "mexican", "title": "Mexican"}], "rating": 4.0, "coordinates": {"latitude": 43.01726, "longitude": -87.94579}, "transactions": ["delivery"], "price": "$$", "location": {"address1": "2522 W Greenfield Ave", "address2": "", "address3": "", "city": "Milwaukee", "zip_code": "53204", "country": "US", "state": "WI", "display_address": ["2522 W Greenfield Ave", "Milwaukee, WI 53204"]}, "phone": "+14146721943", "display_phone": "(414) 672-1943", "distance": 2402.9311158892306}, {"id": "6WaDiVFJEyI56bE_2vIskg", "alias": "chilis-w-milwaukee-4", "name": "Chili's", "image_url": "https://s3-media4.fl.yelpcdn.com/bphoto/4T1FchmWr1lFLRzndH7Dbw/o.jpg", "is_closed": false, "url": "https://www.yelp.com/biz/chilis-w-milwaukee-4?adjust_creative=a2JdNtFqB-C38ga_06BHvw&utm_campaign=yelp_api_v3&utm_medium=api_v3_business_search&utm_source=a2JdNtFqB-C38ga_06BHvw", "review_count": 52, "categories": [{"alias": "bars", "title": "Bars"}, {"alias": "tex-mex", "title": "Tex-Mex"}, {"alias": "tradamerican", "title": "American (Traditional)"}], "rating": 2.5, "coordinates": {"latitude": 43.0139312744141, "longitude": -87.9682159423828}, "transactions": [], "price": "$$", "location": {"address1": "1601 Miller Pkwy", "address2": "", "address3": "", "city": "W Milwaukee", "zip_code": "53214", "country": "US", "state": "WI", "display_address": ["1601 Miller Pkwy", "W Milwaukee, WI 53214"]}, "phone": "+14143899739", "display_phone": "(414) 389-9739", "distance": 1618.38627572809}, {"id": "Cd4TnmmAuVdO9CrFJQ-0Aw", "alias": "chicken-palace-fiesta-garibaldi-2-milwaukee-milwaukee", "name": "Chicken Palace Fiesta Garibaldi 2 - Milwaukee", "image_url": "https://s3-media4.fl.yelpcdn.com/bphoto/Y3cPzGV-iX99T9oZY9wqkg/o.jpg", "is_closed": false, "url": "https://www.yelp.com/biz/chicken-palace-fiesta-garibaldi-2-milwaukee-milwaukee?adjust_creative=a2JdNtFqB-C38ga_06BHvw&utm_campaign=yelp_api_v3&utm_medium=api_v3_business_search&utm_source=a2JdNtFqB-C38ga_06BHvw", "review_count": 29, "categories": [{"alias": "mexican", "title": "Mexican"}, {"alias": "hotdogs", "title": "Fast Food"}, {"alias": "tradamerican", "title": "American (Traditional)"}], "rating": 3.0, "coordinates": {"latitude": 43.021434057230074, "longitude": -87.957413736869}, "transactions": ["delivery", "pickup"], "price": "$", "location": {"address1": "3433 W National Ave", "address2": "", "address3": null, "city": "Milwaukee", "zip_code": "53215", "country": "US", "state": "WI", "display_address": ["3433 W National Ave", "Milwaukee, WI 53215"]}, "phone": "+14147635775", "display_phone": "(414) 763-5775", "distance": 1352.1275064419422}, {"id": "LFf0_pEoMwKrRs85ixD7YQ", "alias": "kokopellis-pub-and-grub-milwaukee", "name": "Kokopelli's Pub & Grub", "image_url": "https://s3-media2.fl.yelpcdn.com/bphoto/SlmUAUKfp5_IQvHOQiTS-w/o.jpg", "is_closed": false, "url": "https://www.yelp.com/biz/kokopellis-pub-and-grub-milwaukee?adjust_creative=a2JdNtFqB-C38ga_06BHvw&utm_campaign=yelp_api_v3&utm_medium=api_v3_business_search&utm_source=a2JdNtFqB-C38ga_06BHvw", "review_count": 15, "categories": [{"alias": "burgers", "title": "Burgers"}, {"alias": "tradamerican", "title": "American (Traditional)"}], "rating": 3.0, "coordinates": {"latitude": 43.0182419, "longitude": -87.9878235}, "transactions": ["delivery"], "price": "$$", "location": {"address1": "6001 W Madison St", "address2": "", "address3": "", "city": "Milwaukee", "zip_code": "53214", "country": "US", "state": "WI", "display_address": ["6001 W Madison St", "Milwaukee, WI 53214"]}, "phone": "+14144768788", "display_phone": "(414) 476-8788", "distance": 1753.137830447951}, {"id": "LsJ7GSeTmrzQaAFlLb-T2Q", "alias": "chilango-express-milwaukee", "name": "Chilango Express", "image_url": "https://s3-media2.fl.yelpcdn.com/bphoto/wHF0q0uvmN3z2uuSAQCAkA/o.jpg", "is_closed": false, "url": "https://www.yelp.com/biz/chilango-express-milwaukee?adjust_creative=a2JdNtFqB-C38ga_06BHvw&utm_campaign=yelp_api_v3&utm_medium=api_v3_business_search&utm_source=a2JdNtFqB-C38ga_06BHvw", "review_count": 3, "categories": [{"alias": "foodtrucks", "title": "Food Trucks"}, {"alias": "mexican", "title": "Mexican"}], "rating": 5.0, "coordinates": {"latitude": 43.0219408996642, "longitude": -87.9480648692232}, "transactions": [], "price": "$", "location": {"address1": "S Layton Blvd & W National Ave", "address2": "", "address3": "", "city": "Milwaukee", "zip_code": "53215", "country": "US", "state": "WI", "display_address": ["S Layton Blvd & W National Ave", "Milwaukee, WI 53215"]}, "phone": "+14142332904", "display_phone": "(414) 233-2904", "distance": 2003.7082457557506}, {"id": "-1Z-zavpYd5bZSiHtiC73Q", "alias": "la-costeña-cafe-west-allis", "name": "La Costeña Cafe", "image_url": "https://s3-media2.fl.yelpcdn.com/bphoto/Rcj6O-ZJczcT3fbZ31gqdg/o.jpg", "is_closed": false, "url": "https://www.yelp.com/biz/la-coste%C3%B1a-cafe-west-allis?adjust_creative=a2JdNtFqB-C38ga_06BHvw&utm_campaign=yelp_api_v3&utm_medium=api_v3_business_search&utm_source=a2JdNtFqB-C38ga_06BHvw", "review_count": 9, "categories": [{"alias": "mexican", "title": "Mexican"}], "rating": 3.5, "coordinates": {"latitude": 43.01011483, "longitude": -87.98574283}, "transactions": ["delivery"], "location": {"address1": "5823 W Burnham St", "address2": null, "address3": "", "city": "West Allis", "zip_code": "53219", "country": "US", "state": "WI", "display_address": ["5823 W Burnham St", "West Allis, WI 53219"]}, "phone": "+14148376685", "display_phone": "(414) 837-6685", "distance": 2344.684049603834}, {"id": "ofTs45Aw4m7iNozZohkzmw", "alias": "cousins-subs-west-allis", "name": "Cousins Subs", "image_url": "https://s3-media1.fl.yelpcdn.com/bphoto/lDwPApZWxKXSlqVMIpxMPg/o.jpg", "is_closed": false, "url": "https://www.yelp.com/biz/cousins-subs-west-allis?adjust_creative=a2JdNtFqB-C38ga_06BHvw&utm_campaign=yelp_api_v3&utm_medium=api_v3_business_search&utm_source=a2JdNtFqB-C38ga_06BHvw", "review_count": 11, "categories": [{"alias": "sandwiches", "title": "Sandwiches"}, {"alias": "delis", "title": "Delis"}], "rating": 3.5, "coordinates": {"latitude": 43.0169148, "longitude": -87.9935934}, "transactions": ["delivery"], "price": "$", "location": {"address1": "6512 W Greenfield Ave", "address2": "", "address3": "", "city": "West Allis", "zip_code": "53214", "country": "US", "state": "WI", "display_address": ["6512 W Greenfield Ave", "West Allis, WI 53214"]}, "phone": "+14144530500", "display_phone": "(414) 453-0500", "distance": 2225.3823292706415}, {"id": "GfMJm6ub5VjqgyObUnnRcw", "alias": "panda-hut-chinese-restaurant-milwaukee", "name": "Panda Hut Chinese Restaurant", "image_url": "https://s3-media1.fl.yelpcdn.com/bphoto/_5n2eoAj3brfP1iz8nKHQA/o.jpg", "is_closed": false, "url": "https://www.yelp.com/biz/panda-hut-chinese-restaurant-milwaukee?adjust_creative=a2JdNtFqB-C38ga_06BHvw&utm_campaign=yelp_api_v3&utm_medium=api_v3_business_search&utm_source=a2JdNtFqB-C38ga_06BHvw", "review_count": 21, "categories": [{"alias": "chinese", "title": "Chinese"}], "rating": 3.0, "coordinates": {"latitude": 43.0169296264648, "longitude": -88.0020904541016}, "transactions": ["delivery"], "price": "$$", "location": {"address1": "7136 W Greenfield Ave", "address2": "", "address3": "", "city": "Milwaukee", "zip_code": "53214", "country": "US", "state": "WI", "display_address": ["7136 W Greenfield Ave", "Milwaukee, WI 53214"]}, "phone": "+14147741689", "display_phone": "(414) 774-1689", "distance": 2819.035794514855}, {"id": "JEQvXYfjOxxptF5JA5HIlg", "alias": "canal-street-café-milwaukee", "name": "Canal Street Café", "image_url": "https://s3-media3.fl.yelpcdn.com/bphoto/OHdfIRZ5Uzd8jT06ayMZew/o.jpg", "is_closed": false, "url": "https://www.yelp.com/biz/canal-street-caf%C3%A9-milwaukee?adjust_creative=a2JdNtFqB-C38ga_06BHvw&utm_campaign=yelp_api_v3&utm_medium=api_v3_business_search&utm_source=a2JdNtFqB-C38ga_06BHvw", "review_count": 21, "categories": [{"alias": "tradamerican", "title": "American (Traditional)"}, {"alias": "breakfast_brunch", "title": "Breakfast & Brunch"}, {"alias": "burgers", "title": "Burgers"}], "rating": 3.0, "coordinates": {"latitude": 43.03039, "longitude": -87.93478}, "transactions": ["delivery"], "price": "$$", "location": {"address1": "1721 W Canal St", "address2": null, "address3": "", "city": "Milwaukee", "zip_code": "53233", "country": "US", "state": "WI", "display_address": ["1721 W Canal St", "Milwaukee, WI 53233"]}, "phone": "+14148478510", "display_phone": "(414) 847-8510", "distance": 2953.7515325232043}, {"id": "eT2wKcsTzk41G1xMiT0oTg", "alias": "ihop-west-milwaukee", "name": "IHOP", "image_url": "https://s3-media2.fl.yelpcdn.com/bphoto/vMTkxvIa2NDNYT8rzAsFQA/o.jpg", "is_closed": false, "url": "https://www.yelp.com/biz/ihop-west-milwaukee?adjust_creative=a2JdNtFqB-C38ga_06BHvw&utm_campaign=yelp_api_v3&utm_medium=api_v3_business_search&utm_source=a2JdNtFqB-C38ga_06BHvw", "review_count": 56, "categories": [{"alias": "breakfast_brunch", "title": "Breakfast & Brunch"}, {"alias": "tradamerican", "title": "American (Traditional)"}, {"alias": "burgers", "title": "Burgers"}], "rating": 2.0, "coordinates": {"latitude": 43.02033, "longitude": -87.96927}, "transactions": ["delivery", "pickup"], "price": "$$", "location": {"address1": "1110 Miller Park Way", "address2": "", "address3": "", "city": "West Milwaukee", "zip_code": "53214", "country": "US", "state": "WI", "display_address": ["1110 Miller Park Way", "West Milwaukee, WI 53214"]}, "phone": "+14146478645", "display_phone": "(414) 647-8645", "distance": 902.3883107155}, {"id": "KxGG30YV2au45hsC1s7drQ", "alias": "panda-express-west-milwaukee", "name": "Panda Express", "image_url": "https://s3-media4.fl.yelpcdn.com/bphoto/-9ZyPFyE87ojrDgYs7ZoYw/o.jpg", "is_closed": false, "url": "https://www.yelp.com/biz/panda-express-west-milwaukee?adjust_creative=a2JdNtFqB-C38ga_06BHvw&utm_campaign=yelp_api_v3&utm_medium=api_v3_business_search&utm_source=a2JdNtFqB-C38ga_06BHvw", "review_count": 38, "categories": [{"alias": "chinese", "title": "Chinese"}, {"alias": "hotdogs", "title": "Fast Food"}], "rating": 2.5, "coordinates": {"latitude": 43.01914, "longitude": -87.96789}, "transactions": ["delivery", "pickup"], "price": "$", "location": {"address1": "1210 Miller Park Way", "address2": "", "address3": "", "city": "West Milwaukee", "zip_code": "53214", "country": "US", "state": "WI", "display_address": ["1210 Miller Park Way", "West Milwaukee, WI 53214"]}, "phone": "+14143843625", "display_phone": "(414) 384-3625", "distance": 1045.6174993309742}, {"id": "78-1OnNb2CyHs2JhWhAWhw", "alias": "china-taste-milwaukee", "name": "China Taste", "image_url": "", "is_closed": false, "url": "https://www.yelp.com/biz/china-taste-milwaukee?adjust_creative=a2JdNtFqB-C38ga_06BHvw&utm_campaign=yelp_api_v3&utm_medium=api_v3_business_search&utm_source=a2JdNtFqB-C38ga_06BHvw", "review_count": 7, "categories": [{"alias": "chinese", "title": "Chinese"}], "rating": 3.5, "coordinates": {"latitude": 43.0396614, "longitude": -87.9478455}, "transactions": ["delivery", "pickup"], "location": {"address1": "749 N 27th St", "address2": "", "address3": "", "city": "Milwaukee", "zip_code": "53208", "country": "US", "state": "WI", "display_address": ["749 N 27th St", "Milwaukee, WI 53208"]}, "phone": "+14149337880", "display_phone": "(414) 933-7880", "distance": 2261.8687325221035}, {"id": "CyelIkIfEOR_TTGCTUEwLg", "alias": "qdoba-mexican-eats-milwaukee-10", "name": "QDOBA Mexican Eats", "image_url": "https://s3-media1.fl.yelpcdn.com/bphoto/iYcRBYeM1MzMGP4it5P1cw/o.jpg", "is_closed": false, "url": "https://www.yelp.com/biz/qdoba-mexican-eats-milwaukee-10?adjust_creative=a2JdNtFqB-C38ga_06BHvw&utm_campaign=yelp_api_v3&utm_medium=api_v3_business_search&utm_source=a2JdNtFqB-C38ga_06BHvw", "review_count": 24, "categories": [{"alias": "mexican", "title": "Mexican"}, {"alias": "hotdogs", "title": "Fast Food"}], "rating": 2.5, "coordinates": {"latitude": 43.0504044566102, "longitude": -88.0079195602048}, "transactions": ["delivery"], "price": "$", "location": {"address1": "1417 N Wauwatosa Ave", "address2": "", "address3": "", "city": "Milwaukee", "zip_code": "53213", "country": "US", "state": "WI", "display_address": ["1417 N Wauwatosa Ave", "Milwaukee, WI 53213"]}, "phone": "+14147558001", "display_phone": "(414) 755-8001", "distance": 3869.3729904031266}, {"id": "JlbdGikJOTpCt5236QN8zA", "alias": "la-cabana-mexican-food-milwaukee", "name": "La Cabana Mexican Food", "image_url": "https://s3-media2.fl.yelpcdn.com/bphoto/JvHfvhU4xL7Sqyl9Pc4abw/o.jpg", "is_closed": false, "url": "https://www.yelp.com/biz/la-cabana-mexican-food-milwaukee?adjust_creative=a2JdNtFqB-C38ga_06BHvw&utm_campaign=yelp_api_v3&utm_medium=api_v3_business_search&utm_source=a2JdNtFqB-C38ga_06BHvw", "review_count": 3, "categories": [{"alias": "mexican", "title": "Mexican"}], "rating": 4.5, "coordinates": {"latitude": 43.0028951, "longitude": -87.9384531}, "transactions": ["delivery"], "price": "$", "location": {"address1": "2001 W Lincoln Ave", "address2": null, "address3": null, "city": "Milwaukee", "zip_code": "53215", "country": "US", "state": "WI", "display_address": ["2001 W Lincoln Ave", "Milwaukee, WI 53215"]}, "phone": "+14143890975", "display_phone": "(414) 389-0975", "distance": 3878.9023374181097}, {"id": "BTuj3oXtyDxs2v9Qkpij0A", "alias": "las-palmas-west-allis", "name": "Las Palmas", "image_url": "https://s3-media4.fl.yelpcdn.com/bphoto/NsQq5EitlybSk4etnGMdJw/o.jpg", "is_closed": false, "url": "https://www.yelp.com/biz/las-palmas-west-allis?adjust_creative=a2JdNtFqB-C38ga_06BHvw&utm_campaign=yelp_api_v3&utm_medium=api_v3_business_search&utm_source=a2JdNtFqB-C38ga_06BHvw", "review_count": 32, "categories": [{"alias": "pizza", "title": "Pizza"}, {"alias": "mexican", "title": "Mexican"}], "rating": 2.5, "coordinates": {"latitude": 43.0100530385971, "longitude": -87.9874621331692}, "transactions": ["delivery", "pickup"], "price": "$$", "location": {"address1": "1901 S 60th St", "address2": "", "address3": "", "city": "West Allis", "zip_code": "53219", "country": "US", "state": "WI", "display_address": ["1901 S 60th St", "West Allis, WI 53219"]}, "phone": "+14143299600", "display_phone": "(414) 329-9600", "distance": 2428.478075515376}, {"id": "L-dPIt_A0xL-pFo231deJg", "alias": "arbys-milwaukee-4", "name": "Arby's", "image_url": "https://s3-media1.fl.yelpcdn.com/bphoto/bh3J97xdD0WV7zT0UzXyCQ/o.jpg", "is_closed": false, "url": "https://www.yelp.com/biz/arbys-milwaukee-4?adjust_creative=a2JdNtFqB-C38ga_06BHvw&utm_campaign=yelp_api_v3&utm_medium=api_v3_business_search&utm_source=a2JdNtFqB-C38ga_06BHvw", "review_count": 6, "categories": [{"alias": "hotdogs", "title": "Fast Food"}, {"alias": "sandwiches", "title": "Sandwiches"}], "rating": 3.5, "coordinates": {"latitude": 43.0126037597656, "longitude": -87.9682388305664}, "transactions": [], "price": "$", "location": {"address1": "1661 Miller Park Way", "address2": null, "address3": null, "city": "Milwaukee", "zip_code": "53214", "country": "US", "state": "WI", "display_address": ["1661 Miller Park Way", "Milwaukee, WI 53214"]}, "phone": "+14143848905", "display_phone": "(414) 384-8905", "distance": 1746.7193307864788}, {"id": "cJc77l9CRym_vkdx1rs5ow", "alias": "jimmy-johns-wauwatosa-5", "name": "Jimmy John's", "image_url": "https://s3-media2.fl.yelpcdn.com/bphoto/h4Fc1tZkFl1VYukmmf8uvQ/o.jpg", "is_closed": false, "url": "https://www.yelp.com/biz/jimmy-johns-wauwatosa-5?adjust_creative=a2JdNtFqB-C38ga_06BHvw&utm_campaign=yelp_api_v3&utm_medium=api_v3_business_search&utm_source=a2JdNtFqB-C38ga_06BHvw", "review_count": 16, "categories": [{"alias": "hotdogs", "title": "Fast Food"}, {"alias": "sandwiches", "title": "Sandwiches"}, {"alias": "delis", "title": "Delis"}], "rating": 3.0, "coordinates": {"latitude": 43.048988, "longitude": -88.005434}, "transactions": [], "price": "$", "location": {"address1": "7460 W State St", "address2": "", "address3": null, "city": "Wauwatosa", "zip_code": "53213", "country": "US", "state": "WI", "display_address": ["7460 W State St", "Wauwatosa, WI 53213"]}, "phone": "+14147782008", "display_phone": "(414) 778-2008", "distance": 3621.586626312135}, {"id": "Wf06SM_X-0MyCH6HDOQbHw", "alias": "taco-bell-milwaukee-14", "name": "Taco Bell", "image_url": "https://s3-media2.fl.yelpcdn.com/bphoto/J0h7-fqIarsaGMMGMITEfA/o.jpg", "is_closed": false, "url": "https://www.yelp.com/biz/taco-bell-milwaukee-14?adjust_creative=a2JdNtFqB-C38ga_06BHvw&utm_campaign=yelp_api_v3&utm_medium=api_v3_business_search&utm_source=a2JdNtFqB-C38ga_06BHvw", "review_count": 24, "categories": [{"alias": "mexican", "title": "Mexican"}, {"alias": "hotdogs", "title": "Fast Food"}], "rating": 2.5, "coordinates": {"latitude": 43.038683, "longitude": -87.940845}, "transactions": ["delivery"], "price": "$", "location": {"address1": "2210 W Wisconsin Ave", "address2": "", "address3": "", "city": "Milwaukee", "zip_code": "53233", "country": "US", "state": "WI", "display_address": ["2210 W Wisconsin Ave", "Milwaukee, WI 53233"]}, "phone": "+14143447778", "display_phone": "(414) 344-7778", "distance": 2715.8701233804413}, {"id": "WAXdrnryaMI_XzKjVR-8Rg", "alias": "qdoba-mexican-eats-milwaukee-3", "name": "QDOBA Mexican Eats", "image_url": "https://s3-media3.fl.yelpcdn.com/bphoto/STSkBxJ9zZtf7EFIro-LyQ/o.jpg", "is_closed": false, "url": "https://www.yelp.com/biz/qdoba-mexican-eats-milwaukee-3?adjust_creative=a2JdNtFqB-C38ga_06BHvw&utm_campaign=yelp_api_v3&utm_medium=api_v3_business_search&utm_source=a2JdNtFqB-C38ga_06BHvw", "review_count": 12, "categories": [{"alias": "mexican", "title": "Mexican"}, {"alias": "hotdogs", "title": "Fast Food"}], "rating": 3.0, "coordinates": {"latitude": 43.0183856, "longitude": -87.9672195}, "transactions": ["delivery"], "price": "$", "location": {"address1": "1240 Miller Park Way", "address2": "", "address3": "", "city": "Milwaukee", "zip_code": "53214", "country": "US", "state": "WI", "display_address": ["1240 Miller Park Way", "Milwaukee, WI 53214"]}, "phone": "+14147554604", "display_phone": "(414) 755-4604", "distance": 1150.448119450018}, {"id": "bjgXBX1BUa8gC4usGw-Few", "alias": "taco-bell-west-allis", "name": "Taco Bell", "image_url": "https://s3-media4.fl.yelpcdn.com/bphoto/uNljqe68q10h1XrK_ePJHA/o.jpg", "is_closed": false, "url": "https://www.yelp.com/biz/taco-bell-west-allis?adjust_creative=a2JdNtFqB-C38ga_06BHvw&utm_campaign=yelp_api_v3&utm_medium=api_v3_business_search&utm_source=a2JdNtFqB-C38ga_06BHvw", "review_count": 26, "categories": [{"alias": "mexican", "title": "Mexican"}, {"alias": "hotdogs", "title": "Fast Food"}], "rating": 2.5, "coordinates": {"latitude": 43.017125, "longitude": -87.987625}, "transactions": ["delivery"], "price": "$", "location": {"address1": "1361 S. 60th St.", "address2": "", "address3": "", "city": "West Allis", "zip_code": "53214", "country": "US", "state": "WI", "display_address": ["1361 S. 60th St.", "West Allis, WI 53214"]}, "phone": "+14142581607", "display_phone": "(414) 258-1607", "distance": 1831.7775651469485}, {"id": "9jc5Cgvu1ZUKlr4PnTXWQA", "alias": "popeyes-louisiana-kitchen-milwaukee-8", "name": "Popeyes Louisiana Kitchen", "image_url": "https://s3-media3.fl.yelpcdn.com/bphoto/dZGWixxUydTE40EDrUAmMw/o.jpg", "is_closed": false, "url": "https://www.yelp.com/biz/popeyes-louisiana-kitchen-milwaukee-8?adjust_creative=a2JdNtFqB-C38ga_06BHvw&utm_campaign=yelp_api_v3&utm_medium=api_v3_business_search&utm_source=a2JdNtFqB-C38ga_06BHvw", "review_count": 41, "categories": [{"alias": "hotdogs", "title": "Fast Food"}, {"alias": "chicken_wings", "title": "Chicken Wings"}], "rating": 2.0, "coordinates": {"latitude": 43.0164, "longitude": -87.96647}, "transactions": ["delivery"], "price": "$", "location": {"address1": "4209 W Greenfield Ave", "address2": "", "address3": "", "city": "Milwaukee", "zip_code": "53215", "country": "US", "state": "WI", "display_address": ["4209 W Greenfield Ave", "Milwaukee, WI 53215"]}, "phone": "+14149795713", "display_phone": "(414) 979-5713", "distance": 1372.0613462945012}, {"id": "NK7LKYQZxKMf7kdSxY7NWQ", "alias": "st-florian-fish-fry-west-milwaukee", "name": "St. Florian Fish Fry", "image_url": "", "is_closed": false, "url": "https://www.yelp.com/biz/st-florian-fish-fry-west-milwaukee?adjust_creative=a2JdNtFqB-C38ga_06BHvw&utm_campaign=yelp_api_v3&utm_medium=api_v3_business_search&utm_source=a2JdNtFqB-C38ga_06BHvw", "review_count": 3, "categories": [{"alias": "fishnchips", "title": "Fish & Chips"}], "rating": 4.5, "coordinates": {"latitude": 43.0186662822962, "longitude": -87.9700633138418}, "transactions": [], "location": {"address1": "1215 S 45th St", "address2": "", "address3": "", "city": "West Milwaukee", "zip_code": "53214", "country": "US", "state": "WI", "display_address": ["1215 S 45th St", "West Milwaukee, WI 53214"]}, "phone": "+14143833565", "display_phone": "(414) 383-3565", "distance": 1061.498921663246}, {"id": "qWU91JhWoN_jGWsxthRbRA", "alias": "pete-s-pops-west-allis", "name": "Pete’s Pops", "image_url": "https://s3-media1.fl.yelpcdn.com/bphoto/MQEF2tmF-GvXlKORCyGf7w/o.jpg", "is_closed": false, "url": "https://www.yelp.com/biz/pete-s-pops-west-allis?adjust_creative=a2JdNtFqB-C38ga_06BHvw&utm_campaign=yelp_api_v3&utm_medium=api_v3_business_search&utm_source=a2JdNtFqB-C38ga_06BHvw", "review_count": 2, "categories": [{"alias": "icecream", "title": "Ice Cream & Frozen Yogurt"}, {"alias": "foodstands", "title": "Food Stands"}], "rating": 5.0, "coordinates": {"latitude": 43.008304, "longitude": -88.001746}, "transactions": [], "location": {"address1": "1977 S 71st St", "address2": "", "address3": null, "city": "West Allis", "zip_code": "53219", "country": "US", "state": "WI", "display_address": ["1977 S 71st St", "West Allis, WI 53219"]}, "phone": "+14149888916", "display_phone": "(414) 988-8916", "distance": 3338.496823392838}, {"id": "_lc4vkMRf9Bl9BQ-tVbgkA", "alias": "wendys-milwaukee-9", "name": "Wendy's", "image_url": "https://s3-media2.fl.yelpcdn.com/bphoto/YOvG2tbff-sXebn0T6S0RA/o.jpg", "is_closed": false, "url": "https://www.yelp.com/biz/wendys-milwaukee-9?adjust_creative=a2JdNtFqB-C38ga_06BHvw&utm_campaign=yelp_api_v3&utm_medium=api_v3_business_search&utm_source=a2JdNtFqB-C38ga_06BHvw", "review_count": 5, "categories": [{"alias": "hotdogs", "title": "Fast Food"}, {"alias": "burgers", "title": "Burgers"}], "rating": 3.5, "coordinates": {"latitude": 43.002562, "longitude": -87.967099}, "transactions": ["delivery"], "price": "$", "location": {"address1": "2310 South 43Rd Street", "address2": "", "address3": "", "city": "Milwaukee", "zip_code": "53219", "country": "US", "state": "WI", "display_address": ["2310 South 43Rd Street", "Milwaukee, WI 53219"]}, "phone": "+14143840076", "display_phone": "(414) 384-0076", "distance": 2881.3531604677346}, {"id": "-Q_vyPbxeMnE8Wq2c0LfGw", "alias": "el-jalapeno-milwaukee", "name": "El Jalapeno", "image_url": "https://s3-media1.fl.yelpcdn.com/bphoto/5CZnmPZwhycb5Ed1GJcPog/o.jpg", "is_closed": false, "url": "https://www.yelp.com/biz/el-jalapeno-milwaukee?adjust_creative=a2JdNtFqB-C38ga_06BHvw&utm_campaign=yelp_api_v3&utm_medium=api_v3_business_search&utm_source=a2JdNtFqB-C38ga_06BHvw", "review_count": 6, "categories": [{"alias": "restaurants", "title": "Restaurants"}], "rating": 3.5, "coordinates": {"latitude": 43.0228882, "longitude": -87.9396667}, "transactions": ["delivery"], "price": "$", "location": {"address1": "2106 W National Ave", "address2": "", "address3": "", "city": "Milwaukee", "zip_code": "53204", "country": "US", "state": "WI", "display_address": ["2106 W National Ave", "Milwaukee, WI 53204"]}, "phone": "+14143834774", "display_phone": "(414) 383-4774", "distance": 2619.900404821663}, {"id": "MXKF4gBXk64lN2y4__EBWQ", "alias": "aj-bombers-miller-park-milwaukee", "name": "AJ Bombers @ Miller Park", "image_url": "https://s3-media2.fl.yelpcdn.com/bphoto/bu9xS0R6g0XxCJll9HJenw/o.jpg", "is_closed": false, "url": "https://www.yelp.com/biz/aj-bombers-miller-park-milwaukee?adjust_creative=a2JdNtFqB-C38ga_06BHvw&utm_campaign=yelp_api_v3&utm_medium=api_v3_business_search&utm_source=a2JdNtFqB-C38ga_06BHvw", "review_count": 14, "categories": [{"alias": "tradamerican", "title": "American (Traditional)"}, {"alias": "burgers", "title": "Burgers"}], "rating": 2.5, "coordinates": {"latitude": 43.0278163965728, "longitude": -87.972222053048}, "transactions": ["pickup", "delivery"], "price": "$", "location": {"address1": "1 Brewers Way", "address2": "", "address3": "", "city": "Milwaukee", "zip_code": "53214", "country": "US", "state": "WI", "display_address": ["1 Brewers Way", "Milwaukee, WI 53214"]}, "phone": "", "display_phone": "", "distance": 107.03331137451036}, {"id": "_WFBuoqUkOstXH0Ij7hOOg", "alias": "chubbys-cheesesteaks-west-milwaukee", "name": "Chubby's Cheesesteaks", "image_url": "https://s3-media2.fl.yelpcdn.com/bphoto/f1A9wkfp9pJ-WfcXCIVg-w/o.jpg", "is_closed": false, "url": "https://www.yelp.com/biz/chubbys-cheesesteaks-west-milwaukee?adjust_creative=a2JdNtFqB-C38ga_06BHvw&utm_campaign=yelp_api_v3&utm_medium=api_v3_business_search&utm_source=a2JdNtFqB-C38ga_06BHvw", "review_count": 72, "categories": [{"alias": "tradamerican", "title": "American (Traditional)"}, {"alias": "sandwiches", "title": "Sandwiches"}], "rating": 2.0, "coordinates": {"latitude": 43.006102, "longitude": -87.9684734}, "transactions": ["pickup", "delivery"], "price": "$$", "location": {"address1": "2147 Miller Park Way", "address2": "", "address3": "", "city": "West Milwaukee", "zip_code": "53219", "country": "US", "state": "WI", "display_address": ["2147 Miller Park Way", "West Milwaukee, WI 53219"]}, "phone": "+14146721111", "display_phone": "(414) 672-1111", "distance": 2481.2551368686914}, {"id": "iUQ-nQcaOBIX3SOkObgUbg", "alias": "dinersland-chinese-restaurant-milwaukee-2", "name": "Dinersland Chinese Restaurant", "image_url": "https://s3-media1.fl.yelpcdn.com/bphoto/ab2jw4YDG2bscQl3vz63eA/o.jpg", "is_closed": false, "url": "https://www.yelp.com/biz/dinersland-chinese-restaurant-milwaukee-2?adjust_creative=a2JdNtFqB-C38ga_06BHvw&utm_campaign=yelp_api_v3&utm_medium=api_v3_business_search&utm_source=a2JdNtFqB-C38ga_06BHvw", "review_count": 18, "categories": [{"alias": "chinese", "title": "Chinese"}], "rating": 2.5, "coordinates": {"latitude": 43.0484906, "longitude": -87.9577949}, "transactions": ["pickup", "delivery"], "price": "$", "location": {"address1": "1355 N 35th St", "address2": "", "address3": null, "city": "Milwaukee", "zip_code": "53208", "country": "US", "state": "WI", "display_address": ["1355 N 35th St", "Milwaukee, WI 53208"]}, "phone": "+14147376666", "display_phone": "(414) 737-6666", "distance": 2470.948714975083}, {"id": "OQYFhdx5Os8DfAPtB6w48Q", "alias": "cousins-subs-west-milwaukee", "name": "Cousins Subs", "image_url": "https://s3-media3.fl.yelpcdn.com/bphoto/Nx0tSZmiGmbDfvHRT73F0Q/o.jpg", "is_closed": false, "url": "https://www.yelp.com/biz/cousins-subs-west-milwaukee?adjust_creative=a2JdNtFqB-C38ga_06BHvw&utm_campaign=yelp_api_v3&utm_medium=api_v3_business_search&utm_source=a2JdNtFqB-C38ga_06BHvw", "review_count": 5, "categories": [{"alias": "sandwiches", "title": "Sandwiches"}, {"alias": "delis", "title": "Delis"}], "rating": 3.5, "coordinates": {"latitude": 43.01952, "longitude": -87.96824}, "transactions": ["delivery"], "price": "$", "location": {"address1": "1150 Miller Park Way", "address2": null, "address3": null, "city": "West Milwaukee", "zip_code": "53214", "country": "US", "state": "WI", "display_address": ["1150 Miller Park Way", "West Milwaukee, WI 53214"]}, "phone": "+14143835120", "display_phone": "(414) 383-5120", "distance": 1019.6624674527485}, {"id": "J6Zlk4jbdUf2P2zepMOumA", "alias": "chicken-palace-milwaukee-4", "name": "Chicken Palace", "image_url": "https://s3-media2.fl.yelpcdn.com/bphoto/vV4_ZBKIIyiItqSRqNjZ3w/o.jpg", "is_closed": false, "url": "https://www.yelp.com/biz/chicken-palace-milwaukee-4?adjust_creative=a2JdNtFqB-C38ga_06BHvw&utm_campaign=yelp_api_v3&utm_medium=api_v3_business_search&utm_source=a2JdNtFqB-C38ga_06BHvw", "review_count": 7, "categories": [{"alias": "chicken_wings", "title": "Chicken Wings"}, {"alias": "mexican", "title": "Mexican"}], "rating": 3.0, "coordinates": {"latitude": 43.00678, "longitude": -87.93755}, "transactions": ["pickup", "delivery"], "location": {"address1": "1937 W Forest Home Ave", "address2": "", "address3": "", "city": "Milwaukee", "zip_code": "53204", "country": "US", "state": "WI", "display_address": ["1937 W Forest Home Ave", "Milwaukee, WI 53204"]}, "phone": "+14143848401", "display_phone": "(414) 384-8401", "distance": 3634.8302585273377}, {"id": "OcyooTqrDnGgWkm7BhkbBg", "alias": "papa-johns-pizza-west-allis", "name": "Papa John's Pizza", "image_url": "https://s3-media3.fl.yelpcdn.com/bphoto/gngZh1LvBukOP5jayYGU-A/o.jpg", "is_closed": false, "url": "https://www.yelp.com/biz/papa-johns-pizza-west-allis?adjust_creative=a2JdNtFqB-C38ga_06BHvw&utm_campaign=yelp_api_v3&utm_medium=api_v3_business_search&utm_source=a2JdNtFqB-C38ga_06BHvw", "review_count": 18, "categories": [{"alias": "pizza", "title": "Pizza"}], "rating": 2.0, "coordinates": {"latitude": 43.016883, "longitude": -88.006703}, "transactions": ["delivery"], "price": "$", "location": {"address1": "7520 West Greenfield Avenue", "address2": "", "address3": "", "city": "West Allis", "zip_code": "53214", "country": "US", "state": "WI", "display_address": ["7520 West Greenfield Avenue", "West Allis, WI 53214"]}, "phone": "+14144767272", "display_phone": "(414) 476-7272", "distance": 3160.6409171408873}, {"id": "24ltuMDEWseGNfJAo1jabw", "alias": "canal-street-deli-milwaukee-3", "name": "Canal Street Deli", "image_url": "https://s3-media4.fl.yelpcdn.com/bphoto/XcL0CIaO0eYFlKfVD9L2LQ/o.jpg", "is_closed": false, "url": "https://www.yelp.com/biz/canal-street-deli-milwaukee-3?adjust_creative=a2JdNtFqB-C38ga_06BHvw&utm_campaign=yelp_api_v3&utm_medium=api_v3_business_search&utm_source=a2JdNtFqB-C38ga_06BHvw", "review_count": 4, "categories": [{"alias": "delis", "title": "Delis"}], "rating": 3.5, "coordinates": {"latitude": 43.03039, "longitude": -87.93478}, "transactions": [], "location": {"address1": "1721 W Canal St", "address2": "", "address3": null, "city": "Milwaukee", "zip_code": "53233", "country": "US", "state": "WI", "display_address": ["1721 W Canal St", "Milwaukee, WI 53233"]}, "phone": "+18007297244", "display_phone": "(800) 729-7244", "distance": 2954.1163928184765}, {"id": "QpS5DqPn5wfxdEb-kBdw4g", "alias": "shalom-restaurant-milwaukee", "name": "Shalom Restaurant", "image_url": "https://s3-media2.fl.yelpcdn.com/bphoto/_btMFHbZcU9WZ5_rAbK28A/o.jpg", "is_closed": false, "url": "https://www.yelp.com/biz/shalom-restaurant-milwaukee?adjust_creative=a2JdNtFqB-C38ga_06BHvw&utm_campaign=yelp_api_v3&utm_medium=api_v3_business_search&utm_source=a2JdNtFqB-C38ga_06BHvw", "review_count": 9, "categories": [{"alias": "puertorican", "title": "Puerto Rican"}], "rating": 2.5, "coordinates": {"latitude": 43.0217891313694, "longitude": -87.957898969064}, "transactions": ["delivery"], "location": {"address1": "3500 W National Ave", "address2": "", "address3": null, "city": "Milwaukee", "zip_code": "53215", "country": "US", "state": "WI", "display_address": ["3500 W National Ave", "Milwaukee, WI 53215"]}, "phone": "+14148827003", "display_phone": "(414) 882-7003", "distance": 1297.282641850624}, {"id": "rykh2HrIjLxNS4xatxGTUA", "alias": "waldos-pub-and-grill-west-milwaukee-2", "name": "Waldo's Pub & Grill", "image_url": "https://s3-media2.fl.yelpcdn.com/bphoto/XQA-XcrveUHRMf5gD1F3UQ/o.jpg", "is_closed": false, "url": "https://www.yelp.com/biz/waldos-pub-and-grill-west-milwaukee-2?adjust_creative=a2JdNtFqB-C38ga_06BHvw&utm_campaign=yelp_api_v3&utm_medium=api_v3_business_search&utm_source=a2JdNtFqB-C38ga_06BHvw", "review_count": 2, "categories": [{"alias": "burgers", "title": "Burgers"}, {"alias": "pubs", "title": "Pubs"}, {"alias": "fishnchips", "title": "Fish & Chips"}], "rating": 4.5, "coordinates": {"latitude": 43.01712, "longitude": -87.9621}, "transactions": [], "location": {"address1": "3812 West Greenfield Ave", "address2": null, "address3": "", "city": "West Milwaukee", "zip_code": "53215", "country": "US", "state": "WI", "display_address": ["3812 West Greenfield Ave", "West Milwaukee, WI 53215"]}, "phone": "+14148375914", "display_phone": "(414) 837-5914", "distance": 1440.1635439084564}, {"id": "3eeorYD0cPRwC0CoUyGe6Q", "alias": "el-rey-sol-milwaukee", "name": "El Rey Sol", "image_url": "", "is_closed": false, "url": "https://www.yelp.com/biz/el-rey-sol-milwaukee?adjust_creative=a2JdNtFqB-C38ga_06BHvw&utm_campaign=yelp_api_v3&utm_medium=api_v3_business_search&utm_source=a2JdNtFqB-C38ga_06BHvw", "review_count": 2, "categories": [{"alias": "restaurants", "title": "Restaurants"}], "rating": 4.5, "coordinates": {"latitude": 43.00388, "longitude": -87.94354}, "transactions": [], "location": {"address1": "2338 W Forest Home Ave", "address2": "", "address3": "", "city": "Milwaukee", "zip_code": "53215", "country": "US", "state": "WI", "display_address": ["2338 W Forest Home Ave", "Milwaukee, WI 53215"]}, "phone": "+14143891860", "display_phone": "(414) 389-1860", "distance": 3524.10399435412}, {"id": "q8YIh7eBcIPcNrmPAFti9A", "alias": "jizzles-sandwich-shop-milwaukee", "name": "Jizzles Sandwich Shop", "image_url": "https://s3-media2.fl.yelpcdn.com/bphoto/SEEAJmKf05Wwfnu8ako6BA/o.jpg", "is_closed": false, "url": "https://www.yelp.com/biz/jizzles-sandwich-shop-milwaukee?adjust_creative=a2JdNtFqB-C38ga_06BHvw&utm_campaign=yelp_api_v3&utm_medium=api_v3_business_search&utm_source=a2JdNtFqB-C38ga_06BHvw", "review_count": 5, "categories": [{"alias": "sandwiches", "title": "Sandwiches"}], "rating": 3.0, "coordinates": {"latitude": 43.04333, "longitude": -87.946723}, "transactions": [], "price": "$", "location": {"address1": "2611 W State St", "address2": null, "address3": null, "city": "Milwaukee", "zip_code": "53210", "country": "US", "state": "WI", "display_address": ["2611 W State St", "Milwaukee, WI 53210"]}, "phone": "+14144479780", "display_phone": "(414) 447-9780", "distance": 2590.3160363062048}, {"id": "AjGAVJC991vLX4IycL0hWg", "alias": "restaurant-y-taqueria-la-esperanza-milwaukee", "name": "Restaurant Y Taqueria La Esperanza", "image_url": "https://s3-media2.fl.yelpcdn.com/bphoto/y0Dxs1L7LnPZ8eETCYtaYQ/o.jpg", "is_closed": false, "url": "https://www.yelp.com/biz/restaurant-y-taqueria-la-esperanza-milwaukee?adjust_creative=a2JdNtFqB-C38ga_06BHvw&utm_campaign=yelp_api_v3&utm_medium=api_v3_business_search&utm_source=a2JdNtFqB-C38ga_06BHvw", "review_count": 5, "categories": [{"alias": "mexican", "title": "Mexican"}, {"alias": "greek", "title": "Greek"}, {"alias": "tradamerican", "title": "American (Traditional)"}], "rating": 3.0, "coordinates": {"latitude": 43.012505, "longitude": -87.939124}, "transactions": ["pickup", "delivery"], "location": {"address1": "2028 W Mitchell St", "address2": null, "address3": "", "city": "Milwaukee", "zip_code": "53204", "country": "US", "state": "WI", "display_address": ["2028 W Mitchell St", "Milwaukee, WI 53204"]}, "phone": "+14142128535", "display_phone": "(414) 212-8535", "distance": 3140.0124769211757}, {"id": "JOjCaxlboHC6WW4qPwECeg", "alias": "sonic-drive-in-west-milwaukee", "name": "Sonic Drive-In", "image_url": "https://s3-media3.fl.yelpcdn.com/bphoto/KhltmpLcbOYHLVIrQdBV9Q/o.jpg", "is_closed": false, "url": "https://www.yelp.com/biz/sonic-drive-in-west-milwaukee?adjust_creative=a2JdNtFqB-C38ga_06BHvw&utm_campaign=yelp_api_v3&utm_medium=api_v3_business_search&utm_source=a2JdNtFqB-C38ga_06BHvw", "review_count": 78, "categories": [{"alias": "hotdogs", "title": "Fast Food"}, {"alias": "burgers", "title": "Burgers"}, {"alias": "icecream", "title": "Ice Cream & Frozen Yogurt"}], "rating": 1.5, "coordinates": {"latitude": 43.0070793, "longitude": -87.9672853}, "transactions": ["pickup", "delivery"], "price": "$", "location": {"address1": "2080 Miller Pkwy", "address2": "", "address3": "", "city": "WEST MILWAUKEE", "zip_code": "53219", "country": "US", "state": "WI", "display_address": ["2080 Miller Pkwy", "WEST MILWAUKEE, WI 53219"]}, "phone": "+14143848844", "display_phone": "(414) 384-8844", "distance": 2383.679756197637}, {"id": "2VnfqPO-I-VK6QGfu0wl2w", "alias": "toppers-pizza-wauwatosa", "name": "Toppers Pizza", "image_url": "https://s3-media2.fl.yelpcdn.com/bphoto/_5J-IQgp15hcxXHhJ0QwJw/o.jpg", "is_closed": false, "url": "https://www.yelp.com/biz/toppers-pizza-wauwatosa?adjust_creative=a2JdNtFqB-C38ga_06BHvw&utm_campaign=yelp_api_v3&utm_medium=api_v3_business_search&utm_source=a2JdNtFqB-C38ga_06BHvw", "review_count": 38, "categories": [{"alias": "pizza", "title": "Pizza"}], "rating": 2.0, "coordinates": {"latitude": 43.0468376, "longitude": -87.99739}, "transactions": ["pickup", "delivery"], "price": "$", "location": {"address1": "6810 West State St", "address2": "", "address3": "", "city": "Wauwatosa", "zip_code": "53213", "country": "US", "state": "WI", "display_address": ["6810 West State St", "Wauwatosa, WI 53213"]}, "phone": "+14142574002", "display_phone": "(414) 257-4002", "distance": 2965.6877934318686}, {"id": "5YTBc2_kD1i5ySk7hbWOHw", "alias": "george-webb-milwaukee-8", "name": "George Webb", "image_url": "https://s3-media2.fl.yelpcdn.com/bphoto/4G2YmhxOAcvlqbLJH0cyhg/o.jpg", "is_closed": false, "url": "https://www.yelp.com/biz/george-webb-milwaukee-8?adjust_creative=a2JdNtFqB-C38ga_06BHvw&utm_campaign=yelp_api_v3&utm_medium=api_v3_business_search&utm_source=a2JdNtFqB-C38ga_06BHvw", "review_count": 16, "categories": [{"alias": "tradamerican", "title": "American (Traditional)"}], "rating": 2.0, "coordinates": {"latitude": 43.0166091918945, "longitude": -88.0022125244141}, "transactions": ["pickup", "delivery"], "price": "$$", "location": {"address1": "7227 W Greenfield Ave", "address2": "", "address3": "", "city": "Milwaukee", "zip_code": "53214", "country": "US", "state": "WI", "display_address": ["7227 W Greenfield Ave", "Milwaukee, WI 53214"]}, "phone": "+14147740190", "display_phone": "(414) 774-0190", "distance": 2844.6306176637613}, {"id": "8fRFgHf9qyv9pB3Nkx8w7g", "alias": "burger-king-west-allis", "name": "Burger King", "image_url": "https://s3-media1.fl.yelpcdn.com/bphoto/37QqVFFXjTOLitxbcw0qEw/o.jpg", "is_closed": false, "url": "https://www.yelp.com/biz/burger-king-west-allis?adjust_creative=a2JdNtFqB-C38ga_06BHvw&utm_campaign=yelp_api_v3&utm_medium=api_v3_business_search&utm_source=a2JdNtFqB-C38ga_06BHvw", "review_count": 23, "categories": [{"alias": "burgers", "title": "Burgers"}, {"alias": "hotdogs", "title": "Fast Food"}], "rating": 2.0, "coordinates": {"latitude": 43.017017, "longitude": -87.996726}, "transactions": ["delivery"], "price": "$", "location": {"address1": "6746 W Greenfield Ave", "address2": "", "address3": "", "city": "West Allis", "zip_code": "53214", "country": "US", "state": "WI", "display_address": ["6746 W Greenfield Ave", "West Allis, WI 53214"]}, "phone": "+14142571755", "display_phone": "(414) 257-1755", "distance": 2437.0234658473714}, {"id": "zfhAEdnyVVPIyFBbzC65yw", "alias": "restaurant-latino-express-milwaukee", "name": "Restaurant Latino express", "image_url": "https://s3-media2.fl.yelpcdn.com/bphoto/XAsNPmisfLCnnZk8x0vANg/o.jpg", "is_closed": false, "url": "https://www.yelp.com/biz/restaurant-latino-express-milwaukee?adjust_creative=a2JdNtFqB-C38ga_06BHvw&utm_campaign=yelp_api_v3&utm_medium=api_v3_business_search&utm_source=a2JdNtFqB-C38ga_06BHvw", "review_count": 3, "categories": [{"alias": "foodtrucks", "title": "Food Trucks"}, {"alias": "tradamerican", "title": "American (Traditional)"}, {"alias": "mexican", "title": "Mexican"}], "rating": 3.5, "coordinates": {"latitude": 43.0104866, "longitude": -87.9559157568246}, "transactions": ["delivery"], "location": {"address1": "3610 W Burnham St", "address2": null, "address3": "", "city": "Milwaukee", "zip_code": "53215", "country": "US", "state": "WI", "display_address": ["3610 W Burnham St", "Milwaukee, WI 53215"]}, "phone": "+14147458943", "display_phone": "(414) 745-8943", "distance": 2337.5170739045434}, {"id": "7fUsqkL3aTpCM0kpGASYbg", "alias": "chicago-style-milwaukee", "name": "Chicago Style", "image_url": "https://s3-media2.fl.yelpcdn.com/bphoto/EJfiL9MV1psZuCzsGTVnjw/o.jpg", "is_closed": false, "url": "https://www.yelp.com/biz/chicago-style-milwaukee?adjust_creative=a2JdNtFqB-C38ga_06BHvw&utm_campaign=yelp_api_v3&utm_medium=api_v3_business_search&utm_source=a2JdNtFqB-C38ga_06BHvw", "review_count": 3, "categories": [{"alias": "tradamerican", "title": "American (Traditional)"}], "rating": 3.5, "coordinates": {"latitude": 43.022414722638, "longitude": -87.9415839537978}, "transactions": ["pickup", "delivery"], "location": {"address1": "2221 W National Ave", "address2": "", "address3": null, "city": "Milwaukee", "zip_code": "53204", "country": "US", "state": "WI", "display_address": ["2221 W National Ave", "Milwaukee, WI 53204"]}, "phone": "+14146437777", "display_phone": "(414) 643-7777", "distance": 2488.808284263729}, {"id": "gdHhFHew22CgAWrHWiWpoQ", "alias": "toppers-pizza-west-milwaukee", "name": "Toppers Pizza", "image_url": "https://s3-media1.fl.yelpcdn.com/bphoto/iG16or1nkkiDWpdHRrwvng/o.jpg", "is_closed": false, "url": "https://www.yelp.com/biz/toppers-pizza-west-milwaukee?adjust_creative=a2JdNtFqB-C38ga_06BHvw&utm_campaign=yelp_api_v3&utm_medium=api_v3_business_search&utm_source=a2JdNtFqB-C38ga_06BHvw", "review_count": 22, "categories": [{"alias": "pizza", "title": "Pizza"}], "rating": 2.0, "coordinates": {"latitude": 43.016223999836, "longitude": -87.96814}, "transactions": ["pickup", "delivery"], "price": "$$", "location": {"address1": "1403 Miller Pkwy", "address2": "Unit A", "address3": "", "city": "West Milwaukee", "zip_code": "53214", "country": "US", "state": "WI", "display_address": ["1403 Miller Pkwy", "Unit A", "West Milwaukee, WI 53214"]}, "phone": "+14146438330", "display_phone": "(414) 643-8330", "distance": 1367.9480365954487}, {"id": "yg76Fk11OHGdfVSgH0gi4A", "alias": "jimmy-johns-west-milwaukee", "name": "Jimmy John's", "image_url": "", "is_closed": false, "url": "https://www.yelp.com/biz/jimmy-johns-west-milwaukee?adjust_creative=a2JdNtFqB-C38ga_06BHvw&utm_campaign=yelp_api_v3&utm_medium=api_v3_business_search&utm_source=a2JdNtFqB-C38ga_06BHvw", "review_count": 14, "categories": [{"alias": "sandwiches", "title": "Sandwiches"}, {"alias": "delis", "title": "Delis"}, {"alias": "hotdogs", "title": "Fast Food"}], "rating": 2.0, "coordinates": {"latitude": 43.0161281, "longitude": -87.9682803}, "transactions": [], "price": "$", "location": {"address1": "1403 Miller Park Way", "address2": "Unit D", "address3": "", "city": "West Milwaukee", "zip_code": "53214", "country": "US", "state": "WI", "display_address": ["1403 Miller Park Way", "Unit D", "West Milwaukee, WI 53214"]}, "phone": "+14143833030", "display_phone": "(414) 383-3030", "distance": 1376.4928088140425}, {"id": "IoCvRMVE8DiD1OGVjTMSBw", "alias": "applebees-grill-bar-milwaukee-5", "name": "Applebee's Grill + Bar", "image_url": "https://s3-media4.fl.yelpcdn.com/bphoto/KyWDrKP1THaeHIWIMgo3VA/o.jpg", "is_closed": false, "url": "https://www.yelp.com/biz/applebees-grill-bar-milwaukee-5?adjust_creative=a2JdNtFqB-C38ga_06BHvw&utm_campaign=yelp_api_v3&utm_medium=api_v3_business_search&utm_source=a2JdNtFqB-C38ga_06BHvw", "review_count": 52, "categories": [{"alias": "tradamerican", "title": "American (Traditional)"}, {"alias": "burgers", "title": "Burgers"}, {"alias": "chicken_wings", "title": "Chicken Wings"}], "rating": 1.5, "coordinates": {"latitude": 43.01102, "longitude": -87.96761}, "transactions": ["pickup", "delivery"], "location": {"address1": "1834 Miller Park Way", "address2": "", "address3": null, "city": "Milwaukee", "zip_code": "53219", "country": "US", "state": "WI", "display_address": ["1834 Miller Park Way", "Milwaukee, WI 53219"]}, "phone": "+14146450946", "display_phone": "(414) 645-0946", "distance": 1946.0417653698782}, {"id": "mIyAbhDAtwXORrasuBo0ww", "alias": "mr-churro-milwaukee", "name": "Mr Churro", "image_url": "https://s3-media2.fl.yelpcdn.com/bphoto/pUpxUe98Xplc8DEyhFralA/o.jpg", "is_closed": false, "url": "https://www.yelp.com/biz/mr-churro-milwaukee?adjust_creative=a2JdNtFqB-C38ga_06BHvw&utm_campaign=yelp_api_v3&utm_medium=api_v3_business_search&utm_source=a2JdNtFqB-C38ga_06BHvw", "review_count": 2, "categories": [{"alias": "latin", "title": "Latin American"}, {"alias": "mexican", "title": "Mexican"}], "rating": 4.0, "coordinates": {"latitude": 43.0222206, "longitude": -87.9432983}, "transactions": [], "location": {"address1": "2333 W National Ave", "address2": "", "address3": "", "city": "Milwaukee", "zip_code": "53204", "country": "US", "state": "WI", "display_address": ["2333 W National Ave", "Milwaukee, WI 53204"]}, "phone": "+14143899511", "display_phone": "(414) 389-9511", "distance": 2364.4577766061157}, {"id": "27pejxCzenk7GAa7VJTV9g", "alias": "tanner-paull-restaurant-and-banquet-hall-milwaukee", "name": "Tanner-Paull Restaurant & Banquet Hall", "image_url": "https://s3-media2.fl.yelpcdn.com/bphoto/LJTsILyh5t9uaPJOMNiSSA/o.jpg", "is_closed": false, "url": "https://www.yelp.com/biz/tanner-paull-restaurant-and-banquet-hall-milwaukee?adjust_creative=a2JdNtFqB-C38ga_06BHvw&utm_campaign=yelp_api_v3&utm_medium=api_v3_business_search&utm_source=a2JdNtFqB-C38ga_06BHvw", "review_count": 2, "categories": [{"alias": "venues", "title": "Venues & Event Spaces"}, {"alias": "restaurants", "title": "Restaurants"}], "rating": 4.0, "coordinates": {"latitude": 43.0151863098145, "longitude": -87.9997863769531}, "transactions": [], "price": "$$", "location": {"address1": "6922 W Orchard St", "address2": "", "address3": "", "city": "Milwaukee", "zip_code": "53214", "country": "US", "state": "WI", "display_address": ["6922 W Orchard St", "Milwaukee, WI 53214"]}, "phone": "+14144765701", "display_phone": "(414) 476-5701", "distance": 2749.513996515772}, {"id": "lk8kZMQ09JguM02sOFLR9g", "alias": "mcguires-bar-milwaukee", "name": "McGuire's Bar", "image_url": "https://s3-media1.fl.yelpcdn.com/bphoto/LXpMZ278YUzZL3ENgXfHeg/o.jpg", "is_closed": false, "url": "https://www.yelp.com/biz/mcguires-bar-milwaukee?adjust_creative=a2JdNtFqB-C38ga_06BHvw&utm_campaign=yelp_api_v3&utm_medium=api_v3_business_search&utm_source=a2JdNtFqB-C38ga_06BHvw", "review_count": 3, "categories": [{"alias": "bars", "title": "Bars"}, {"alias": "chicken_wings", "title": "Chicken Wings"}], "rating": 3.5, "coordinates": {"latitude": 43.0163574, "longitude": -87.9905014}, "transactions": [], "price": "$", "location": {"address1": "6235 W National Ave", "address2": "", "address3": "", "city": "Milwaukee", "zip_code": "53214", "country": "US", "state": "WI", "display_address": ["6235 W National Ave", "Milwaukee, WI 53214"]}, "phone": "+14147740445", "display_phone": "(414) 774-0445", "distance": 2104.490783116741}, {"id": "0NSRNZ2deKXsIocdSNLoWw", "alias": "kfc-milwaukee-3", "name": "KFC", "image_url": "https://s3-media2.fl.yelpcdn.com/bphoto/44MDzt2u8uV6KZYCNFoRig/o.jpg", "is_closed": false, "url": "https://www.yelp.com/biz/kfc-milwaukee-3?adjust_creative=a2JdNtFqB-C38ga_06BHvw&utm_campaign=yelp_api_v3&utm_medium=api_v3_business_search&utm_source=a2JdNtFqB-C38ga_06BHvw", "review_count": 20, "categories": [{"alias": "hotdogs", "title": "Fast Food"}, {"alias": "chicken_wings", "title": "Chicken Wings"}, {"alias": "chickenshop", "title": "Chicken Shop"}], "rating": 2.0, "coordinates": {"latitude": 43.0165422734418, "longitude": -87.9682217895206}, "transactions": ["pickup", "delivery"], "price": "$", "location": {"address1": "1402 S 43rd St", "address2": "", "address3": "", "city": "Milwaukee", "zip_code": "53214", "country": "US", "state": "WI", "display_address": ["1402 S 43rd St", "Milwaukee, WI 53214"]}, "phone": "+14146624122", "display_phone": "(414) 662-4122", "distance": 1331.9396428002567}, {"id": "WQVQ4Z63P98UQ8W5beG2Xw", "alias": "mcdonalds-milwaukee-26", "name": "McDonald's", "image_url": "https://s3-media1.fl.yelpcdn.com/bphoto/Agwr9Uyu1S1Fifddtgk6oA/o.jpg", "is_closed": false, "url": "https://www.yelp.com/biz/mcdonalds-milwaukee-26?adjust_creative=a2JdNtFqB-C38ga_06BHvw&utm_campaign=yelp_api_v3&utm_medium=api_v3_business_search&utm_source=a2JdNtFqB-C38ga_06BHvw", "review_count": 33, "categories": [{"alias": "hotdogs", "title": "Fast Food"}, {"alias": "burgers", "title": "Burgers"}, {"alias": "coffee", "title": "Coffee & Tea"}], "rating": 1.5, "coordinates": {"latitude": 43.0358642327737, "longitude": -87.9926079511642}, "transactions": ["delivery"], "price": "$", "location": {"address1": "6409 W Blue Mound Rd", "address2": "", "address3": "", "city": "Milwaukee", "zip_code": "53213", "country": "US", "state": "WI", "display_address": ["6409 W Blue Mound Rd", "Milwaukee, WI 53213"]}, "phone": "+14142584906", "display_phone": "(414) 258-4906", "distance": 1937.5947057017393}, {"id": "sUBjlWO1qHs2jbmbTHNG2g", "alias": "wells-cafe-and-vape-milwaukee", "name": "Wells Cafe and Vape", "image_url": "https://s3-media1.fl.yelpcdn.com/bphoto/s61O5E6pEiTSDEt2a3-eIQ/o.jpg", "is_closed": false, "url": "https://www.yelp.com/biz/wells-cafe-and-vape-milwaukee?adjust_creative=a2JdNtFqB-C38ga_06BHvw&utm_campaign=yelp_api_v3&utm_medium=api_v3_business_search&utm_source=a2JdNtFqB-C38ga_06BHvw", "review_count": 1, "categories": [{"alias": "vapeshops", "title": "Vape Shops"}, {"alias": "hookah_bars", "title": "Hookah Bars"}, {"alias": "cafes", "title": "Cafes"}], "rating": 5.0, "coordinates": {"latitude": 43.03988, "longitude": -87.93899}, "transactions": [], "location": {"address1": "2043 W Wells St", "address2": null, "address3": "", "city": "Milwaukee", "zip_code": "53233", "country": "US", "state": "WI", "display_address": ["2043 W Wells St", "Milwaukee, WI 53233"]}, "phone": "+14148850424", "display_phone": "(414) 885-0424", "distance": 2904.351384580189}, {"id": "FGuznUlhjpR_c_8FTZnMwA", "alias": "delicias-michoacan-milwaukee", "name": "Delicias Michoacan", "image_url": "", "is_closed": false, "url": "https://www.yelp.com/biz/delicias-michoacan-milwaukee?adjust_creative=a2JdNtFqB-C38ga_06BHvw&utm_campaign=yelp_api_v3&utm_medium=api_v3_business_search&utm_source=a2JdNtFqB-C38ga_06BHvw", "review_count": 1, "categories": [{"alias": "mexican", "title": "Mexican"}], "rating": 5.0, "coordinates": {"latitude": 43.002346, "longitude": -87.9479599}, "transactions": [], "price": "$", "location": {"address1": "2332 S 27th St", "address2": "", "address3": "", "city": "Milwaukee", "zip_code": "53215", "country": "US", "state": "WI", "display_address": ["2332 S 27th St", "Milwaukee, WI 53215"]}, "phone": "+14146161639", "display_phone": "(414) 616-1639", "distance": 3486.806015964607}, {"id": "2CePtZY3QyShwnLOZOezkQ", "alias": "restaurant-to-be-named-later-milwaukee", "name": "Restaurant To Be Named Later", "image_url": "https://s3-media2.fl.yelpcdn.com/bphoto/NjOuymu2BSjXlnTrREzJDA/o.jpg", "is_closed": false, "url": "https://www.yelp.com/biz/restaurant-to-be-named-later-milwaukee?adjust_creative=a2JdNtFqB-C38ga_06BHvw&utm_campaign=yelp_api_v3&utm_medium=api_v3_business_search&utm_source=a2JdNtFqB-C38ga_06BHvw", "review_count": 5, "categories": [{"alias": "sportsbars", "title": "Sports Bars"}, {"alias": "tacos", "title": "Tacos"}, {"alias": "tradamerican", "title": "American (Traditional)"}], "rating": 2.5, "coordinates": {"latitude": 43.0289964815576, "longitude": -87.9701320605743}, "transactions": ["restaurant_reservation"], "location": {"address1": "1 Brewers Way", "address2": "", "address3": null, "city": "Milwaukee", "zip_code": "53214", "country": "US", "state": "WI", "display_address": ["1 Brewers Way", "Milwaukee, WI 53214"]}, "phone": "+14149024201", "display_phone": "(414) 902-4201", "distance": 108.51127526389315}, {"id": "rJ5-SMPaEtl0ND2MAarxhw", "alias": "little-caesars-pizza-west-milwaukee-2", "name": "Little Caesars Pizza", "image_url": "https://s3-media2.fl.yelpcdn.com/bphoto/ieuO7pVFhtNZcv2-c5-Osw/o.jpg", "is_closed": false, "url": "https://www.yelp.com/biz/little-caesars-pizza-west-milwaukee-2?adjust_creative=a2JdNtFqB-C38ga_06BHvw&utm_campaign=yelp_api_v3&utm_medium=api_v3_business_search&utm_source=a2JdNtFqB-C38ga_06BHvw", "review_count": 22, "categories": [{"alias": "pizza", "title": "Pizza"}, {"alias": "hotdogs", "title": "Fast Food"}], "rating": 1.5, "coordinates": {"latitude": 43.0169749, "longitude": -87.966548}, "transactions": [], "price": "$", "location": {"address1": "4206 West Greenfield Ave", "address2": "", "address3": "", "city": "West Milwaukee", "zip_code": "53214", "country": "US", "state": "WI", "display_address": ["4206 West Greenfield Ave", "West Milwaukee, WI 53214"]}, "phone": "+14143840444", "display_phone": "(414) 384-0444", "distance": 1257.8982949061551}, {"id": "gv1jo3wgrKmZ0FCjwElKIQ", "alias": "subway-milwaukee-77", "name": "Subway", "image_url": "https://s3-media3.fl.yelpcdn.com/bphoto/mLoHIsEJhUfdq9ewJdbPgQ/o.jpg", "is_closed": false, "url": "https://www.yelp.com/biz/subway-milwaukee-77?adjust_creative=a2JdNtFqB-C38ga_06BHvw&utm_campaign=yelp_api_v3&utm_medium=api_v3_business_search&utm_source=a2JdNtFqB-C38ga_06BHvw", "review_count": 3, "categories": [{"alias": "sandwiches", "title": "Sandwiches"}], "rating": 3.0, "coordinates": {"latitude": 43.0232857436658, "longitude": -87.9485611182233}, "transactions": ["pickup", "delivery"], "price": "$", "location": {"address1": "725 Layton Blvd", "address2": null, "address3": null, "city": "Milwaukee", "zip_code": "53215", "country": "US", "state": "WI", "display_address": ["725 Layton Blvd", "Milwaukee, WI 53215"]}, "phone": "+14143838340", "display_phone": "(414) 383-8340", "distance": 1917.039548618942}, {"id": "Kmiwujlrz7mpfiEKNlbx9A", "alias": "mcdonalds-milwaukee-19", "name": "McDonald's", "image_url": "https://s3-media3.fl.yelpcdn.com/bphoto/wtq9iFO81bqwIi45i0fCqQ/o.jpg", "is_closed": false, "url": "https://www.yelp.com/biz/mcdonalds-milwaukee-19?adjust_creative=a2JdNtFqB-C38ga_06BHvw&utm_campaign=yelp_api_v3&utm_medium=api_v3_business_search&utm_source=a2JdNtFqB-C38ga_06BHvw", "review_count": 3, "categories": [{"alias": "hotdogs", "title": "Fast Food"}, {"alias": "burgers", "title": "Burgers"}, {"alias": "coffee", "title": "Coffee & Tea"}], "rating": 3.0, "coordinates": {"latitude": 43.02267, "longitude": -87.945876}, "transactions": ["delivery"], "price": "$", "location": {"address1": "2520 W National Ave", "address2": null, "address3": null, "city": "Milwaukee", "zip_code": "53204", "country": "US", "state": "WI", "display_address": ["2520 W National Ave", "Milwaukee, WI 53204"]}, "phone": "+14146450606", "display_phone": "(414) 645-0606", "distance": 2145.800629111833}, {"id": "Nm5w0UbtWVUfsYN34AHj7g", "alias": "mcdonalds-milwaukee-54", "name": "McDonald's", "image_url": "https://s3-media2.fl.yelpcdn.com/bphoto/LOTDa9rMqq9cAFp6BY9Sfg/o.jpg", "is_closed": false, "url": "https://www.yelp.com/biz/mcdonalds-milwaukee-54?adjust_creative=a2JdNtFqB-C38ga_06BHvw&utm_campaign=yelp_api_v3&utm_medium=api_v3_business_search&utm_source=a2JdNtFqB-C38ga_06BHvw", "review_count": 40, "categories": [{"alias": "burgers", "title": "Burgers"}, {"alias": "hotdogs", "title": "Fast Food"}, {"alias": "coffee", "title": "Coffee & Tea"}], "rating": 1.0, "coordinates": {"latitude": 43.0383863617246, "longitude": -87.9444663226604}, "transactions": ["delivery"], "price": "$", "location": {"address1": "2455 W Wisconsin Ave", "address2": "", "address3": "", "city": "Milwaukee", "zip_code": "53233", "country": "US", "state": "WI", "display_address": ["2455 W Wisconsin Ave", "Milwaukee, WI 53233"]}, "phone": "+14149373750", "display_phone": "(414) 937-3750", "distance": 2437.141874535334}, {"id": "0xQULz3js9EfZp4SbT9OtA", "alias": "johnson-controls-stadium-club-milwaukee", "name": "Johnson Controls Stadium Club", "image_url": "https://s3-media3.fl.yelpcdn.com/bphoto/XgOUjdxFI5h5NBuwsPCV4A/o.jpg", "is_closed": false, "url": "https://www.yelp.com/biz/johnson-controls-stadium-club-milwaukee?adjust_creative=a2JdNtFqB-C38ga_06BHvw&utm_campaign=yelp_api_v3&utm_medium=api_v3_business_search&utm_source=a2JdNtFqB-C38ga_06BHvw", "review_count": 8, "categories": [{"alias": "restaurants", "title": "Restaurants"}, {"alias": "sportsbars", "title": "Sports Bars"}, {"alias": "eventservices", "title": "Event Planning & Services"}], "rating": 2.0, "coordinates": {"latitude": 43.0286015367122, "longitude": -87.9701769333139}, "transactions": [], "price": "$$", "location": {"address1": "One Brewers Way", "address2": "", "address3": null, "city": "Milwaukee", "zip_code": "53214", "country": "US", "state": "WI", "display_address": ["One Brewers Way", "Milwaukee, WI 53214"]}, "phone": "+14149024400", "display_phone": "(414) 902-4400", "distance": 81.58625646449045}, {"id": "Ecmdp-Vk9T-21YjPP58Z9Q", "alias": "caliente-latin-kitchen-and-rum-bar-milwaukee", "name": "Caliente Latin Kitchen & Rum Bar", "image_url": "https://s3-media1.fl.yelpcdn.com/bphoto/_4bw1x_58xOoGdqzGhFuJw/o.jpg", "is_closed": false, "url": "https://www.yelp.com/biz/caliente-latin-kitchen-and-rum-bar-milwaukee?adjust_creative=a2JdNtFqB-C38ga_06BHvw&utm_campaign=yelp_api_v3&utm_medium=api_v3_business_search&utm_source=a2JdNtFqB-C38ga_06BHvw", "review_count": 3, "categories": [{"alias": "puertorican", "title": "Puerto Rican"}, {"alias": "burgers", "title": "Burgers"}, {"alias": "sandwiches", "title": "Sandwiches"}], "rating": 2.5, "coordinates": {"latitude": 43.036834671651135, "longitude": -87.97799594700336}, "transactions": [], "location": {"address1": "5108 W Bluemound Rd", "address2": "", "address3": null, "city": "Milwaukee", "zip_code": "53208", "country": "US", "state": "WI", "display_address": ["5108 W Bluemound Rd", "Milwaukee, WI 53208"]}, "phone": "+14147639447", "display_phone": "(414) 763-9447", "distance": 1098.5578976400393}, {"id": "EsuZFopHLZRlF8TRHE_exA", "alias": "mcdonalds-west-milwaukee", "name": "McDonald's", "image_url": "https://s3-media2.fl.yelpcdn.com/bphoto/LO5nBO3WrjhSdR9Y8IFONg/o.jpg", "is_closed": false, "url": "https://www.yelp.com/biz/mcdonalds-west-milwaukee?adjust_creative=a2JdNtFqB-C38ga_06BHvw&utm_campaign=yelp_api_v3&utm_medium=api_v3_business_search&utm_source=a2JdNtFqB-C38ga_06BHvw", "review_count": 26, "categories": [{"alias": "hotdogs", "title": "Fast Food"}, {"alias": "burgers", "title": "Burgers"}, {"alias": "coffee", "title": "Coffee & Tea"}], "rating": 1.0, "coordinates": {"latitude": 43.0201217016875, "longitude": -87.9690337926286}, "transactions": ["delivery"], "price": "$", "location": {"address1": "1120 Miller Pkwy", "address2": "", "address3": "", "city": "West Milwaukee", "zip_code": "53215", "country": "US", "state": "WI", "display_address": ["1120 Miller Pkwy", "West Milwaukee, WI 53215"]}, "phone": "+14146478434", "display_phone": "(414) 647-8434", "distance": 928.5364470451372}, {"id": "L-EZlqzio8QzCB-ZydVsbg", "alias": "summit-market-milwaukee", "name": "Summit Market", "image_url": "", "is_closed": false, "url": "https://www.yelp.com/biz/summit-market-milwaukee?adjust_creative=a2JdNtFqB-C38ga_06BHvw&utm_campaign=yelp_api_v3&utm_medium=api_v3_business_search&utm_source=a2JdNtFqB-C38ga_06BHvw", "review_count": 2, "categories": [{"alias": "cafes", "title": "Cafes"}, {"alias": "sandwiches", "title": "Sandwiches"}], "rating": 3.0, "coordinates": {"latitude": 43.020423138966, "longitude": -87.9968777566223}, "transactions": ["delivery"], "location": {"address1": "6737 W Washington St", "address2": "", "address3": "Summit Place Office Complex", "city": "Milwaukee", "zip_code": "53214", "country": "US", "state": "WI", "display_address": ["6737 W Washington St", "Summit Place Office Complex", "Milwaukee, WI 53214"]}, "phone": "", "display_phone": "", "distance": 2271.760513545235}, {"id": "BTPpRCk-uNeFD5BtvMFG4g", "alias": "layman-brewing-west-allis", "name": "Layman Brewing", "image_url": "https://s3-media3.fl.yelpcdn.com/bphoto/mbhM8rwNJY0XKTLQ9_DxsA/o.jpg", "is_closed": false, "url": "https://www.yelp.com/biz/layman-brewing-west-allis?adjust_creative=a2JdNtFqB-C38ga_06BHvw&utm_campaign=yelp_api_v3&utm_medium=api_v3_business_search&utm_source=a2JdNtFqB-C38ga_06BHvw", "review_count": 2, "categories": [{"alias": "brewpubs", "title": "Brewpubs"}, {"alias": "tacos", "title": "Tacos"}, {"alias": "burgers", "title": "Burgers"}], "rating": 3.0, "coordinates": {"latitude": 43.018274, "longitude": -87.987714}, "transactions": [], "location": {"address1": "6001 W Madison St", "address2": null, "address3": "", "city": "West Allis", "zip_code": "53214", "country": "US", "state": "WI", "display_address": ["6001 W Madison St", "West Allis, WI 53214"]}, "phone": "+14144768788", "display_phone": "(414) 476-8788", "distance": 1753.187983936135}, {"id": "wVJ3_KJKIt1TSmuIWrXB_A", "alias": "smokin-flames-west-milwaukee", "name": "Smokin Flames", "image_url": "https://s3-media1.fl.yelpcdn.com/bphoto/3SHinbKlmDZiiV_rxl9xlg/o.jpg", "is_closed": false, "url": "https://www.yelp.com/biz/smokin-flames-west-milwaukee?adjust_creative=a2JdNtFqB-C38ga_06BHvw&utm_campaign=yelp_api_v3&utm_medium=api_v3_business_search&utm_source=a2JdNtFqB-C38ga_06BHvw", "review_count": 1, "categories": [{"alias": "foodtrucks", "title": "Food Trucks"}, {"alias": "bbq", "title": "Barbeque"}], "rating": 4.0, "coordinates": {"latitude": 43.01010202800218, "longitude": -87.96712590555725}, "transactions": [], "location": {"address1": "4000 W Burnham St", "address2": "", "address3": null, "city": "West Milwaukee", "zip_code": "53215", "country": "US", "state": "WI", "display_address": ["4000 W Burnham St", "West Milwaukee, WI 53215"]}, "phone": "+14143977505", "display_phone": "(414) 397-7505", "distance": 2052.9145095735453}, {"id": "D_MVpcCnRtowjYwT7DSAIw", "alias": "pizza-hut-west-allis-6", "name": "Pizza Hut", "image_url": "https://s3-media4.fl.yelpcdn.com/bphoto/b-xv88S5-0wJiJ-_L8PEVw/o.jpg", "is_closed": false, "url": "https://www.yelp.com/biz/pizza-hut-west-allis-6?adjust_creative=a2JdNtFqB-C38ga_06BHvw&utm_campaign=yelp_api_v3&utm_medium=api_v3_business_search&utm_source=a2JdNtFqB-C38ga_06BHvw", "review_count": 8, "categories": [{"alias": "pizza", "title": "Pizza"}, {"alias": "italian", "title": "Italian"}, {"alias": "chicken_wings", "title": "Chicken Wings"}], "rating": 1.5, "coordinates": {"latitude": 43.01688, "longitude": -87.99647}, "transactions": ["delivery"], "price": "$", "location": {"address1": "6728 Greenfield Ave.", "address2": "Ste 481", "address3": "", "city": "West Allis", "zip_code": "53214", "country": "US", "state": "WI", "display_address": ["6728 Greenfield Ave.", "Ste 481", "West Allis, WI 53214"]}, "phone": "", "display_phone": "", "distance": 2452.288908294232}, {"id": "hSB-z8vSPYgPqGq6wvosVA", "alias": "golden-chicken-carry-out-and-delivery-service-milwaukee-6", "name": "Golden Chicken Carry-Out & Delivery Service", "image_url": "https://s3-media1.fl.yelpcdn.com/bphoto/nVFIU01ngpDHvBV0eE0b5Q/o.jpg", "is_closed": false, "url": "https://www.yelp.com/biz/golden-chicken-carry-out-and-delivery-service-milwaukee-6?adjust_creative=a2JdNtFqB-C38ga_06BHvw&utm_campaign=yelp_api_v3&utm_medium=api_v3_business_search&utm_source=a2JdNtFqB-C38ga_06BHvw", "review_count": 2, "categories": [{"alias": "restaurants", "title": "Restaurants"}], "rating": 2.5, "coordinates": {"latitude": 43.03908, "longitude": -87.94598}, "transactions": ["delivery"], "price": "$", "location": {"address1": "2532 W Wisconsin Ave", "address2": "", "address3": "", "city": "Milwaukee", "zip_code": "53233", "country": "US", "state": "WI", "display_address": ["2532 W Wisconsin Ave", "Milwaukee, WI 53233"]}, "phone": "+14149333131", "display_phone": "(414) 933-3131", "distance": 2355.878094007527}, {"id": "xJQuRk5D2sPt6XNDp1CqGw", "alias": "6-points-pub-and-grill-milwaukee", "name": "6 Points Pub & Grill", "image_url": "https://s3-media1.fl.yelpcdn.com/bphoto/11ZlEFlw302xAQD-75bOmg/o.jpg", "is_closed": false, "url": "https://www.yelp.com/biz/6-points-pub-and-grill-milwaukee?adjust_creative=a2JdNtFqB-C38ga_06BHvw&utm_campaign=yelp_api_v3&utm_medium=api_v3_business_search&utm_source=a2JdNtFqB-C38ga_06BHvw", "review_count": 2, "categories": [{"alias": "pubs", "title": "Pubs"}, {"alias": "tradamerican", "title": "American (Traditional)"}], "rating": 2.5, "coordinates": {"latitude": 43.01699, "longitude": -87.9901299}, "transactions": [], "location": {"address1": "6200 W Greenfield Ave", "address2": "", "address3": "", "city": "Milwaukee", "zip_code": "53214", "country": "US", "state": "WI", "display_address": ["6200 W Greenfield Ave", "Milwaukee, WI 53214"]}, "phone": "+14147734980", "display_phone": "(414) 773-4980", "distance": 1995.277746540364}, {"id": "3HPoNTV4LxqWqi-kt4TCjQ", "alias": "fryerz-milwaukee-2", "name": "Fryerz", "image_url": "", "is_closed": false, "url": "https://www.yelp.com/biz/fryerz-milwaukee-2?adjust_creative=a2JdNtFqB-C38ga_06BHvw&utm_campaign=yelp_api_v3&utm_medium=api_v3_business_search&utm_source=a2JdNtFqB-C38ga_06BHvw", "review_count": 3, "categories": [{"alias": "chicken_wings", "title": "Chicken Wings"}, {"alias": "cheesesteaks", "title": "Cheesesteaks"}, {"alias": "burgers", "title": "Burgers"}], "rating": 2.0, "coordinates": {"latitude": 43.022864, "longitude": -87.948539}, "transactions": ["pickup", "delivery"], "location": {"address1": "809 S Layton Blvd", "address2": "", "address3": null, "city": "Milwaukee", "zip_code": "53215", "country": "US", "state": "WI", "display_address": ["809 S Layton Blvd", "Milwaukee, WI 53215"]}, "phone": "+14142265509", "display_phone": "(414) 226-5509", "distance": 1933.0018400254942}, {"id": "Kr4QTWnHgmMR3-d06AANzw", "alias": "uncle-festers-west-allis", "name": "Uncle Fester's", "image_url": "https://s3-media4.fl.yelpcdn.com/bphoto/PPQfuUT2VhThxGfoXJfp1g/o.jpg", "is_closed": false, "url": "https://www.yelp.com/biz/uncle-festers-west-allis?adjust_creative=a2JdNtFqB-C38ga_06BHvw&utm_campaign=yelp_api_v3&utm_medium=api_v3_business_search&utm_source=a2JdNtFqB-C38ga_06BHvw", "review_count": 1, "categories": [{"alias": "burgers", "title": "Burgers"}, {"alias": "hotdog", "title": "Hot Dogs"}, {"alias": "sportsbars", "title": "Sports Bars"}], "rating": 3.0, "coordinates": {"latitude": 43.0123435755614, "longitude": -87.9847401283415}, "transactions": [], "price": "$", "location": {"address1": "5732 W Mitchell St", "address2": "", "address3": null, "city": "West Allis", "zip_code": "53214", "country": "US", "state": "WI", "display_address": ["5732 W Mitchell St", "West Allis, WI 53214"]}, "phone": "+14143234465", "display_phone": "(414) 323-4465", "distance": 2094.9266945352656}, {"id": "zLtEXalAtgWpwON9BEvOJQ", "alias": "wendys-milwaukee-2", "name": "Wendy's", "image_url": "https://s3-media1.fl.yelpcdn.com/bphoto/gPXtVcKPmalcRe3BLzzWdw/o.jpg", "is_closed": false, "url": "https://www.yelp.com/biz/wendys-milwaukee-2?adjust_creative=a2JdNtFqB-C38ga_06BHvw&utm_campaign=yelp_api_v3&utm_medium=api_v3_business_search&utm_source=a2JdNtFqB-C38ga_06BHvw", "review_count": 4, "categories": [{"alias": "hotdogs", "title": "Fast Food"}, {"alias": "burgers", "title": "Burgers"}], "rating": 1.5, "coordinates": {"latitude": 43.041811, "longitude": -87.94744}, "transactions": ["delivery"], "price": "$", "location": {"address1": "914 N. 27Th Street", "address2": null, "address3": null, "city": "Milwaukee", "zip_code": "53208", "country": "US", "state": "WI", "display_address": ["914 N. 27Th Street", "Milwaukee, WI 53208"]}, "phone": "+14149339144", "display_phone": "(414) 933-9144", "distance": 2436.741299124722}, {"id": "yC2VLhbDQvGt0_KncDsdDQ", "alias": "burger-mke-west-milwaukee", "name": "Burger MKE", "image_url": "", "is_closed": false, "url": "https://www.yelp.com/biz/burger-mke-west-milwaukee?adjust_creative=a2JdNtFqB-C38ga_06BHvw&utm_campaign=yelp_api_v3&utm_medium=api_v3_business_search&utm_source=a2JdNtFqB-C38ga_06BHvw", "review_count": 2, "categories": [{"alias": "burgers", "title": "Burgers"}], "rating": 2.0, "coordinates": {"latitude": 43.005995, "longitude": -87.96819167}, "transactions": ["delivery"], "location": {"address1": "2147 Miller Park Way", "address2": "", "address3": null, "city": "West Milwaukee", "zip_code": "53219", "country": "US", "state": "WI", "display_address": ["2147 Miller Park Way", "West Milwaukee, WI 53219"]}, "phone": "", "display_phone": "", "distance": 2492.4439972667074}, {"id": "_N5RUkDverk2FwiUmav-KQ", "alias": "golden-fish-and-chicken-milwaukee", "name": "Golden Fish & Chicken", "image_url": "https://s3-media1.fl.yelpcdn.com/bphoto/jTWMe1WMxYVSB4U8u6-0cw/o.jpg", "is_closed": false, "url": "https://www.yelp.com/biz/golden-fish-and-chicken-milwaukee?adjust_creative=a2JdNtFqB-C38ga_06BHvw&utm_campaign=yelp_api_v3&utm_medium=api_v3_business_search&utm_source=a2JdNtFqB-C38ga_06BHvw", "review_count": 5, "categories": [{"alias": "seafood", "title": "Seafood"}, {"alias": "chickenshop", "title": "Chicken Shop"}, {"alias": "chicken_wings", "title": "Chicken Wings"}], "rating": 1.0, "coordinates": {"latitude": 43.03908, "longitude": -87.94598}, "transactions": ["pickup", "delivery"], "location": {"address1": "2532 W Wisconsin Ave", "address2": "", "address3": null, "city": "Milwaukee", "zip_code": "53233", "country": "US", "state": "WI", "display_address": ["2532 W Wisconsin Ave", "Milwaukee, WI 53233"]}, "phone": "+14149333131", "display_phone": "(414) 933-3131", "distance": 2355.878094007527}, {"id": "_W8y9pxYlV7y8eXBhR6ZGQ", "alias": "la-casa-mexicana-west-milwaukee", "name": "La Casa Mexicana", "image_url": "https://s3-media3.fl.yelpcdn.com/bphoto/nz-YIY3VXuqcCOvYy7HZbQ/o.jpg", "is_closed": false, "url": "https://www.yelp.com/biz/la-casa-mexicana-west-milwaukee?adjust_creative=a2JdNtFqB-C38ga_06BHvw&utm_campaign=yelp_api_v3&utm_medium=api_v3_business_search&utm_source=a2JdNtFqB-C38ga_06BHvw", "review_count": 4, "categories": [{"alias": "mexican", "title": "Mexican"}], "rating": 1.5, "coordinates": {"latitude": 43.005995, "longitude": -87.96819167}, "transactions": ["pickup", "delivery"], "location": {"address1": "2147 Miller Park Way", "address2": "", "address3": null, "city": "West Milwaukee", "zip_code": "53219", "country": "US", "state": "WI", "display_address": ["2147 Miller Park Way", "West Milwaukee, WI 53219"]}, "phone": "", "display_phone": "", "distance": 2492.4439972667074}, {"id": "PlNWWqMVYE17K7jAWXRsOw", "alias": "wings-and-things-milwaukee", "name": "Wings and  Things", "image_url": "https://s3-media2.fl.yelpcdn.com/bphoto/njesAI5vvFbS9_lq3MUZcA/o.jpg", "is_closed": false, "url": "https://www.yelp.com/biz/wings-and-things-milwaukee?adjust_creative=a2JdNtFqB-C38ga_06BHvw&utm_campaign=yelp_api_v3&utm_medium=api_v3_business_search&utm_source=a2JdNtFqB-C38ga_06BHvw", "review_count": 1, "categories": [{"alias": "tradamerican", "title": "American (Traditional)"}], "rating": 1.0, "coordinates": {"latitude": 43.0422566, "longitude": -87.9478224}, "transactions": ["delivery"], "location": {"address1": "925 N 27th St", "address2": "", "address3": "", "city": "Milwaukee", "zip_code": "53208", "country": "US", "state": "WI", "display_address": ["925 N 27th St", "Milwaukee, WI 53208"]}, "phone": "+14143459730", "display_phone": "(414) 345-9730", "distance": 2445.348671222442}, {"id": "JzW-79G7Lg5XXb7KDF5AFA", "alias": "los-tres-diamantes-milwaukee", "name": "Los Tres Diamantes", "image_url": "https://s3-media4.fl.yelpcdn.com/bphoto/-aqLQL2NECrTU9vMZjxGVw/o.jpg", "is_closed": false, "url": "https://www.yelp.com/biz/los-tres-diamantes-milwaukee?adjust_creative=a2JdNtFqB-C38ga_06BHvw&utm_campaign=yelp_api_v3&utm_medium=api_v3_business_search&utm_source=a2JdNtFqB-C38ga_06BHvw", "review_count": 1, "categories": [{"alias": "mexican", "title": "Mexican"}], "rating": 1.0, "coordinates": {"latitude": 43.0041925, "longitude": -87.9430216}, "transactions": [], "location": {"address1": "2302 W Forest Home Ave", "address2": null, "address3": null, "city": "Milwaukee", "zip_code": "53215", "country": "US", "state": "WI", "display_address": ["2302 W Forest Home Ave", "Milwaukee, WI 53215"]}, "phone": "+14143833880", "display_phone": "(414) 383-3880", "distance": 3525.551767403501}, {"id": "fYcUiLHw8xCyBkyIL6N4bA", "alias": "veterans-canteen-service-milwaukee", "name": "Veterans Canteen Service", "image_url": "", "is_closed": false, "url": "https://www.yelp.com/biz/veterans-canteen-service-milwaukee?adjust_creative=a2JdNtFqB-C38ga_06BHvw&utm_campaign=yelp_api_v3&utm_medium=api_v3_business_search&utm_source=a2JdNtFqB-C38ga_06BHvw", "review_count": 1, "categories": [{"alias": "sushi", "title": "Sushi Bars"}, {"alias": "tradamerican", "title": "American (Traditional)"}, {"alias": "hotdogs", "title": "Fast Food"}], "rating": 1.0, "coordinates": {"latitude": 43.021358496508, "longitude": -87.9760960505054}, "transactions": [], "location": {"address1": "5000 W National Ave", "address2": "", "address3": null, "city": "Milwaukee", "zip_code": "53295", "country": "US", "state": "WI", "display_address": ["5000 W National Ave", "Milwaukee, WI 53295"]}, "phone": "+14143842000", "display_phone": "(414) 384-2000", "distance": 875.0194718346964}, {"id": "MixSuFmfXO9-6Uh4HDDMPA", "alias": "greek-gyros-west-milwaukee", "name": "Greek Gyros", "image_url": "", "is_closed": false, "url": "https://www.yelp.com/biz/greek-gyros-west-milwaukee?adjust_creative=a2JdNtFqB-C38ga_06BHvw&utm_campaign=yelp_api_v3&utm_medium=api_v3_business_search&utm_source=a2JdNtFqB-C38ga_06BHvw", "review_count": 1, "categories": [{"alias": "seafood", "title": "Seafood"}, {"alias": "burgers", "title": "Burgers"}, {"alias": "sandwiches", "title": "Sandwiches"}], "rating": 1.0, "coordinates": {"latitude": 43.005995, "longitude": -87.96819167}, "transactions": ["pickup", "delivery"], "location": {"address1": "2147 Miller Park Way", "address2": "", "address3": null, "city": "West Milwaukee", "zip_code": "53219", "country": "US", "state": "WI", "display_address": ["2147 Miller Park Way", "West Milwaukee, WI 53219"]}, "phone": "", "display_phone": "", "distance": 2492.4439972667074}, {"id": "7FOdIcuKLEkIZKwnzCb0Cg", "alias": "daddy-subz-and-more-milwaukee-3", "name": "Daddy Subz and More", "image_url": "", "is_closed": false, "url": "https://www.yelp.com/biz/daddy-subz-and-more-milwaukee-3?adjust_creative=a2JdNtFqB-C38ga_06BHvw&utm_campaign=yelp_api_v3&utm_medium=api_v3_business_search&utm_source=a2JdNtFqB-C38ga_06BHvw", "review_count": 1, "categories": [{"alias": "sandwiches", "title": "Sandwiches"}, {"alias": "burgers", "title": "Burgers"}, {"alias": "chicken_wings", "title": "Chicken Wings"}], "rating": 1.0, "coordinates": {"latitude": 43.04839, "longitude": -87.94747}, "transactions": ["pickup", "delivery"], "location": {"address1": "2639 W Vliet St", "address2": null, "address3": null, "city": "Milwaukee", "zip_code": "53205", "country": "US", "state": "WI", "display_address": ["2639 W Vliet St", "Milwaukee, WI 53205"]}, "phone": "+14143441506", "display_phone": "(414) 344-1506", "distance": 2946.6030759814125}], "absolute total": 199, "total": 199}