{"league": "NBA", "team": "San Antonio Spurs", "stadium": "AT&T Center", "stadium latitude": 29.426944, "stadium longitude": -98.4375, "radius": "3000 meters", "city": "San Antonio", "state": "Texas", "businesses": [{"id": "y6flKCILSIQbqJd8Wewg4A", "alias": "ma-harpers-creole-kitchen-san-antonio", "name": "Ma Harper's Creole Kitchen", "image_url": "https://s3-media1.fl.yelpcdn.com/bphoto/YCcyDiC4Idx8zYHnDr1gUg/o.jpg", "is_closed": false, "url": "https://www.yelp.com/biz/ma-harpers-creole-kitchen-san-antonio?adjust_creative=a2JdNtFqB-C38ga_06BHvw&utm_campaign=yelp_api_v3&utm_medium=api_v3_business_search&utm_source=a2JdNtFqB-C38ga_06BHvw", "review_count": 175, "categories": [{"alias": "cajun", "title": "Cajun/Creole"}, {"alias": "desserts", "title": "Desserts"}, {"alias": "seafood", "title": "Seafood"}], "rating": 4.5, "coordinates": {"latitude": 29.441, "longitude": -98.46071}, "transactions": ["delivery"], "price": "$$", "location": {"address1": "1816 N New Braunfels Ave", "address2": "", "address3": "", "city": "San Antonio", "zip_code": "78208", "country": "US", "state": "TX", "display_address": ["1816 N New Braunfels Ave", "San Antonio, TX 78208"]}, "phone": "+12102262200", "display_phone": "(210) 226-2200", "distance": 2751.9666006681496}, {"id": "gDDZy45efbuHetl_s8B04Q", "alias": "big-poppas-tacos-san-antonio-2", "name": "Big Poppas Tacos", "image_url": "https://s3-media4.fl.yelpcdn.com/bphoto/yOjGgPnA88lfO8ScCui6nw/o.jpg", "is_closed": false, "url": "https://www.yelp.com/biz/big-poppas-tacos-san-antonio-2?adjust_creative=a2JdNtFqB-C38ga_06BHvw&utm_campaign=yelp_api_v3&utm_medium=api_v3_business_search&utm_source=a2JdNtFqB-C38ga_06BHvw", "review_count": 93, "categories": [{"alias": "tacos", "title": "Tacos"}, {"alias": "tex-mex", "title": "Tex-Mex"}], "rating": 4.5, "coordinates": {"latitude": 29.43764, "longitude": -98.46233}, "transactions": ["pickup", "delivery"], "price": "$", "location": {"address1": "2118 N PanAm Expy", "address2": "", "address3": null, "city": "San Antonio", "zip_code": "78208", "country": "US", "state": "TX", "display_address": ["2118 N PanAm Expy", "San Antonio, TX 78208"]}, "phone": "+12102310042", "display_phone": "(210) 231-0042", "distance": 2686.6032174401394}, {"id": "ET1s1FC_k0Yezg3EGFN7Mw", "alias": "mittman-fine-foods-san-antonio", "name": "Mittman Fine Foods", "image_url": "https://s3-media4.fl.yelpcdn.com/bphoto/RyBj2DoLXFG43NJWP6Q6ng/o.jpg", "is_closed": false, "url": "https://www.yelp.com/biz/mittman-fine-foods-san-antonio?adjust_creative=a2JdNtFqB-C38ga_06BHvw&utm_campaign=yelp_api_v3&utm_medium=api_v3_business_search&utm_source=a2JdNtFqB-C38ga_06BHvw", "review_count": 30, "categories": [{"alias": "tradamerican", "title": "American (Traditional)"}, {"alias": "tex-mex", "title": "Tex-Mex"}], "rating": 4.5, "coordinates": {"latitude": 29.40823, "longitude": -98.4546699}, "transactions": ["delivery"], "price": "$", "location": {"address1": "1125 S Mittman St", "address2": "", "address3": "", "city": "San Antonio", "zip_code": "78210", "country": "US", "state": "TX", "display_address": ["1125 S Mittman St", "San Antonio, TX 78210"]}, "phone": "+12105323318", "display_phone": "(210) 532-3318", "distance": 2673.723295828877}, {"id": "c4hLyLPua0aFnlaW8pe0_A", "alias": "angels-mexican-haven-san-antonio", "name": "Angel's Mexican Haven", "image_url": "https://s3-media3.fl.yelpcdn.com/bphoto/B0RTjBLXum-2Lh3YO5YKDw/o.jpg", "is_closed": false, "url": "https://www.yelp.com/biz/angels-mexican-haven-san-antonio?adjust_creative=a2JdNtFqB-C38ga_06BHvw&utm_campaign=yelp_api_v3&utm_medium=api_v3_business_search&utm_source=a2JdNtFqB-C38ga_06BHvw", "review_count": 34, "categories": [{"alias": "mexican", "title": "Mexican"}], "rating": 4.5, "coordinates": {"latitude": 29.41916, "longitude": -98.45885}, "transactions": ["delivery"], "price": "$", "location": {"address1": "2302 E Commerce St", "address2": "", "address3": "", "city": "San Antonio", "zip_code": "78203", "country": "US", "state": "TX", "display_address": ["2302 E Commerce St", "San Antonio, TX 78203"]}, "phone": "+12102244500", "display_phone": "(210) 224-4500", "distance": 2240.3114786059673}, {"id": "CLk358dlCNDD_lM3MkngKQ", "alias": "tanks-pizza-san-antonio-2", "name": "Tank's Pizza", "image_url": "https://s3-media4.fl.yelpcdn.com/bphoto/nZP6_IvApJxajyFf88wlzw/o.jpg", "is_closed": false, "url": "https://www.yelp.com/biz/tanks-pizza-san-antonio-2?adjust_creative=a2JdNtFqB-C38ga_06BHvw&utm_campaign=yelp_api_v3&utm_medium=api_v3_business_search&utm_source=a2JdNtFqB-C38ga_06BHvw", "review_count": 80, "categories": [{"alias": "pizza", "title": "Pizza"}, {"alias": "italian", "title": "Italian"}], "rating": 4.0, "coordinates": {"latitude": 29.430438109691785, "longitude": -98.46082162990052}, "transactions": ["pickup", "delivery"], "location": {"address1": "902 N New Braunfels Ave", "address2": "", "address3": null, "city": "San Antonio", "zip_code": "78202", "country": "US", "state": "TX", "display_address": ["902 N New Braunfels Ave", "San Antonio, TX 78202"]}, "phone": "+12103209224", "display_phone": "(210) 320-9224", "distance": 2291.805582833653}, {"id": "EH5GkBPt7g10V13iIuoofw", "alias": "texas-burger-company-san-antonio", "name": "Texas Burger Company", "image_url": "https://s3-media1.fl.yelpcdn.com/bphoto/-KP_8-PaPdVgaHRDumOUmg/o.jpg", "is_closed": false, "url": "https://www.yelp.com/biz/texas-burger-company-san-antonio?adjust_creative=a2JdNtFqB-C38ga_06BHvw&utm_campaign=yelp_api_v3&utm_medium=api_v3_business_search&utm_source=a2JdNtFqB-C38ga_06BHvw", "review_count": 29, "categories": [{"alias": "tradamerican", "title": "American (Traditional)"}, {"alias": "burgers", "title": "Burgers"}, {"alias": "hotdogs", "title": "Fast Food"}], "rating": 4.5, "coordinates": {"latitude": 29.41936, "longitude": -98.44146}, "transactions": ["delivery"], "price": "$", "location": {"address1": "3038 E Commerce", "address2": "", "address3": "", "city": "San Antonio", "zip_code": "78220", "country": "US", "state": "TX", "display_address": ["3038 E Commerce", "San Antonio, TX 78220"]}, "phone": "+12102291526", "display_phone": "(210) 229-1526", "distance": 930.9271989305355}, {"id": "YmcDatcw7QU6363o9RocnA", "alias": "lords-kitchen-san-antonio", "name": "Lord's Kitchen", "image_url": "https://s3-media3.fl.yelpcdn.com/bphoto/qSD5SR6cuYnhkLeV1Ra5qg/o.jpg", "is_closed": false, "url": "https://www.yelp.com/biz/lords-kitchen-san-antonio?adjust_creative=a2JdNtFqB-C38ga_06BHvw&utm_campaign=yelp_api_v3&utm_medium=api_v3_business_search&utm_source=a2JdNtFqB-C38ga_06BHvw", "review_count": 125, "categories": [{"alias": "burgers", "title": "Burgers"}], "rating": 3.5, "coordinates": {"latitude": 29.4364697, "longitude": -98.4605683}, "transactions": ["pickup", "delivery"], "price": "$$", "location": {"address1": "118 Seguin St", "address2": "", "address3": "", "city": "San Antonio", "zip_code": "78208", "country": "US", "state": "TX", "display_address": ["118 Seguin St", "San Antonio, TX 78208"]}, "phone": "+12103543888", "display_phone": "(210) 354-3888", "distance": 2463.3110127155383}, {"id": "-JaeyzPPLZfVhqbvs_6ZfQ", "alias": "terans-restaurant-san-antonio", "name": "Teran's Restaurant", "image_url": "https://s3-media1.fl.yelpcdn.com/bphoto/ufqedNZF06BZrrdbTtirpg/o.jpg", "is_closed": false, "url": "https://www.yelp.com/biz/terans-restaurant-san-antonio?adjust_creative=a2JdNtFqB-C38ga_06BHvw&utm_campaign=yelp_api_v3&utm_medium=api_v3_business_search&utm_source=a2JdNtFqB-C38ga_06BHvw", "review_count": 19, "categories": [{"alias": "mexican", "title": "Mexican"}], "rating": 4.5, "coordinates": {"latitude": 29.42469, "longitude": -98.40901}, "transactions": [], "price": "$", "location": {"address1": "4403 E Houston St", "address2": "", "address3": "", "city": "San Antonio", "zip_code": "78220", "country": "US", "state": "TX", "display_address": ["4403 E Houston St", "San Antonio, TX 78220"]}, "phone": "+12103336470", "display_phone": "(210) 333-6470", "distance": 2774.886843757066}, {"id": "iertT_XYMRi7bf222b6kTw", "alias": "lil-jonnys-taco-house-san-antonio", "name": "Lil Jonnys Taco House", "image_url": "https://s3-media2.fl.yelpcdn.com/bphoto/Fb_VpOA266HtBt7SsRSuXQ/o.jpg", "is_closed": false, "url": "https://www.yelp.com/biz/lil-jonnys-taco-house-san-antonio?adjust_creative=a2JdNtFqB-C38ga_06BHvw&utm_campaign=yelp_api_v3&utm_medium=api_v3_business_search&utm_source=a2JdNtFqB-C38ga_06BHvw", "review_count": 30, "categories": [{"alias": "mexican", "title": "Mexican"}], "rating": 4.0, "coordinates": {"latitude": 29.4481043837556, "longitude": -98.428257651793}, "transactions": ["pickup", "delivery"], "price": "$", "location": {"address1": "3601 IH35 N", "address2": "", "address3": "", "city": "San Antonio", "zip_code": "78219", "country": "US", "state": "TX", "display_address": ["3601 IH35 N", "San Antonio, TX 78219"]}, "phone": "+12102277533", "display_phone": "(210) 227-7533", "distance": 2517.401381235214}, {"id": "8-VyxEp96a0gMZyNpruM-A", "alias": "la-coronela-mexican-restaurant-san-antonio", "name": "La Coronela Mexican Restaurant", "image_url": "https://s3-media4.fl.yelpcdn.com/bphoto/oEv0Em3LwkBcstjUHu1_gg/o.jpg", "is_closed": false, "url": "https://www.yelp.com/biz/la-coronela-mexican-restaurant-san-antonio?adjust_creative=a2JdNtFqB-C38ga_06BHvw&utm_campaign=yelp_api_v3&utm_medium=api_v3_business_search&utm_source=a2JdNtFqB-C38ga_06BHvw", "review_count": 11, "categories": [{"alias": "mexican", "title": "Mexican"}], "rating": 4.5, "coordinates": {"latitude": 29.4213250373618, "longitude": -98.4615454499365}, "transactions": ["pickup", "delivery"], "location": {"address1": "201 N New Braunfels Ave", "address2": "", "address3": null, "city": "San Antonio", "zip_code": "78202", "country": "US", "state": "TX", "display_address": ["201 N New Braunfels Ave", "San Antonio, TX 78202"]}, "phone": "+12105980537", "display_phone": "(210) 598-0537", "distance": 2411.1935407282263}, {"id": "zXG5QS-C3wmK9z1AOB5J2A", "alias": "jones-sausage-house-and-barbeque-san-antonio", "name": "Jones Sausage House & Barbeque", "image_url": "https://s3-media2.fl.yelpcdn.com/bphoto/VjTIQH6rZe-yT7ga19iWTw/o.jpg", "is_closed": false, "url": "https://www.yelp.com/biz/jones-sausage-house-and-barbeque-san-antonio?adjust_creative=a2JdNtFqB-C38ga_06BHvw&utm_campaign=yelp_api_v3&utm_medium=api_v3_business_search&utm_source=a2JdNtFqB-C38ga_06BHvw", "review_count": 11, "categories": [{"alias": "bbq", "title": "Barbeque"}], "rating": 4.5, "coordinates": {"latitude": 29.4136657714844, "longitude": -98.4410171508789}, "transactions": ["delivery"], "location": {"address1": "2827 Martin Luther Kng Dr", "address2": "", "address3": "", "city": "San Antonio", "zip_code": "78220", "country": "US", "state": "TX", "display_address": ["2827 Martin Luther Kng Dr", "San Antonio, TX 78220"]}, "phone": "+12102246999", "display_phone": "(210) 224-6999", "distance": 1513.768584432868}, {"id": "MuxIGIrwP7R0oivZiPu6YA", "alias": "drop-zone-cafe-and-bar-san-antonio", "name": "Drop Zone Cafe & Bar", "image_url": "https://s3-media4.fl.yelpcdn.com/bphoto/XnaquIIfKsSD8WUtqVAqRw/o.jpg", "is_closed": false, "url": "https://www.yelp.com/biz/drop-zone-cafe-and-bar-san-antonio?adjust_creative=a2JdNtFqB-C38ga_06BHvw&utm_campaign=yelp_api_v3&utm_medium=api_v3_business_search&utm_source=a2JdNtFqB-C38ga_06BHvw", "review_count": 14, "categories": [{"alias": "mexican", "title": "Mexican"}], "rating": 4.5, "coordinates": {"latitude": 29.4414029056546, "longitude": -98.4510815198569}, "transactions": [], "price": "$", "location": {"address1": "1804 E Carson", "address2": "", "address3": null, "city": "San Antonio", "zip_code": "78208", "country": "US", "state": "TX", "display_address": ["1804 E Carson", "San Antonio, TX 78208"]}, "phone": "+12103147590", "display_phone": "(210) 314-7590", "distance": 2077.2060800650374}, {"id": "_jo9poxKSHlzpSxSokja5Q", "alias": "wen-wah-chinese-restaurant-san-antonio", "name": "Wen Wah Chinese Restaurant", "image_url": "https://s3-media2.fl.yelpcdn.com/bphoto/P9xlx325VTsveK9hcz0rww/o.jpg", "is_closed": false, "url": "https://www.yelp.com/biz/wen-wah-chinese-restaurant-san-antonio?adjust_creative=a2JdNtFqB-C38ga_06BHvw&utm_campaign=yelp_api_v3&utm_medium=api_v3_business_search&utm_source=a2JdNtFqB-C38ga_06BHvw", "review_count": 35, "categories": [{"alias": "chinese", "title": "Chinese"}], "rating": 3.5, "coordinates": {"latitude": 29.42612, "longitude": -98.46155}, "transactions": ["pickup", "delivery"], "price": "$", "location": {"address1": "531 N New Braunfels Ave", "address2": null, "address3": null, "city": "San Antonio", "zip_code": "78202", "country": "US", "state": "TX", "display_address": ["531 N New Braunfels Ave", "San Antonio, TX 78202"]}, "phone": "+12102237243", "display_phone": "(210) 223-7243", "distance": 2335.128869865421}, {"id": "FBh_d3yA9_IQ0N_LLime2A", "alias": "simple-chinese-san-antonio", "name": "Simple Chinese", "image_url": "https://s3-media1.fl.yelpcdn.com/bphoto/Z96A3kNMM4p1JBpJoLAN1Q/o.jpg", "is_closed": false, "url": "https://www.yelp.com/biz/simple-chinese-san-antonio?adjust_creative=a2JdNtFqB-C38ga_06BHvw&utm_campaign=yelp_api_v3&utm_medium=api_v3_business_search&utm_source=a2JdNtFqB-C38ga_06BHvw", "review_count": 73, "categories": [{"alias": "chinese", "title": "Chinese"}, {"alias": "vietnamese", "title": "Vietnamese"}], "rating": 3.5, "coordinates": {"latitude": 29.44066, "longitude": -98.46123}, "transactions": ["pickup", "delivery"], "price": "$", "location": {"address1": "1815 N New Braunfels Ave", "address2": "", "address3": "", "city": "San Antonio", "zip_code": "78208", "country": "US", "state": "TX", "display_address": ["1815 N New Braunfels Ave", "San Antonio, TX 78208"]}, "phone": "+12102268158", "display_phone": "(210) 226-8158", "distance": 2774.3508559956636}, {"id": "HvX8jmRlELgqclXVjAzxIA", "alias": "gradys-bbq-san-antonio-3", "name": "Grady's BBQ", "image_url": "https://s3-media4.fl.yelpcdn.com/bphoto/zkQaqq39jwTCYXN4BejHIg/o.jpg", "is_closed": false, "url": "https://www.yelp.com/biz/gradys-bbq-san-antonio-3?adjust_creative=a2JdNtFqB-C38ga_06BHvw&utm_campaign=yelp_api_v3&utm_medium=api_v3_business_search&utm_source=a2JdNtFqB-C38ga_06BHvw", "review_count": 39, "categories": [{"alias": "bbq", "title": "Barbeque"}], "rating": 3.0, "coordinates": {"latitude": 29.4485, "longitude": -98.427517}, "transactions": ["pickup", "delivery"], "price": "$", "location": {"address1": "3619 N Panam Expy", "address2": "", "address3": "", "city": "San Antonio", "zip_code": "78219", "country": "US", "state": "TX", "display_address": ["3619 N Panam Expy", "San Antonio, TX 78219"]}, "phone": "+12103438050", "display_phone": "(210) 343-8050", "distance": 2584.5281887116803}, {"id": "vV_O4oQkiZ8fht7mDzjdxA", "alias": "wingz-waffles-and-more-san-antonio-3", "name": "Wing'z Waffles & More", "image_url": "https://s3-media1.fl.yelpcdn.com/bphoto/JZF_xlpyYcU60b80Efml0w/o.jpg", "is_closed": false, "url": "https://www.yelp.com/biz/wingz-waffles-and-more-san-antonio-3?adjust_creative=a2JdNtFqB-C38ga_06BHvw&utm_campaign=yelp_api_v3&utm_medium=api_v3_business_search&utm_source=a2JdNtFqB-C38ga_06BHvw", "review_count": 12, "categories": [{"alias": "waffles", "title": "Waffles"}, {"alias": "chicken_wings", "title": "Chicken Wings"}, {"alias": "burgers", "title": "Burgers"}], "rating": 3.5, "coordinates": {"latitude": 29.440462, "longitude": -98.460739}, "transactions": ["pickup", "delivery"], "location": {"address1": "1103 Mason St", "address2": null, "address3": "", "city": "San Antonio", "zip_code": "78208", "country": "US", "state": "TX", "display_address": ["1103 Mason St", "San Antonio, TX 78208"]}, "phone": "+12102539787", "display_phone": "(210) 253-9787", "distance": 2706.333012486975}, {"id": "oQjuMrN6jRORGc5OTFwE-Q", "alias": "cerveceria-88-san-antonio", "name": "Cerveceria 88", "image_url": "https://s3-media3.fl.yelpcdn.com/bphoto/Gsvzx25w74CMAwW4aUBn4g/o.jpg", "is_closed": false, "url": "https://www.yelp.com/biz/cerveceria-88-san-antonio?adjust_creative=a2JdNtFqB-C38ga_06BHvw&utm_campaign=yelp_api_v3&utm_medium=api_v3_business_search&utm_source=a2JdNtFqB-C38ga_06BHvw", "review_count": 12, "categories": [{"alias": "tacos", "title": "Tacos"}, {"alias": "chicken_wings", "title": "Chicken Wings"}, {"alias": "cocktailbars", "title": "Cocktail Bars"}], "rating": 3.5, "coordinates": {"latitude": 29.439271, "longitude": -98.462246}, "transactions": ["delivery"], "location": {"address1": "2119 I-35", "address2": null, "address3": "", "city": "San Antonio", "zip_code": "78208", "country": "US", "state": "TX", "display_address": ["2119 I-35", "San Antonio, TX 78208"]}, "phone": "+12108881481", "display_phone": "(210) 888-1481", "distance": 2765.731461251243}, {"id": "PtWYpdOW9iuvUpmptwtepg", "alias": "taqueria-chapala-jalisco-mexican-restaurant-san-antonio", "name": "Taqueria Chapala Jalisco Mexican Restaurant", "image_url": "https://s3-media3.fl.yelpcdn.com/bphoto/AldpZfPnXLCH3eMdmj1Z3w/o.jpg", "is_closed": false, "url": "https://www.yelp.com/biz/taqueria-chapala-jalisco-mexican-restaurant-san-antonio?adjust_creative=a2JdNtFqB-C38ga_06BHvw&utm_campaign=yelp_api_v3&utm_medium=api_v3_business_search&utm_source=a2JdNtFqB-C38ga_06BHvw", "review_count": 11, "categories": [{"alias": "mexican", "title": "Mexican"}], "rating": 3.5, "coordinates": {"latitude": 29.440565712279, "longitude": -98.4605580821828}, "transactions": ["delivery"], "price": "$", "location": {"address1": "1808 N New Braunfels Ave", "address2": "", "address3": null, "city": "San Antonio", "zip_code": "78208", "country": "US", "state": "TX", "display_address": ["1808 N New Braunfels Ave", "San Antonio, TX 78208"]}, "phone": "+12103682966", "display_phone": "(210) 368-2966", "distance": 2698.2368005130397}, {"id": "amyaDZUeZLBlCzInBSWDOA", "alias": "restaurante-la-morenita-san-antonio", "name": "Restaurante La Morenita", "image_url": "https://s3-media4.fl.yelpcdn.com/bphoto/355KASqY_2wvgLe4qw2OsQ/o.jpg", "is_closed": false, "url": "https://www.yelp.com/biz/restaurante-la-morenita-san-antonio?adjust_creative=a2JdNtFqB-C38ga_06BHvw&utm_campaign=yelp_api_v3&utm_medium=api_v3_business_search&utm_source=a2JdNtFqB-C38ga_06BHvw", "review_count": 5, "categories": [{"alias": "mexican", "title": "Mexican"}, {"alias": "latin", "title": "Latin American"}], "rating": 4.5, "coordinates": {"latitude": 29.40562, "longitude": -98.45473}, "transactions": ["delivery"], "price": "$", "location": {"address1": "750 Porter St", "address2": null, "address3": null, "city": "San Antonio", "zip_code": "78210", "country": "US", "state": "TX", "display_address": ["750 Porter St", "San Antonio, TX 78210"]}, "phone": "+12105343790", "display_phone": "(210) 534-3790", "distance": 2892.5125808607468}, {"id": "dOk5SzcBGd5ps2P7aag9Lg", "alias": "bill-miller-bar-b-q-san-antonio-22", "name": "Bill Miller Bar-B-Q", "image_url": "https://s3-media3.fl.yelpcdn.com/bphoto/AyzTBu33b4uqJBi1KRrMLA/o.jpg", "is_closed": false, "url": "https://www.yelp.com/biz/bill-miller-bar-b-q-san-antonio-22?adjust_creative=a2JdNtFqB-C38ga_06BHvw&utm_campaign=yelp_api_v3&utm_medium=api_v3_business_search&utm_source=a2JdNtFqB-C38ga_06BHvw", "review_count": 27, "categories": [{"alias": "bbq", "title": "Barbeque"}], "rating": 3.0, "coordinates": {"latitude": 29.439958, "longitude": -98.460721}, "transactions": ["delivery"], "price": "$", "location": {"address1": "1720 N New Braunfels", "address2": "", "address3": "", "city": "San Antonio", "zip_code": "78208", "country": "US", "state": "TX", "display_address": ["1720 N New Braunfels", "San Antonio, TX 78208"]}, "phone": "+12102244884", "display_phone": "(210) 224-4884", "distance": 2672.0445541681347}, {"id": "BC7-IBXaTMcqu-1ldBzcFA", "alias": "la-playa-seafood-restaurant-san-antonio", "name": "La Playa Seafood Restaurant", "image_url": "https://s3-media2.fl.yelpcdn.com/bphoto/MtYRVugexmuHhCSe21d9gA/o.jpg", "is_closed": false, "url": "https://www.yelp.com/biz/la-playa-seafood-restaurant-san-antonio?adjust_creative=a2JdNtFqB-C38ga_06BHvw&utm_campaign=yelp_api_v3&utm_medium=api_v3_business_search&utm_source=a2JdNtFqB-C38ga_06BHvw", "review_count": 14, "categories": [{"alias": "seafood", "title": "Seafood"}, {"alias": "mexican", "title": "Mexican"}], "rating": 3.0, "coordinates": {"latitude": 29.4323588028094, "longitude": -98.4067028331477}, "transactions": [], "price": "$$", "location": {"address1": "4411 E Ih-10", "address2": "", "address3": "", "city": "San Antonio", "zip_code": "78213", "country": "US", "state": "TX", "display_address": ["4411 E Ih-10", "San Antonio, TX 78213"]}, "phone": "+12103374700", "display_phone": "(210) 337-4700", "distance": 3042.754343488045}, {"id": "UPwGd1u52mEpJbEeduAaHQ", "alias": "artemisias-at-spc-san-antonio", "name": "Artemisia's At SPC", "image_url": "https://s3-media1.fl.yelpcdn.com/bphoto/XVaJio9v-Dv1mLJ_PLek4A/o.jpg", "is_closed": false, "url": "https://www.yelp.com/biz/artemisias-at-spc-san-antonio?adjust_creative=a2JdNtFqB-C38ga_06BHvw&utm_campaign=yelp_api_v3&utm_medium=api_v3_business_search&utm_source=a2JdNtFqB-C38ga_06BHvw", "review_count": 3, "categories": [{"alias": "cafeteria", "title": "Cafeteria"}, {"alias": "newamerican", "title": "American (New)"}], "rating": 5.0, "coordinates": {"latitude": 29.41401, "longitude": -98.45452}, "transactions": [], "location": {"address1": "1801 Martin Luther King Dr", "address2": "", "address3": "", "city": "San Antonio", "zip_code": "78203", "country": "US", "state": "TX", "display_address": ["1801 Martin Luther King Dr", "San Antonio, TX 78203"]}, "phone": "+12104862328", "display_phone": "(210) 486-2328", "distance": 2203.744468081048}, {"id": "xgXL5LRMmUaV8ehB_ljyGA", "alias": "whataburger-san-antonio-43", "name": "Whataburger", "image_url": "https://s3-media1.fl.yelpcdn.com/bphoto/BNLksxszIp-xGSRWS_CWWg/o.jpg", "is_closed": false, "url": "https://www.yelp.com/biz/whataburger-san-antonio-43?adjust_creative=a2JdNtFqB-C38ga_06BHvw&utm_campaign=yelp_api_v3&utm_medium=api_v3_business_search&utm_source=a2JdNtFqB-C38ga_06BHvw", "review_count": 33, "categories": [{"alias": "burgers", "title": "Burgers"}, {"alias": "hotdogs", "title": "Fast Food"}], "rating": 2.5, "coordinates": {"latitude": 29.4025938349211, "longitude": -98.4427464008331}, "transactions": ["delivery"], "price": "$", "location": {"address1": "303 Roland Rd", "address2": "", "address3": "", "city": "San Antonio", "zip_code": "78210", "country": "US", "state": "TX", "display_address": ["303 Roland Rd", "San Antonio, TX 78210"]}, "phone": "+12103337060", "display_phone": "(210) 333-7060", "distance": 2754.88598948788}, {"id": "lwviMgio2yuC13DLAQh9qA", "alias": "greenwoods-bar-and-grill-san-antonio", "name": "Greenwood's Bar & Grill", "image_url": "https://s3-media1.fl.yelpcdn.com/bphoto/sirRMx_BBZp0eIlNiw4jXQ/o.jpg", "is_closed": false, "url": "https://www.yelp.com/biz/greenwoods-bar-and-grill-san-antonio?adjust_creative=a2JdNtFqB-C38ga_06BHvw&utm_campaign=yelp_api_v3&utm_medium=api_v3_business_search&utm_source=a2JdNtFqB-C38ga_06BHvw", "review_count": 4, "categories": [{"alias": "bars", "title": "Bars"}, {"alias": "tradamerican", "title": "American (Traditional)"}], "rating": 4.5, "coordinates": {"latitude": 29.42252, "longitude": -98.46154}, "transactions": ["delivery"], "price": "$", "location": {"address1": "301 N New Braunfels Ave", "address2": null, "address3": null, "city": "San Antonio", "zip_code": "78202", "country": "US", "state": "TX", "display_address": ["301 N New Braunfels Ave", "San Antonio, TX 78202"]}, "phone": "+12102241969", "display_phone": "(210) 224-1969", "distance": 2378.4678119805153}, {"id": "wjQRtUTsakLl-d8bFBMpAA", "alias": "teresitas-mexican-restaurant-san-antonio", "name": "Teresita's Mexican Restaurant", "image_url": "https://s3-media3.fl.yelpcdn.com/bphoto/LRzv5TPKEVar-pHt9NWkew/o.jpg", "is_closed": false, "url": "https://www.yelp.com/biz/teresitas-mexican-restaurant-san-antonio?adjust_creative=a2JdNtFqB-C38ga_06BHvw&utm_campaign=yelp_api_v3&utm_medium=api_v3_business_search&utm_source=a2JdNtFqB-C38ga_06BHvw", "review_count": 8, "categories": [{"alias": "mexican", "title": "Mexican"}], "rating": 3.5, "coordinates": {"latitude": 29.43039, "longitude": -98.46127}, "transactions": ["delivery"], "price": "$", "location": {"address1": "901 N New Braunfels Ave", "address2": "", "address3": "", "city": "San Antonio", "zip_code": "78202", "country": "US", "state": "TX", "display_address": ["901 N New Braunfels Ave", "San Antonio, TX 78202"]}, "phone": "+12102125322", "display_phone": "(210) 212-5322", "distance": 2325.856057325917}, {"id": "ibiDJIYoIGHemoKURqY-lQ", "alias": "subway-san-antonio-38", "name": "Subway", "image_url": "https://s3-media2.fl.yelpcdn.com/bphoto/qtUOdtz5XWgodzcivvxtew/o.jpg", "is_closed": false, "url": "https://www.yelp.com/biz/subway-san-antonio-38?adjust_creative=a2JdNtFqB-C38ga_06BHvw&utm_campaign=yelp_api_v3&utm_medium=api_v3_business_search&utm_source=a2JdNtFqB-C38ga_06BHvw", "review_count": 7, "categories": [{"alias": "sandwiches", "title": "Sandwiches"}, {"alias": "hotdogs", "title": "Fast Food"}], "rating": 3.5, "coordinates": {"latitude": 29.449520111084, "longitude": -98.4562454223633}, "transactions": [], "price": "$", "location": {"address1": "2241-2259 Stanley Rd", "address2": "", "address3": "Fort Sam Houston", "city": "San Antonio", "zip_code": "78234", "country": "US", "state": "TX", "display_address": ["2241-2259 Stanley Rd", "Fort Sam Houston", "San Antonio, TX 78234"]}, "phone": "", "display_phone": "", "distance": 3097.909072525256}, {"id": "X-WgsBj9_qiWIZHvavSrwA", "alias": "taste-of-san-antonio-san-antonio", "name": "Taste Of San Antonio", "image_url": "https://s3-media1.fl.yelpcdn.com/bphoto/aPCWWKXEk_ova4-WN0TrBg/o.jpg", "is_closed": false, "url": "https://www.yelp.com/biz/taste-of-san-antonio-san-antonio?adjust_creative=a2JdNtFqB-C38ga_06BHvw&utm_campaign=yelp_api_v3&utm_medium=api_v3_business_search&utm_source=a2JdNtFqB-C38ga_06BHvw", "review_count": 2, "categories": [{"alias": "bars", "title": "Bars"}, {"alias": "burgers", "title": "Burgers"}], "rating": 5.0, "coordinates": {"latitude": 29.4270286560059, "longitude": -98.4394378662109}, "transactions": [], "price": "$$$", "location": {"address1": "3201 E Houston St", "address2": "", "address3": "", "city": "San Antonio", "zip_code": "78219", "country": "US", "state": "TX", "display_address": ["3201 E Houston St", "San Antonio, TX 78219"]}, "phone": "", "display_phone": "", "distance": 187.91579641141837}, {"id": "gBNt1XlGkxxL8v6ETnd1CQ", "alias": "alamo-city-market-san-antonio-2", "name": "Alamo City Market", "image_url": "https://s3-media2.fl.yelpcdn.com/bphoto/AuSDGyaXnN2JU_i5nyvxPQ/o.jpg", "is_closed": false, "url": "https://www.yelp.com/biz/alamo-city-market-san-antonio-2?adjust_creative=a2JdNtFqB-C38ga_06BHvw&utm_campaign=yelp_api_v3&utm_medium=api_v3_business_search&utm_source=a2JdNtFqB-C38ga_06BHvw", "review_count": 2, "categories": [{"alias": "burgers", "title": "Burgers"}, {"alias": "chicken_wings", "title": "Chicken Wings"}, {"alias": "sandwiches", "title": "Sandwiches"}], "rating": 5.0, "coordinates": {"latitude": 29.428815, "longitude": -98.460915}, "transactions": ["delivery", "pickup"], "location": {"address1": "734 North New Braunfels", "address2": null, "address3": null, "city": "San Antonio", "zip_code": "78205", "country": "US", "state": "TX", "display_address": ["734 North New Braunfels", "San Antonio, TX 78205"]}, "phone": "+12104557331", "display_phone": "(210) 455-7331", "distance": 2276.1653756537435}, {"id": "WIU7yVIBMm8XRHHP4fBPEw", "alias": "papi-s-mexican-restaurant-san-antonio", "name": "Papi’s Mexican Restaurant", "image_url": "https://s3-media2.fl.yelpcdn.com/bphoto/oZd5hiZgHu6ujKC5d_hCMQ/o.jpg", "is_closed": false, "url": "https://www.yelp.com/biz/papi-s-mexican-restaurant-san-antonio?adjust_creative=a2JdNtFqB-C38ga_06BHvw&utm_campaign=yelp_api_v3&utm_medium=api_v3_business_search&utm_source=a2JdNtFqB-C38ga_06BHvw", "review_count": 2, "categories": [{"alias": "mexican", "title": "Mexican"}], "rating": 5.0, "coordinates": {"latitude": 29.42494, "longitude": -98.44718}, "transactions": [], "location": {"address1": "2802 E Houston St", "address2": "", "address3": null, "city": "San Antonio", "zip_code": "78202", "country": "US", "state": "TX", "display_address": ["2802 E Houston St", "San Antonio, TX 78202"]}, "phone": "+12102570669", "display_phone": "(210) 257-0669", "distance": 963.6240928584755}, {"id": "pMgbd3lUjHbRxzWApUpihA", "alias": "taqueria-mi-guanajuato-san-antonio", "name": "Taqueria Mi. Guanajuato", "image_url": "https://s3-media3.fl.yelpcdn.com/bphoto/7smmbGqRTJsgIevTBKtIgQ/o.jpg", "is_closed": false, "url": "https://www.yelp.com/biz/taqueria-mi-guanajuato-san-antonio?adjust_creative=a2JdNtFqB-C38ga_06BHvw&utm_campaign=yelp_api_v3&utm_medium=api_v3_business_search&utm_source=a2JdNtFqB-C38ga_06BHvw", "review_count": 5, "categories": [{"alias": "mexican", "title": "Mexican"}], "rating": 3.5, "coordinates": {"latitude": 29.4090500521925, "longitude": -98.4521418437362}, "transactions": [], "location": {"address1": "403 Vine St", "address2": "", "address3": "", "city": "San Antonio", "zip_code": "78210", "country": "US", "state": "TX", "display_address": ["403 Vine St", "San Antonio, TX 78210"]}, "phone": "", "display_phone": "", "distance": 2443.3923742202896}, {"id": "J0vsCi56EgijoD4KbBfMfQ", "alias": "mcdonalds-san-antonio", "name": "McDonald's", "image_url": "https://s3-media1.fl.yelpcdn.com/bphoto/0WeqM0TmNrjDpZ82SPlQAQ/o.jpg", "is_closed": false, "url": "https://www.yelp.com/biz/mcdonalds-san-antonio?adjust_creative=a2JdNtFqB-C38ga_06BHvw&utm_campaign=yelp_api_v3&utm_medium=api_v3_business_search&utm_source=a2JdNtFqB-C38ga_06BHvw", "review_count": 39, "categories": [{"alias": "burgers", "title": "Burgers"}, {"alias": "hotdogs", "title": "Fast Food"}, {"alias": "coffee", "title": "Coffee & Tea"}], "rating": 2.0, "coordinates": {"latitude": 29.438399259763, "longitude": -98.4497818350792}, "transactions": ["delivery"], "price": "$", "location": {"address1": "2646 N Panamer Expry", "address2": "", "address3": "", "city": "San Antonio", "zip_code": "78208", "country": "US", "state": "TX", "display_address": ["2646 N Panamer Expry", "San Antonio, TX 78208"]}, "phone": "+12102248037", "display_phone": "(210) 224-8037", "distance": 1742.7514691642148}, {"id": "PhkvmoeCIzdBlkWOL0tPKg", "alias": "burgerteca-at-the-at-and-t-center-san-antonio", "name": "Burgerteca at the AT&T Center", "image_url": "https://s3-media1.fl.yelpcdn.com/bphoto/XvgLs0hTwMwbiWDe3gLIQg/o.jpg", "is_closed": false, "url": "https://www.yelp.com/biz/burgerteca-at-the-at-and-t-center-san-antonio?adjust_creative=a2JdNtFqB-C38ga_06BHvw&utm_campaign=yelp_api_v3&utm_medium=api_v3_business_search&utm_source=a2JdNtFqB-C38ga_06BHvw", "review_count": 7, "categories": [{"alias": "tex-mex", "title": "Tex-Mex"}, {"alias": "mexican", "title": "Mexican"}], "rating": 3.0, "coordinates": {"latitude": 29.427072459261, "longitude": -98.4374436736107}, "transactions": [], "location": {"address1": "1 Att Center Pkwy", "address2": "", "address3": null, "city": "San Antonio", "zip_code": "78219", "country": "US", "state": "TX", "display_address": ["1 Att Center Pkwy", "San Antonio, TX 78219"]}, "phone": "", "display_phone": "", "distance": 15.290233836281537}, {"id": "2-iQpQx6m6GxQlckkkBRIw", "alias": "may-s-asian-delights-san-antonio-2", "name": "May’s Asian Delights", "image_url": "https://s3-media2.fl.yelpcdn.com/bphoto/f22qPnTIsGMRVxkuLLpgjg/o.jpg", "is_closed": false, "url": "https://www.yelp.com/biz/may-s-asian-delights-san-antonio-2?adjust_creative=a2JdNtFqB-C38ga_06BHvw&utm_campaign=yelp_api_v3&utm_medium=api_v3_business_search&utm_source=a2JdNtFqB-C38ga_06BHvw", "review_count": 5, "categories": [{"alias": "chinese", "title": "Chinese"}], "rating": 3.0, "coordinates": {"latitude": 29.4526869362524, "longitude": -98.4455299724714}, "transactions": [], "location": {"address1": "2831 Henry T Allen Rd", "address2": null, "address3": null, "city": "San Antonio", "zip_code": "78234", "country": "US", "state": "TX", "display_address": ["2831 Henry T Allen Rd", "San Antonio, TX 78234"]}, "phone": "", "display_phone": "", "distance": 2830.011533481609}, {"id": "5hOZ_kavykhgs-vonMpWNQ", "alias": "bayseas-seafood-southern-catfish-capital-san-antonio", "name": "Bayseas Seafood Southern Catfish Capital", "image_url": "https://s3-media3.fl.yelpcdn.com/bphoto/AH1xbxcfFTKsC8wptUCrqw/o.jpg", "is_closed": false, "url": "https://www.yelp.com/biz/bayseas-seafood-southern-catfish-capital-san-antonio?adjust_creative=a2JdNtFqB-C38ga_06BHvw&utm_campaign=yelp_api_v3&utm_medium=api_v3_business_search&utm_source=a2JdNtFqB-C38ga_06BHvw", "review_count": 6, "categories": [{"alias": "seafood", "title": "Seafood"}], "rating": 3.0, "coordinates": {"latitude": 29.42873, "longitude": -98.4609}, "transactions": ["delivery"], "location": {"address1": "734 N New Braunfels Ave", "address2": "Ste 101", "address3": null, "city": "San Antonio", "zip_code": "78202", "country": "US", "state": "TX", "display_address": ["734 N New Braunfels Ave", "Ste 101", "San Antonio, TX 78202"]}, "phone": "+12106800325", "display_phone": "(210) 680-0325", "distance": 2276.377564618175}, {"id": "mhrMF9JnQkVv32efqEuw9A", "alias": "wendys-san-antonio-45", "name": "Wendy's", "image_url": "https://s3-media3.fl.yelpcdn.com/bphoto/ulS80f2ZHDAVEYCZ0Qdx_A/o.jpg", "is_closed": false, "url": "https://www.yelp.com/biz/wendys-san-antonio-45?adjust_creative=a2JdNtFqB-C38ga_06BHvw&utm_campaign=yelp_api_v3&utm_medium=api_v3_business_search&utm_source=a2JdNtFqB-C38ga_06BHvw", "review_count": 11, "categories": [{"alias": "hotdogs", "title": "Fast Food"}, {"alias": "burgers", "title": "Burgers"}], "rating": 2.5, "coordinates": {"latitude": 29.438345, "longitude": -98.450874}, "transactions": ["delivery"], "price": "$", "location": {"address1": "742 Sequin St", "address2": "", "address3": null, "city": "San Antonio", "zip_code": "78208", "country": "US", "state": "TX", "display_address": ["742 Sequin St", "San Antonio, TX 78208"]}, "phone": "+12105011162", "display_phone": "(210) 501-1162", "distance": 1812.3582918541447}, {"id": "83TgPA5tnshWLAxIsiB52g", "alias": "mr-gyros-san-antonio", "name": "Mr Gyros", "image_url": "https://s3-media1.fl.yelpcdn.com/bphoto/3jZ1i63q5bwUPoKw_EtNwQ/o.jpg", "is_closed": false, "url": "https://www.yelp.com/biz/mr-gyros-san-antonio?adjust_creative=a2JdNtFqB-C38ga_06BHvw&utm_campaign=yelp_api_v3&utm_medium=api_v3_business_search&utm_source=a2JdNtFqB-C38ga_06BHvw", "review_count": 9, "categories": [{"alias": "greek", "title": "Greek"}], "rating": 2.5, "coordinates": {"latitude": 29.4505561, "longitude": -98.4466629}, "transactions": [], "price": "$", "location": {"address1": "2503 Funston Rd", "address2": "", "address3": "", "city": "San Antonio", "zip_code": "78234", "country": "US", "state": "TX", "display_address": ["2503 Funston Rd", "San Antonio, TX 78234"]}, "phone": "+12122020345", "display_phone": "(212) 202-0345", "distance": 2842.7647356680704}, {"id": "eSBbeG678fg63HCnL9TDVQ", "alias": "rock-and-brews-san-antonio-3", "name": "Rock & Brews", "image_url": "https://s3-media3.fl.yelpcdn.com/bphoto/x9gd2jkw0qGyuezKSJSJzQ/o.jpg", "is_closed": false, "url": "https://www.yelp.com/biz/rock-and-brews-san-antonio-3?adjust_creative=a2JdNtFqB-C38ga_06BHvw&utm_campaign=yelp_api_v3&utm_medium=api_v3_business_search&utm_source=a2JdNtFqB-C38ga_06BHvw", "review_count": 7, "categories": [{"alias": "bars", "title": "Bars"}, {"alias": "burgers", "title": "Burgers"}, {"alias": "sandwiches", "title": "Sandwiches"}], "rating": 2.5, "coordinates": {"latitude": 29.4269574035557, "longitude": -98.43815010041}, "transactions": [], "price": "$$", "location": {"address1": "1 AT&T Center Parkway", "address2": "", "address3": "", "city": "San Antonio", "zip_code": "78219", "country": "US", "state": "TX", "display_address": ["1 AT&T Center Parkway", "San Antonio, TX 78219"]}, "phone": "+16363063977", "display_phone": "(636) 306-3977", "distance": 62.979057399081206}, {"id": "a9AB_uyVS6prQVNgbQWh6A", "alias": "la-gloria-at-the-at-and-t-center-san-antonio", "name": "La Gloria at the AT&T Center", "image_url": "https://s3-media2.fl.yelpcdn.com/bphoto/6I1F-1RIM7LUpSBlmzASYw/o.jpg", "is_closed": false, "url": "https://www.yelp.com/biz/la-gloria-at-the-at-and-t-center-san-antonio?adjust_creative=a2JdNtFqB-C38ga_06BHvw&utm_campaign=yelp_api_v3&utm_medium=api_v3_business_search&utm_source=a2JdNtFqB-C38ga_06BHvw", "review_count": 6, "categories": [{"alias": "tacos", "title": "Tacos"}, {"alias": "cocktailbars", "title": "Cocktail Bars"}], "rating": 3.0, "coordinates": {"latitude": 29.427072459261, "longitude": -98.4374436736107}, "transactions": [], "location": {"address1": "1 Att Center Pkwy", "address2": "", "address3": null, "city": "San Antonio", "zip_code": "78219", "country": "US", "state": "TX", "display_address": ["1 Att Center Pkwy", "San Antonio, TX 78219"]}, "phone": "", "display_phone": "", "distance": 15.290233836281537}, {"id": "_UA0rqaPvRytXpJ3OfHUBA", "alias": "whataburger-san-antonio-58", "name": "Whataburger", "image_url": "https://s3-media3.fl.yelpcdn.com/bphoto/FjRgmDHOGf0iYflh7OL35Q/o.jpg", "is_closed": false, "url": "https://www.yelp.com/biz/whataburger-san-antonio-58?adjust_creative=a2JdNtFqB-C38ga_06BHvw&utm_campaign=yelp_api_v3&utm_medium=api_v3_business_search&utm_source=a2JdNtFqB-C38ga_06BHvw", "review_count": 5, "categories": [{"alias": "burgers", "title": "Burgers"}, {"alias": "hotdogs", "title": "Fast Food"}], "rating": 3.0, "coordinates": {"latitude": 29.426503, "longitude": -98.437689}, "transactions": ["delivery"], "price": "$", "location": {"address1": "AT&T Ctr Pkwy", "address2": "", "address3": "", "city": "San Antonio", "zip_code": "78219", "country": "US", "state": "TX", "display_address": ["AT&T Ctr Pkwy", "San Antonio, TX 78219"]}, "phone": "+12102232441", "display_phone": "(210) 223-2441", "distance": 52.3418715174038}, {"id": "bVgkNGGHVDu4ZdCG9nP5hw", "alias": "little-caesars-pizza-san-antonio-26", "name": "Little Caesar's Pizza", "image_url": "https://s3-media3.fl.yelpcdn.com/bphoto/iRMGcMLM-AwCbx9FEe0Q6A/o.jpg", "is_closed": false, "url": "https://www.yelp.com/biz/little-caesars-pizza-san-antonio-26?adjust_creative=a2JdNtFqB-C38ga_06BHvw&utm_campaign=yelp_api_v3&utm_medium=api_v3_business_search&utm_source=a2JdNtFqB-C38ga_06BHvw", "review_count": 18, "categories": [{"alias": "pizza", "title": "Pizza"}], "rating": 2.0, "coordinates": {"latitude": 29.42656, "longitude": -98.46135}, "transactions": [], "price": "$", "location": {"address1": "601 N New Braunfels Ave", "address2": null, "address3": null, "city": "San Antonio", "zip_code": "78202", "country": "US", "state": "TX", "display_address": ["601 N New Braunfels Ave", "San Antonio, TX 78202"]}, "phone": "+12102220749", "display_phone": "(210) 222-0749", "distance": 2306.782967659121}, {"id": "V1Sm_ct__y9RiolLK3j6xA", "alias": "jack-in-the-box-san-antonio-5", "name": "Jack in the Box", "image_url": "https://s3-media4.fl.yelpcdn.com/bphoto/5R4RlCN8AQ89zK8-NPZV5g/o.jpg", "is_closed": false, "url": "https://www.yelp.com/biz/jack-in-the-box-san-antonio-5?adjust_creative=a2JdNtFqB-C38ga_06BHvw&utm_campaign=yelp_api_v3&utm_medium=api_v3_business_search&utm_source=a2JdNtFqB-C38ga_06BHvw", "review_count": 15, "categories": [{"alias": "hotdogs", "title": "Fast Food"}, {"alias": "burgers", "title": "Burgers"}, {"alias": "tacos", "title": "Tacos"}], "rating": 2.0, "coordinates": {"latitude": 29.425339, "longitude": -98.4608325362206}, "transactions": ["delivery"], "price": "$", "location": {"address1": "502 N New Braunfels Ave", "address2": "", "address3": "", "city": "San Antonio", "zip_code": "78202", "country": "US", "state": "TX", "display_address": ["502 N New Braunfels Ave", "San Antonio, TX 78202"]}, "phone": "+12102266875", "display_phone": "(210) 226-6875", "distance": 2266.7816922262364}, {"id": "8h6SIfTthw4c05VJEtZVkA", "alias": "terrace-club-restaurant-san-antonio", "name": "Terrace Club Restaurant", "image_url": "https://s3-media4.fl.yelpcdn.com/bphoto/oKlvwkHrcINb0I0bNQZ5JQ/o.jpg", "is_closed": false, "url": "https://www.yelp.com/biz/terrace-club-restaurant-san-antonio?adjust_creative=a2JdNtFqB-C38ga_06BHvw&utm_campaign=yelp_api_v3&utm_medium=api_v3_business_search&utm_source=a2JdNtFqB-C38ga_06BHvw", "review_count": 3, "categories": [{"alias": "newamerican", "title": "American (New)"}], "rating": 3.5, "coordinates": {"latitude": 29.42661, "longitude": -98.437675}, "transactions": [], "location": {"address1": "One AT & T Center Pkwy", "address2": null, "address3": "", "city": "San Antonio", "zip_code": "78219", "country": "US", "state": "TX", "display_address": ["One AT & T Center Pkwy", "San Antonio, TX 78219"]}, "phone": "+12104445389", "display_phone": "(210) 444-5389", "distance": 40.823569914243144}, {"id": "iquEsngsBPe6-fMG7s9Nrw", "alias": "petes-chicken-shack-san-antonio", "name": "Pete's Chicken shack", "image_url": "https://s3-media2.fl.yelpcdn.com/bphoto/FXCXsEU-e_Kfg5oEBhByOg/o.jpg", "is_closed": false, "url": "https://www.yelp.com/biz/petes-chicken-shack-san-antonio?adjust_creative=a2JdNtFqB-C38ga_06BHvw&utm_campaign=yelp_api_v3&utm_medium=api_v3_business_search&utm_source=a2JdNtFqB-C38ga_06BHvw", "review_count": 1, "categories": [{"alias": "foodtrucks", "title": "Food Trucks"}, {"alias": "chickenshop", "title": "Chicken Shop"}, {"alias": "chicken_wings", "title": "Chicken Wings"}], "rating": 5.0, "coordinates": {"latitude": 29.42723, "longitude": -98.45949}, "transactions": [], "location": {"address1": "", "address2": "", "address3": null, "city": "San Antonio", "zip_code": "78202", "country": "US", "state": "TX", "display_address": ["San Antonio, TX 78202"]}, "phone": "+12104206444", "display_phone": "(210) 420-6444", "distance": 2165.896515605435}, {"id": "6wgXNiTWzyQQuCNWe96q-w", "alias": "tenders-love-and-chicken-san-antonio", "name": "Tenders Love & Chicken", "image_url": "https://s3-media2.fl.yelpcdn.com/bphoto/iHa_n6EWgNd170qF-dBKhw/o.jpg", "is_closed": false, "url": "https://www.yelp.com/biz/tenders-love-and-chicken-san-antonio?adjust_creative=a2JdNtFqB-C38ga_06BHvw&utm_campaign=yelp_api_v3&utm_medium=api_v3_business_search&utm_source=a2JdNtFqB-C38ga_06BHvw", "review_count": 1, "categories": [{"alias": "newamerican", "title": "American (New)"}], "rating": 5.0, "coordinates": {"latitude": 29.4271472161976, "longitude": -98.4374872595072}, "transactions": [], "location": {"address1": "1 Att Center Pkwy", "address2": "", "address3": null, "city": "San Antonio", "zip_code": "78219", "country": "US", "state": "TX", "display_address": ["1 Att Center Pkwy", "San Antonio, TX 78219"]}, "phone": "", "display_phone": "", "distance": 22.630248959028627}, {"id": "2Y0x6uTUxGIpdJnO_il6WA", "alias": "river-city-wok-san-antonio", "name": "River City Wok", "image_url": "https://s3-media3.fl.yelpcdn.com/bphoto/NRIfoZxLvfOr1-iuBMy4Jg/o.jpg", "is_closed": false, "url": "https://www.yelp.com/biz/river-city-wok-san-antonio?adjust_creative=a2JdNtFqB-C38ga_06BHvw&utm_campaign=yelp_api_v3&utm_medium=api_v3_business_search&utm_source=a2JdNtFqB-C38ga_06BHvw", "review_count": 1, "categories": [{"alias": "japanese", "title": "Japanese"}, {"alias": "noodles", "title": "Noodles"}, {"alias": "chinese", "title": "Chinese"}], "rating": 5.0, "coordinates": {"latitude": 29.4271472161976, "longitude": -98.4374872595072}, "transactions": [], "location": {"address1": "1 Att Center Pkwy", "address2": "Charter Level", "address3": null, "city": "San Antonio", "zip_code": "78219", "country": "US", "state": "TX", "display_address": ["1 Att Center Pkwy", "Charter Level", "San Antonio, TX 78219"]}, "phone": "", "display_phone": "", "distance": 22.630248959028627}, {"id": "vrDRX52XIqJsDApzlWsKrQ", "alias": "popeyes-louisiana-kitchen-san-antonio-28", "name": "Popeye's Louisiana kitchen", "image_url": "https://s3-media3.fl.yelpcdn.com/bphoto/-J1pSU35RQa_DPAfHHLWjA/o.jpg", "is_closed": false, "url": "https://www.yelp.com/biz/popeyes-louisiana-kitchen-san-antonio-28?adjust_creative=a2JdNtFqB-C38ga_06BHvw&utm_campaign=yelp_api_v3&utm_medium=api_v3_business_search&utm_source=a2JdNtFqB-C38ga_06BHvw", "review_count": 1, "categories": [{"alias": "hotdogs", "title": "Fast Food"}, {"alias": "chicken_wings", "title": "Chicken Wings"}], "rating": 5.0, "coordinates": {"latitude": 29.449988, "longitude": -98.449797}, "transactions": [], "location": {"address1": "2449 Winfield Scott Rd", "address2": "Bldg 382", "address3": null, "city": "San Antonio", "zip_code": "78234", "country": "US", "state": "TX", "display_address": ["2449 Winfield Scott Rd", "Bldg 382", "San Antonio, TX 78234"]}, "phone": "+17269992335", "display_phone": "(726) 999-2335", "distance": 2825.5608300261188}, {"id": "GxbA01KQw4gcigVC9qJaCg", "alias": "el-jarocho-veracruzano-san-antonio-2", "name": "El Jarocho Veracruzano", "image_url": "https://s3-media2.fl.yelpcdn.com/bphoto/OIJPKCNSMbprZOaUJ5xBpA/o.jpg", "is_closed": false, "url": "https://www.yelp.com/biz/el-jarocho-veracruzano-san-antonio-2?adjust_creative=a2JdNtFqB-C38ga_06BHvw&utm_campaign=yelp_api_v3&utm_medium=api_v3_business_search&utm_source=a2JdNtFqB-C38ga_06BHvw", "review_count": 1, "categories": [{"alias": "mexican", "title": "Mexican"}, {"alias": "foodtrucks", "title": "Food Trucks"}, {"alias": "burgers", "title": "Burgers"}], "rating": 5.0, "coordinates": {"latitude": 29.405134, "longitude": -98.4609915}, "transactions": ["delivery"], "location": {"address1": "1430 S New Braunfels Ave", "address2": null, "address3": null, "city": "San Antonio", "zip_code": "78210", "country": "US", "state": "TX", "display_address": ["1430 S New Braunfels Ave", "San Antonio, TX 78210"]}, "phone": "+12108527930", "display_phone": "(210) 852-7930", "distance": 3325.4608134723594}, {"id": "SpBCB14l1lmSkVlWCeXCOQ", "alias": "famous-smokehouse-bbq-san-antonio", "name": "Famous Smokehouse BBQ", "image_url": "https://s3-media4.fl.yelpcdn.com/bphoto/NPJ9zLH0LwjDdN1bynaQrA/o.jpg", "is_closed": false, "url": "https://www.yelp.com/biz/famous-smokehouse-bbq-san-antonio?adjust_creative=a2JdNtFqB-C38ga_06BHvw&utm_campaign=yelp_api_v3&utm_medium=api_v3_business_search&utm_source=a2JdNtFqB-C38ga_06BHvw", "review_count": 1, "categories": [{"alias": "bbq", "title": "Barbeque"}], "rating": 5.0, "coordinates": {"latitude": 29.42481, "longitude": -98.46829}, "transactions": ["pickup", "delivery"], "location": {"address1": "1850 E Houston St", "address2": "Ste 1", "address3": "", "city": "San Antonio", "zip_code": "78202", "country": "US", "state": "TX", "display_address": ["1850 E Houston St", "Ste 1", "San Antonio, TX 78202"]}, "phone": "+12109424916", "display_phone": "(210) 942-4916", "distance": 2996.636195115783}, {"id": "4US3GkQXwmxkKXYvysqWUg", "alias": "sonic-drive-in-san-antonio-61", "name": "Sonic Drive-In", "image_url": "https://s3-media4.fl.yelpcdn.com/bphoto/4VH1Ux25G_K4h1U_RZGVeA/o.jpg", "is_closed": false, "url": "https://www.yelp.com/biz/sonic-drive-in-san-antonio-61?adjust_creative=a2JdNtFqB-C38ga_06BHvw&utm_campaign=yelp_api_v3&utm_medium=api_v3_business_search&utm_source=a2JdNtFqB-C38ga_06BHvw", "review_count": 43, "categories": [{"alias": "hotdogs", "title": "Fast Food"}, {"alias": "burgers", "title": "Burgers"}, {"alias": "icecream", "title": "Ice Cream & Frozen Yogurt"}], "rating": 1.5, "coordinates": {"latitude": 29.439210162750342, "longitude": -98.46175087238731}, "transactions": [], "price": "$", "location": {"address1": "2135 IH 35 N", "address2": "", "address3": "", "city": "San Antonio", "zip_code": "78208", "country": "US", "state": "TX", "display_address": ["2135 IH 35 N", "San Antonio, TX 78208"]}, "phone": "+12102229500", "display_phone": "(210) 222-9500", "distance": 2715.8581862563988}, {"id": "AD2yHahLFQXLkytUiRFINw", "alias": "the-new-frontier-club-san-antonio", "name": "The New Frontier Club", "image_url": "https://s3-media2.fl.yelpcdn.com/bphoto/QlUT4SYTf_1cdXk5nGokoQ/o.jpg", "is_closed": false, "url": "https://www.yelp.com/biz/the-new-frontier-club-san-antonio?adjust_creative=a2JdNtFqB-C38ga_06BHvw&utm_campaign=yelp_api_v3&utm_medium=api_v3_business_search&utm_source=a2JdNtFqB-C38ga_06BHvw", "review_count": 2, "categories": [{"alias": "tradamerican", "title": "American (Traditional)"}], "rating": 3.5, "coordinates": {"latitude": 29.42948, "longitude": -98.43901}, "transactions": [], "price": "$$", "location": {"address1": "3201 E Houston St", "address2": "", "address3": "", "city": "San Antonio", "zip_code": "78219", "country": "US", "state": "TX", "display_address": ["3201 E Houston St", "San Antonio, TX 78219"]}, "phone": "", "display_phone": "", "distance": 160.55129537579464}, {"id": "UdSdQlCvIl1B0ZQmQvexpA", "alias": "mcdonalds-san-antonio-119", "name": "McDonald's", "image_url": "https://s3-media1.fl.yelpcdn.com/bphoto/3MdLv91g3aa64FexgsY4Gw/o.jpg", "is_closed": false, "url": "https://www.yelp.com/biz/mcdonalds-san-antonio-119?adjust_creative=a2JdNtFqB-C38ga_06BHvw&utm_campaign=yelp_api_v3&utm_medium=api_v3_business_search&utm_source=a2JdNtFqB-C38ga_06BHvw", "review_count": 16, "categories": [{"alias": "burgers", "title": "Burgers"}, {"alias": "hotdogs", "title": "Fast Food"}, {"alias": "coffee", "title": "Coffee & Tea"}], "rating": 1.5, "coordinates": {"latitude": 29.4008569597389, "longitude": -98.4615956246853}, "transactions": ["delivery"], "price": "$", "location": {"address1": "1819 S New Braunfels", "address2": "", "address3": "", "city": "San Antonio", "zip_code": "78210", "country": "US", "state": "TX", "display_address": ["1819 S New Braunfels", "San Antonio, TX 78210"]}, "phone": "+12105349200", "display_phone": "(210) 534-9200", "distance": 3723.109763705424}, {"id": "O_Cg6i6xthaWmjvk_FWcUw", "alias": "deco-pizzeria-san-antonio-5", "name": "Deco Pizzeria", "image_url": "https://s3-media4.fl.yelpcdn.com/bphoto/ncZm1Q3nt3DGM2zjP1MyEw/o.jpg", "is_closed": false, "url": "https://www.yelp.com/biz/deco-pizzeria-san-antonio-5?adjust_creative=a2JdNtFqB-C38ga_06BHvw&utm_campaign=yelp_api_v3&utm_medium=api_v3_business_search&utm_source=a2JdNtFqB-C38ga_06BHvw", "review_count": 2, "categories": [{"alias": "pizza", "title": "Pizza"}, {"alias": "chicken_wings", "title": "Chicken Wings"}, {"alias": "sandwiches", "title": "Sandwiches"}], "rating": 3.0, "coordinates": {"latitude": 29.4057476, "longitude": -98.4614861}, "transactions": ["delivery"], "location": {"address1": "1401 S New Braunfels", "address2": null, "address3": "", "city": "San Antonio", "zip_code": "78210", "country": "US", "state": "TX", "display_address": ["1401 S New Braunfels", "San Antonio, TX 78210"]}, "phone": "+12104556012", "display_phone": "(210) 455-6012", "distance": 3312.616321815643}, {"id": "fpBxgqROeQtWnJPeM3CYJA", "alias": "cocina-el-jibarazo-latin-cuisine-san-antonio", "name": "Cocina El Jibarazo Latin Cuisine", "image_url": "https://s3-media2.fl.yelpcdn.com/bphoto/Abb6CetkTsHI76EadTErCw/o.jpg", "is_closed": false, "url": "https://www.yelp.com/biz/cocina-el-jibarazo-latin-cuisine-san-antonio?adjust_creative=a2JdNtFqB-C38ga_06BHvw&utm_campaign=yelp_api_v3&utm_medium=api_v3_business_search&utm_source=a2JdNtFqB-C38ga_06BHvw", "review_count": 1, "categories": [{"alias": "foodtrucks", "title": "Food Trucks"}, {"alias": "latin", "title": "Latin American"}, {"alias": "puertorican", "title": "Puerto Rican"}], "rating": 4.0, "coordinates": {"latitude": 29.44845167, "longitude": -98.44932333}, "transactions": [], "location": {"address1": "2402 Winfield Scott Rd", "address2": "", "address3": null, "city": "San Antonio", "zip_code": "78234", "country": "US", "state": "TX", "display_address": ["2402 Winfield Scott Rd", "San Antonio, TX 78234"]}, "phone": "+12102045908", "display_phone": "(210) 204-5908", "distance": 2823.4113066164105}, {"id": "6T8S7xwOtfoAQ-kEAuVBAg", "alias": "charleys-cheesesteaks-fort-sam-houston", "name": "Charleys Cheesesteaks", "image_url": "https://s3-media2.fl.yelpcdn.com/bphoto/HylT518UFUHOKSGKpDN5xQ/o.jpg", "is_closed": false, "url": "https://www.yelp.com/biz/charleys-cheesesteaks-fort-sam-houston?adjust_creative=a2JdNtFqB-C38ga_06BHvw&utm_campaign=yelp_api_v3&utm_medium=api_v3_business_search&utm_source=a2JdNtFqB-C38ga_06BHvw", "review_count": 1, "categories": [{"alias": "sandwiches", "title": "Sandwiches"}], "rating": 4.0, "coordinates": {"latitude": 29.450772, "longitude": -98.448159}, "transactions": [], "location": {"address1": "Fort Sam Houston Exchange Charley's Steakery", "address2": "Bldg 2420", "address3": null, "city": "Fort Sam Houston", "zip_code": "78234", "country": "US", "state": "TX", "display_address": ["Fort Sam Houston Exchange Charley's Steakery", "Bldg 2420", "Fort Sam Houston, TX 78234"]}, "phone": "+12102254694", "display_phone": "(210) 225-4694", "distance": 2843.5066345526093}, {"id": "3bEpUbMJgRAb_S_4gMQ9Vw", "alias": "meis-palace-san-antonio", "name": "Mei's Palace", "image_url": "https://s3-media1.fl.yelpcdn.com/bphoto/VdFL6IoxIGASKNxeAtIPAQ/o.jpg", "is_closed": false, "url": "https://www.yelp.com/biz/meis-palace-san-antonio?adjust_creative=a2JdNtFqB-C38ga_06BHvw&utm_campaign=yelp_api_v3&utm_medium=api_v3_business_search&utm_source=a2JdNtFqB-C38ga_06BHvw", "review_count": 2, "categories": [{"alias": "sushi", "title": "Sushi Bars"}], "rating": 2.5, "coordinates": {"latitude": 29.4506006556541, "longitude": -98.4480021893978}, "transactions": [], "location": {"address1": "Mei's Palace", "address2": "2503 Funston Rd", "address3": null, "city": "San Antonio", "zip_code": "78234", "country": "US", "state": "TX", "display_address": ["Mei's Palace", "2503 Funston Rd", "San Antonio, TX 78234"]}, "phone": "+12102255566", "display_phone": "(210) 225-5566", "distance": 2820.251018816704}, {"id": "Dz6egW1sxWej4-I1jNCzyg", "alias": "los-cinco-hermanos-san-antonio", "name": "Los Cinco Hermanos", "image_url": "https://s3-media4.fl.yelpcdn.com/bphoto/sGavITUOkIZ1IwcdmsN9Dg/o.jpg", "is_closed": false, "url": "https://www.yelp.com/biz/los-cinco-hermanos-san-antonio?adjust_creative=a2JdNtFqB-C38ga_06BHvw&utm_campaign=yelp_api_v3&utm_medium=api_v3_business_search&utm_source=a2JdNtFqB-C38ga_06BHvw", "review_count": 2, "categories": [{"alias": "mexican", "title": "Mexican"}], "rating": 2.5, "coordinates": {"latitude": 29.4227841209742, "longitude": -98.4615075939534}, "transactions": [], "location": {"address1": "311 N New Braunfels Ave", "address2": "", "address3": "", "city": "San Antonio", "zip_code": "78202", "country": "US", "state": "TX", "display_address": ["311 N New Braunfels Ave", "San Antonio, TX 78202"]}, "phone": "+12104441028", "display_phone": "(210) 444-1028", "distance": 2370.7167111377616}, {"id": "tXU4YG6sr22wnX7xvhn1KQ", "alias": "taqueria-el-ranchero-san-antonio", "name": "Taqueria El Ranchero", "image_url": "https://s3-media1.fl.yelpcdn.com/bphoto/VAYa2sCVCQMhpVylpzNc8Q/o.jpg", "is_closed": false, "url": "https://www.yelp.com/biz/taqueria-el-ranchero-san-antonio?adjust_creative=a2JdNtFqB-C38ga_06BHvw&utm_campaign=yelp_api_v3&utm_medium=api_v3_business_search&utm_source=a2JdNtFqB-C38ga_06BHvw", "review_count": 2, "categories": [{"alias": "mexican", "title": "Mexican"}], "rating": 2.5, "coordinates": {"latitude": 29.40562, "longitude": -98.46106}, "transactions": ["delivery"], "location": {"address1": "502 Porter", "address2": null, "address3": "", "city": "San Antonio", "zip_code": "78210", "country": "US", "state": "TX", "display_address": ["502 Porter", "San Antonio, TX 78210"]}, "phone": "+12105340180", "display_phone": "(210) 534-0180", "distance": 3296.7456592933722}, {"id": "g8NFDzk0hzNkzMIxJlR1Ug", "alias": "taqueria-los-dos-laredos-5-san-antonio", "name": "Taqueria Los Dos Laredos #5", "image_url": "https://s3-media1.fl.yelpcdn.com/bphoto/RAMUZP3XXTavpQ1gBYr84Q/o.jpg", "is_closed": false, "url": "https://www.yelp.com/biz/taqueria-los-dos-laredos-5-san-antonio?adjust_creative=a2JdNtFqB-C38ga_06BHvw&utm_campaign=yelp_api_v3&utm_medium=api_v3_business_search&utm_source=a2JdNtFqB-C38ga_06BHvw", "review_count": 4, "categories": [{"alias": "seafood", "title": "Seafood"}, {"alias": "tacos", "title": "Tacos"}], "rating": 2.0, "coordinates": {"latitude": 29.4153442382812, "longitude": -98.4609298706055}, "transactions": ["delivery"], "location": {"address1": "414 S New Braunfels", "address2": "", "address3": "", "city": "San Antonio", "zip_code": "78203", "country": "US", "state": "TX", "display_address": ["414 S New Braunfels", "San Antonio, TX 78203"]}, "phone": "+12105322283", "display_phone": "(210) 532-2283", "distance": 2612.0763308889404}, {"id": "e92ht3t8tipglm3d5YDe8w", "alias": "ballhoggs-san-antonio", "name": "BallHoggs", "image_url": "https://s3-media2.fl.yelpcdn.com/bphoto/aNCxWrGkNCbX3Zh1JQiQWg/o.jpg", "is_closed": false, "url": "https://www.yelp.com/biz/ballhoggs-san-antonio?adjust_creative=a2JdNtFqB-C38ga_06BHvw&utm_campaign=yelp_api_v3&utm_medium=api_v3_business_search&utm_source=a2JdNtFqB-C38ga_06BHvw", "review_count": 1, "categories": [{"alias": "coffee", "title": "Coffee & Tea"}, {"alias": "bbq", "title": "Barbeque"}, {"alias": "beerbar", "title": "Beer Bar"}], "rating": 3.0, "coordinates": {"latitude": 29.42519994676121, "longitude": -98.44389330000972}, "transactions": ["pickup", "delivery"], "location": {"address1": "2941 E Houston St", "address2": "", "address3": null, "city": "San Antonio", "zip_code": "78202", "country": "US", "state": "TX", "display_address": ["2941 E Houston St", "San Antonio, TX 78202"]}, "phone": "+12105494203", "display_phone": "(210) 549-4203", "distance": 648.847567717561}, {"id": "7pjSQdr4WRUj6iEgFSS6kg", "alias": "burger-king-san-antonio-22", "name": "Burger King", "image_url": "https://s3-media4.fl.yelpcdn.com/bphoto/h4hLKe_KCJxIyYBHEc7cOQ/o.jpg", "is_closed": false, "url": "https://www.yelp.com/biz/burger-king-san-antonio-22?adjust_creative=a2JdNtFqB-C38ga_06BHvw&utm_campaign=yelp_api_v3&utm_medium=api_v3_business_search&utm_source=a2JdNtFqB-C38ga_06BHvw", "review_count": 7, "categories": [{"alias": "burgers", "title": "Burgers"}, {"alias": "hotdogs", "title": "Fast Food"}], "rating": 1.0, "coordinates": {"latitude": 29.43728, "longitude": -98.46127}, "transactions": [], "price": "$", "location": {"address1": "1515 N New Braunfels Ave", "address2": "", "address3": "", "city": "San Antonio", "zip_code": "78208", "country": "US", "state": "TX", "display_address": ["1515 N New Braunfels Ave", "San Antonio, TX 78208"]}, "phone": "+12106268044", "display_phone": "(210) 626-8044", "distance": 2578.303651349426}, {"id": "PTTzYzpUEYdBwBBHjBbjXw", "alias": "burger-king-fort-sam-houston-4", "name": "Burger King", "image_url": "https://s3-media2.fl.yelpcdn.com/bphoto/ibA1EinQee3mvFFqtQ6pmg/o.jpg", "is_closed": false, "url": "https://www.yelp.com/biz/burger-king-fort-sam-houston-4?adjust_creative=a2JdNtFqB-C38ga_06BHvw&utm_campaign=yelp_api_v3&utm_medium=api_v3_business_search&utm_source=a2JdNtFqB-C38ga_06BHvw", "review_count": 1, "categories": [{"alias": "hotdogs", "title": "Fast Food"}, {"alias": "burgers", "title": "Burgers"}], "rating": 2.0, "coordinates": {"latitude": 29.45214, "longitude": -98.46234}, "transactions": [], "price": "$", "location": {"address1": "1387 Hardee Rd", "address2": "", "address3": "", "city": "Fort Sam Houston", "zip_code": "78234", "country": "US", "state": "TX", "display_address": ["1387 Hardee Rd", "Fort Sam Houston, TX 78234"]}, "phone": "+12102213615", "display_phone": "(210) 221-3615", "distance": 3692.6131215986447}, {"id": "Pe1hZMY4wJQHGOqwl4FALA", "alias": "laredo-taco-san-antonio", "name": "Laredo Taco", "image_url": "https://s3-media1.fl.yelpcdn.com/bphoto/k7UgQMNvB90mampVdVYRpA/o.jpg", "is_closed": false, "url": "https://www.yelp.com/biz/laredo-taco-san-antonio?adjust_creative=a2JdNtFqB-C38ga_06BHvw&utm_campaign=yelp_api_v3&utm_medium=api_v3_business_search&utm_source=a2JdNtFqB-C38ga_06BHvw", "review_count": 2, "categories": [{"alias": "tacos", "title": "Tacos"}, {"alias": "tex-mex", "title": "Tex-Mex"}], "rating": 1.0, "coordinates": {"latitude": 29.4241239826633, "longitude": -98.4192473791333}, "transactions": ["delivery"], "location": {"address1": "4038 E Houston St", "address2": null, "address3": "Stripes", "city": "San Antonio", "zip_code": "78220", "country": "US", "state": "TX", "display_address": ["4038 E Houston St", "Stripes", "San Antonio, TX 78220"]}, "phone": "+12103373994", "display_phone": "(210) 337-3994", "distance": 1795.3640273030962}], "absolute total": 62, "total": 62}