{"league": "MLS", "team": "Colorado Rapids", "stadium": "Dick's Sporting Goods Park", "stadium latitude": 39.805556, "stadium longitude": -104.891944, "radius": "3000 meters", "city": "Commerce City", "state": "Colorado", "businesses": [{"id": "fMo2qPDeVuYj0-tQI0JqJA", "alias": "cuba-cuba-sandwicheria-denver-4", "name": "Cuba Cuba Sandwicheria", "image_url": "https://s3-media3.fl.yelpcdn.com/bphoto/BLe2iM8P6iKwSHDp4MotEQ/o.jpg", "is_closed": false, "url": "https://www.yelp.com/biz/cuba-cuba-sandwicheria-denver-4?adjust_creative=a2JdNtFqB-C38ga_06BHvw&utm_campaign=yelp_api_v3&utm_medium=api_v3_business_search&utm_source=a2JdNtFqB-C38ga_06BHvw", "review_count": 211, "categories": [{"alias": "caribbean", "title": "Caribbean"}, {"alias": "cuban", "title": "Cuban"}, {"alias": "bars", "title": "Bars"}], "rating": 4.5, "coordinates": {"latitude": 39.785982803436, "longitude": -104.892482858444}, "transactions": ["pickup", "delivery"], "price": "$$", "location": {"address1": "8261 E Northfield Blvd", "address2": "", "address3": null, "city": "Denver", "zip_code": "80238", "country": "US", "state": "CO", "display_address": ["8261 E Northfield Blvd", "Denver, CO 80238"]}, "phone": "+17203895221", "display_phone": "(720) 389-5221", "distance": 2176.9245864533355}, {"id": "oBnxD2GfKIG_zI9gnnVYkg", "alias": "texas-de-brazil-denver", "name": "Texas de Brazil", "image_url": "https://s3-media2.fl.yelpcdn.com/bphoto/_ouYWu-yOPtYwqmryMIJuw/o.jpg", "is_closed": false, "url": "https://www.yelp.com/biz/texas-de-brazil-denver?adjust_creative=a2JdNtFqB-C38ga_06BHvw&utm_campaign=yelp_api_v3&utm_medium=api_v3_business_search&utm_source=a2JdNtFqB-C38ga_06BHvw", "review_count": 519, "categories": [{"alias": "brazilian", "title": "Brazilian"}, {"alias": "steak", "title": "Steakhouses"}, {"alias": "venues", "title": "Venues & Event Spaces"}], "rating": 4.0, "coordinates": {"latitude": 39.7839632842056, "longitude": -104.890781012394}, "transactions": ["delivery"], "price": "$$$", "location": {"address1": "8390 Northfield Blvd", "address2": "Ste 1800", "address3": "", "city": "Denver", "zip_code": "80238", "country": "US", "state": "CO", "display_address": ["8390 Northfield Blvd", "Ste 1800", "Denver, CO 80238"]}, "phone": "+17203742100", "display_phone": "(720) 374-2100", "distance": 2403.052828264151}, {"id": "5mP42EJY5K56CCcpir5yJg", "alias": "el-jardin-commerce-city", "name": "El Jardin", "image_url": "https://s3-media1.fl.yelpcdn.com/bphoto/a67SDQBhC194Tpt-CNJ-JQ/o.jpg", "is_closed": false, "url": "https://www.yelp.com/biz/el-jardin-commerce-city?adjust_creative=a2JdNtFqB-C38ga_06BHvw&utm_campaign=yelp_api_v3&utm_medium=api_v3_business_search&utm_source=a2JdNtFqB-C38ga_06BHvw", "review_count": 268, "categories": [{"alias": "mexican", "title": "Mexican"}], "rating": 4.0, "coordinates": {"latitude": 39.829129, "longitude": -104.91264}, "transactions": ["delivery"], "price": "$$", "location": {"address1": "6460 E 73rd Ave", "address2": "", "address3": "", "city": "Commerce City", "zip_code": "80022", "country": "US", "state": "CO", "display_address": ["6460 E 73rd Ave", "Commerce City, CO 80022"]}, "phone": "+13032883500", "display_phone": "(303) 288-3500", "distance": 3161.496036403143}, {"id": "1fdeg3sOn4scKNd6I8mXsQ", "alias": "bonchon-central-park-denver", "name": "Bonchon Central Park", "image_url": "https://s3-media3.fl.yelpcdn.com/bphoto/BFzQT5ZLh21c76Y1-T9XsA/o.jpg", "is_closed": false, "url": "https://www.yelp.com/biz/bonchon-central-park-denver?adjust_creative=a2JdNtFqB-C38ga_06BHvw&utm_campaign=yelp_api_v3&utm_medium=api_v3_business_search&utm_source=a2JdNtFqB-C38ga_06BHvw", "review_count": 289, "categories": [{"alias": "korean", "title": "Korean"}, {"alias": "asianfusion", "title": "Asian Fusion"}, {"alias": "chicken_wings", "title": "Chicken Wings"}], "rating": 4.0, "coordinates": {"latitude": 39.780834, "longitude": -104.89122}, "transactions": ["pickup", "delivery"], "price": "$$", "location": {"address1": "8340 Northfield Blvd", "address2": "Ste 1590", "address3": "", "city": "Denver", "zip_code": "80238", "country": "US", "state": "CO", "display_address": ["8340 Northfield Blvd", "Ste 1590", "Denver, CO 80238"]}, "phone": "+13032483220", "display_phone": "(303) 248-3220", "distance": 2749.653787870534}, {"id": "sSRfdrhwJUcRe5MWYUOYgw", "alias": "intersections-denver", "name": "Intersections", "image_url": "https://s3-media3.fl.yelpcdn.com/bphoto/pBrmAGLehFUNtPAXvA0w3Q/o.jpg", "is_closed": false, "url": "https://www.yelp.com/biz/intersections-denver?adjust_creative=a2JdNtFqB-C38ga_06BHvw&utm_campaign=yelp_api_v3&utm_medium=api_v3_business_search&utm_source=a2JdNtFqB-C38ga_06BHvw", "review_count": 208, "categories": [{"alias": "tradamerican", "title": "American (Traditional)"}, {"alias": "breakfast_brunch", "title": "Breakfast & Brunch"}], "rating": 4.0, "coordinates": {"latitude": 39.78605, "longitude": -104.89259}, "transactions": ["delivery", "pickup"], "price": "$$", "location": {"address1": "8241 E Northfield Blvd", "address2": "", "address3": null, "city": "Denver", "zip_code": "80238", "country": "US", "state": "CO", "display_address": ["8241 E Northfield Blvd", "Denver, CO 80238"]}, "phone": "+13039635909", "display_phone": "(303) 963-5909", "distance": 2174.2061210975644}, {"id": "QD730qbqDEcYiQYFoauCJg", "alias": "mod-pizza-denver", "name": "MOD Pizza", "image_url": "https://s3-media2.fl.yelpcdn.com/bphoto/kHmaHBd5BjehWfyZwfCYGg/o.jpg", "is_closed": false, "url": "https://www.yelp.com/biz/mod-pizza-denver?adjust_creative=a2JdNtFqB-C38ga_06BHvw&utm_campaign=yelp_api_v3&utm_medium=api_v3_business_search&utm_source=a2JdNtFqB-C38ga_06BHvw", "review_count": 63, "categories": [{"alias": "hotdogs", "title": "Fast Food"}, {"alias": "pizza", "title": "Pizza"}], "rating": 4.0, "coordinates": {"latitude": 39.7858458, "longitude": -104.8820619}, "transactions": [], "price": "$$", "location": {"address1": "9135 E Northfield Blvd", "address2": "Suite 140", "address3": null, "city": "Denver", "zip_code": "80230", "country": "US", "state": "CO", "display_address": ["9135 E Northfield Blvd", "Suite 140", "Denver, CO 80230"]}, "phone": "+17202426046", "display_phone": "(720) 242-6046", "distance": 2290.8520729902716}, {"id": "4pJSjg7r09kWps4UL6SUOQ", "alias": "dog-haus-biergarten-denver-denver", "name": "Dog Haus Biergarten - Denver", "image_url": "https://s3-media4.fl.yelpcdn.com/bphoto/FSsVjLJsr9SW0enBvYMh3Q/o.jpg", "is_closed": false, "url": "https://www.yelp.com/biz/dog-haus-biergarten-denver-denver?adjust_creative=a2JdNtFqB-C38ga_06BHvw&utm_campaign=yelp_api_v3&utm_medium=api_v3_business_search&utm_source=a2JdNtFqB-C38ga_06BHvw", "review_count": 179, "categories": [{"alias": "burgers", "title": "Burgers"}, {"alias": "tradamerican", "title": "American (Traditional)"}, {"alias": "beerbar", "title": "Beer Bar"}], "rating": 4.0, "coordinates": {"latitude": 39.78111591007552, "longitude": -104.89110093157305}, "transactions": ["delivery", "pickup"], "price": "$", "location": {"address1": "8316 E Northfield Blvd", "address2": "Ste 1610", "address3": null, "city": "Denver", "zip_code": "80238", "country": "US", "state": "CO", "display_address": ["8316 E Northfield Blvd", "Ste 1610", "Denver, CO 80238"]}, "phone": "+13033534385", "display_phone": "(303) 353-4385", "distance": 2718.5653874906475}, {"id": "BZ9uPJWAFR7uGZ3bxUAdiQ", "alias": "tedz-place-commerce-city", "name": "Ted'z Place", "image_url": "https://s3-media2.fl.yelpcdn.com/bphoto/jrloQEKOxuewsiouKpr-nQ/o.jpg", "is_closed": false, "url": "https://www.yelp.com/biz/tedz-place-commerce-city?adjust_creative=a2JdNtFqB-C38ga_06BHvw&utm_campaign=yelp_api_v3&utm_medium=api_v3_business_search&utm_source=a2JdNtFqB-C38ga_06BHvw", "review_count": 31, "categories": [{"alias": "mexican", "title": "Mexican"}, {"alias": "italian", "title": "Italian"}, {"alias": "tradamerican", "title": "American (Traditional)"}], "rating": 4.5, "coordinates": {"latitude": 39.79139, "longitude": -104.9263299}, "transactions": ["delivery", "pickup"], "location": {"address1": "5271 E 52nd Ave", "address2": "", "address3": "", "city": "Commerce City", "zip_code": "80022", "country": "US", "state": "CO", "display_address": ["5271 E 52nd Ave", "Commerce City, CO 80022"]}, "phone": "+13032877544", "display_phone": "(303) 287-7544", "distance": 3312.6346119145283}, {"id": "dgYNBbiA8EyIQ8yV09ZMEw", "alias": "la-sandia-denver", "name": "La Sandia", "image_url": "https://s3-media2.fl.yelpcdn.com/bphoto/0qua2qa1oTf5ITpZXbqNPw/o.jpg", "is_closed": false, "url": "https://www.yelp.com/biz/la-sandia-denver?adjust_creative=a2JdNtFqB-C38ga_06BHvw&utm_campaign=yelp_api_v3&utm_medium=api_v3_business_search&utm_source=a2JdNtFqB-C38ga_06BHvw", "review_count": 593, "categories": [{"alias": "mexican", "title": "Mexican"}], "rating": 3.5, "coordinates": {"latitude": 39.7851834, "longitude": -104.8910733}, "transactions": ["delivery", "pickup"], "price": "$$", "location": {"address1": "8340 Northfield Blvd", "address2": "Unit 1690", "address3": "", "city": "Denver", "zip_code": "80238", "country": "US", "state": "CO", "display_address": ["8340 Northfield Blvd", "Unit 1690", "Denver, CO 80238"]}, "phone": "+13033739100", "display_phone": "(303) 373-9100", "distance": 2751.725371632505}, {"id": "BGzyvZHh-agvo7btVPbA-g", "alias": "wahoos-fish-tacos-denver-4", "name": "Wahoo's Fish Tacos", "image_url": "https://s3-media1.fl.yelpcdn.com/bphoto/scABTbSMhajb8xSNUsQYbg/o.jpg", "is_closed": false, "url": "https://www.yelp.com/biz/wahoos-fish-tacos-denver-4?adjust_creative=a2JdNtFqB-C38ga_06BHvw&utm_campaign=yelp_api_v3&utm_medium=api_v3_business_search&utm_source=a2JdNtFqB-C38ga_06BHvw", "review_count": 156, "categories": [{"alias": "mexican", "title": "Mexican"}], "rating": 3.5, "coordinates": {"latitude": 39.785269897801, "longitude": -104.895362981754}, "transactions": [], "price": "$", "location": {"address1": "7980 E 49th Ave", "address2": "", "address3": "", "city": "Denver", "zip_code": "80238", "country": "US", "state": "CO", "display_address": ["7980 E 49th Ave", "Denver, CO 80238"]}, "phone": "+13035740466", "display_phone": "(303) 574-0466", "distance": 2274.5430815468144}, {"id": "a77-1KVIZBj7k4yeEvt9hw", "alias": "la-casa-del-rey-commerce-city", "name": "La Casa Del Rey", "image_url": "https://s3-media3.fl.yelpcdn.com/bphoto/1Q4W6Xk-EDgQBtMp4obcNA/o.jpg", "is_closed": false, "url": "https://www.yelp.com/biz/la-casa-del-rey-commerce-city?adjust_creative=a2JdNtFqB-C38ga_06BHvw&utm_campaign=yelp_api_v3&utm_medium=api_v3_business_search&utm_source=a2JdNtFqB-C38ga_06BHvw", "review_count": 134, "categories": [{"alias": "mexican", "title": "Mexican"}], "rating": 3.5, "coordinates": {"latitude": 39.82754, "longitude": -104.90631}, "transactions": ["delivery", "pickup"], "price": "$$", "location": {"address1": "7035 E 72nd Ave", "address2": "", "address3": "", "city": "Commerce City", "zip_code": "80022", "country": "US", "state": "CO", "display_address": ["7035 E 72nd Ave", "Commerce City, CO 80022"]}, "phone": "+13032877480", "display_phone": "(303) 287-7480", "distance": 2744.970813146785}, {"id": "ZaHcv5heQ1wkaZPWqtarwQ", "alias": "zen-asian-sushi-bar-and-grill-denver", "name": "Zen Asian Sushi Bar & Grill", "image_url": "https://s3-media2.fl.yelpcdn.com/bphoto/qlCB0AUNAuBoO7Ilh9TQFA/o.jpg", "is_closed": false, "url": "https://www.yelp.com/biz/zen-asian-sushi-bar-and-grill-denver?adjust_creative=a2JdNtFqB-C38ga_06BHvw&utm_campaign=yelp_api_v3&utm_medium=api_v3_business_search&utm_source=a2JdNtFqB-C38ga_06BHvw", "review_count": 215, "categories": [{"alias": "sushi", "title": "Sushi Bars"}, {"alias": "asianfusion", "title": "Asian Fusion"}], "rating": 3.5, "coordinates": {"latitude": 39.78253941058842, "longitude": -104.89146009351123}, "transactions": ["delivery"], "price": "$$", "location": {"address1": "8354 Northfield Blvd", "address2": "", "address3": "", "city": "Denver", "zip_code": "80238", "country": "US", "state": "CO", "display_address": ["8354 Northfield Blvd", "Denver, CO 80238"]}, "phone": "+13033714644", "display_phone": "(303) 371-4644", "distance": 2559.659040258988}, {"id": "l3MFuErsrHdW6broxkE2pA", "alias": "texas-roadhouse-denver-7", "name": "Texas Roadhouse", "image_url": "https://s3-media4.fl.yelpcdn.com/bphoto/sGy1K0mx7wWxf6TPfsqu9g/o.jpg", "is_closed": false, "url": "https://www.yelp.com/biz/texas-roadhouse-denver-7?adjust_creative=a2JdNtFqB-C38ga_06BHvw&utm_campaign=yelp_api_v3&utm_medium=api_v3_business_search&utm_source=a2JdNtFqB-C38ga_06BHvw", "review_count": 160, "categories": [{"alias": "bbq", "title": "Barbeque"}, {"alias": "steak", "title": "Steakhouses"}], "rating": 3.5, "coordinates": {"latitude": 39.77932, "longitude": -104.88988}, "transactions": [], "price": "$$", "location": {"address1": "8470 E Northfield Blvd", "address2": null, "address3": null, "city": "Denver", "zip_code": "80238", "country": "US", "state": "CO", "display_address": ["8470 E Northfield Blvd", "Denver, CO 80238"]}, "phone": "+13033717427", "display_phone": "(303) 371-7427", "distance": 2922.631847378643}, {"id": "uWuQkr-Gs_Gsxl6mMsJ9KA", "alias": "olive-garden-italian-restaurant-denver-4", "name": "Olive Garden Italian Restaurant", "image_url": "https://s3-media4.fl.yelpcdn.com/bphoto/LOKx6wUXtMFj_TLXcAWOrg/o.jpg", "is_closed": false, "url": "https://www.yelp.com/biz/olive-garden-italian-restaurant-denver-4?adjust_creative=a2JdNtFqB-C38ga_06BHvw&utm_campaign=yelp_api_v3&utm_medium=api_v3_business_search&utm_source=a2JdNtFqB-C38ga_06BHvw", "review_count": 136, "categories": [{"alias": "italian", "title": "Italian"}, {"alias": "salad", "title": "Salad"}, {"alias": "soup", "title": "Soup"}], "rating": 3.5, "coordinates": {"latitude": 39.7794260713276, "longitude": -104.89117039536}, "transactions": [], "price": "$$", "location": {"address1": "8314 E Northfield Blvd", "address2": "", "address3": "", "city": "Denver", "zip_code": "80238", "country": "US", "state": "CO", "display_address": ["8314 E Northfield Blvd", "Denver, CO 80238"]}, "phone": "+13033711147", "display_phone": "(303) 371-1147", "distance": 2906.263964776953}, {"id": "jmnk8t3LG0vwLaPb9VmVag", "alias": "torchys-tacos-denver-2", "name": "Torchys Tacos", "image_url": "https://s3-media2.fl.yelpcdn.com/bphoto/UxVDe61QQepibUEcGtRu_w/o.jpg", "is_closed": false, "url": "https://www.yelp.com/biz/torchys-tacos-denver-2?adjust_creative=a2JdNtFqB-C38ga_06BHvw&utm_campaign=yelp_api_v3&utm_medium=api_v3_business_search&utm_source=a2JdNtFqB-C38ga_06BHvw", "review_count": 381, "categories": [{"alias": "tex-mex", "title": "Tex-Mex"}, {"alias": "tacos", "title": "Tacos"}], "rating": 3.0, "coordinates": {"latitude": 39.78607081612723, "longitude": -104.89220760768148}, "transactions": ["delivery"], "price": "$$", "location": {"address1": "8281 E Northfield Blvd", "address2": "", "address3": null, "city": "Denver", "zip_code": "80238", "country": "US", "state": "CO", "display_address": ["8281 E Northfield Blvd", "Denver, CO 80238"]}, "phone": "+13033751733", "display_phone": "(303) 375-1733", "distance": 2166.768232655894}, {"id": "Md8oTgn7B0eOv7sRPJlviQ", "alias": "bar-louie-denver-denver-2", "name": "Bar Louie - Denver", "image_url": "https://s3-media2.fl.yelpcdn.com/bphoto/TaBZc-nwoxaAbSgZhV-CKg/o.jpg", "is_closed": false, "url": "https://www.yelp.com/biz/bar-louie-denver-denver-2?adjust_creative=a2JdNtFqB-C38ga_06BHvw&utm_campaign=yelp_api_v3&utm_medium=api_v3_business_search&utm_source=a2JdNtFqB-C38ga_06BHvw", "review_count": 486, "categories": [{"alias": "bars", "title": "Bars"}, {"alias": "newamerican", "title": "American (New)"}, {"alias": "gastropubs", "title": "Gastropubs"}], "rating": 3.0, "coordinates": {"latitude": 39.78073091357, "longitude": -104.89088167}, "transactions": ["delivery", "pickup"], "price": "$$", "location": {"address1": "8332 Northfield Blvd", "address2": "", "address3": "", "city": "Denver", "zip_code": "80238", "country": "US", "state": "CO", "display_address": ["8332 Northfield Blvd", "Denver, CO 80238"]}, "phone": "+17206776600", "display_phone": "(720) 677-6600", "distance": 2761.912348991625}, {"id": "uJ8UO_Uda_PEfL34JAbOGg", "alias": "saigon-gardens-commerce-city", "name": "Saigon Gardens", "image_url": "https://s3-media2.fl.yelpcdn.com/bphoto/nMEKDAUEdoo8fA_MD-Xr1w/o.jpg", "is_closed": false, "url": "https://www.yelp.com/biz/saigon-gardens-commerce-city?adjust_creative=a2JdNtFqB-C38ga_06BHvw&utm_campaign=yelp_api_v3&utm_medium=api_v3_business_search&utm_source=a2JdNtFqB-C38ga_06BHvw", "review_count": 37, "categories": [{"alias": "vietnamese", "title": "Vietnamese"}], "rating": 3.5, "coordinates": {"latitude": 39.8011399, "longitude": -104.90387}, "transactions": ["pickup", "delivery"], "price": "$", "location": {"address1": "5741 Quebec St", "address2": "", "address3": null, "city": "Commerce City", "zip_code": "80022", "country": "US", "state": "CO", "display_address": ["5741 Quebec St", "Commerce City, CO 80022"]}, "phone": "+17203729840", "display_phone": "(720) 372-9840", "distance": 1130.5988233791404}, {"id": "_IgOKEp8cXkUi_8F0i6W_g", "alias": "brothers-bar-and-grill-denver-5", "name": "Brothers Bar & Grill", "image_url": "https://s3-media1.fl.yelpcdn.com/bphoto/5f9bF4DjdTg-rAelXq5l0Q/o.jpg", "is_closed": false, "url": "https://www.yelp.com/biz/brothers-bar-and-grill-denver-5?adjust_creative=a2JdNtFqB-C38ga_06BHvw&utm_campaign=yelp_api_v3&utm_medium=api_v3_business_search&utm_source=a2JdNtFqB-C38ga_06BHvw", "review_count": 283, "categories": [{"alias": "sportsbars", "title": "Sports Bars"}, {"alias": "tradamerican", "title": "American (Traditional)"}, {"alias": "burgers", "title": "Burgers"}], "rating": 3.0, "coordinates": {"latitude": 39.78492, "longitude": -104.89207}, "transactions": ["delivery", "pickup"], "price": "$$", "location": {"address1": "8270 E Northfield Blvd", "address2": "Ste 1480", "address3": "", "city": "Denver", "zip_code": "80238", "country": "US", "state": "CO", "display_address": ["8270 E Northfield Blvd", "Ste 1480", "Denver, CO 80238"]}, "phone": "+13039530229", "display_phone": "(303) 953-0229", "distance": 2827.602454698792}, {"id": "fIqzpRO5qcFzo4kFwK7BLg", "alias": "tamales-by-sara-commerce-city-2", "name": "Tamales by Sara", "image_url": "https://s3-media1.fl.yelpcdn.com/bphoto/3QEuGmrfadAPDIgejrOI8Q/o.jpg", "is_closed": false, "url": "https://www.yelp.com/biz/tamales-by-sara-commerce-city-2?adjust_creative=a2JdNtFqB-C38ga_06BHvw&utm_campaign=yelp_api_v3&utm_medium=api_v3_business_search&utm_source=a2JdNtFqB-C38ga_06BHvw", "review_count": 7, "categories": [{"alias": "mexican", "title": "Mexican"}], "rating": 4.5, "coordinates": {"latitude": 39.8280899371592, "longitude": -104.91280015558}, "transactions": ["delivery"], "location": {"address1": "6440 E 72nd Pl", "address2": "", "address3": null, "city": "Commerce City", "zip_code": "80022", "country": "US", "state": "CO", "display_address": ["6440 E 72nd Pl", "Commerce City, CO 80022"]}, "phone": "+17206674150", "display_phone": "(720) 667-4150", "distance": 3074.2966983509327}, {"id": "BZFO2UczgxmSnAnqC9lTIQ", "alias": "bad-ass-breakfast-burritos-denver-3", "name": "Bad Ass Breakfast Burritos", "image_url": "https://s3-media1.fl.yelpcdn.com/bphoto/8_iMng9aYfvK2Sue-P0xJw/o.jpg", "is_closed": false, "url": "https://www.yelp.com/biz/bad-ass-breakfast-burritos-denver-3?adjust_creative=a2JdNtFqB-C38ga_06BHvw&utm_campaign=yelp_api_v3&utm_medium=api_v3_business_search&utm_source=a2JdNtFqB-C38ga_06BHvw", "review_count": 24, "categories": [{"alias": "breakfast_brunch", "title": "Breakfast & Brunch"}, {"alias": "tradamerican", "title": "American (Traditional)"}, {"alias": "mexican", "title": "Mexican"}], "rating": 3.5, "coordinates": {"latitude": 39.7811354715026, "longitude": -104.89114991097564}, "transactions": ["delivery", "pickup"], "location": {"address1": "8316 Northfield Blvd", "address2": "Ste 1610", "address3": null, "city": "Denver", "zip_code": "80238", "country": "US", "state": "CO", "display_address": ["8316 Northfield Blvd", "Ste 1610", "Denver, CO 80238"]}, "phone": "+13033534385", "display_phone": "(303) 353-4385", "distance": 2716.283280091848}, {"id": "wsHzEn0b8euhboUjUSwbqw", "alias": "huhot-mongolian-grill-denver-4", "name": "HuHot Mongolian Grill", "image_url": "https://s3-media1.fl.yelpcdn.com/bphoto/GpqcWUL_for_t05wz7XtTA/o.jpg", "is_closed": false, "url": "https://www.yelp.com/biz/huhot-mongolian-grill-denver-4?adjust_creative=a2JdNtFqB-C38ga_06BHvw&utm_campaign=yelp_api_v3&utm_medium=api_v3_business_search&utm_source=a2JdNtFqB-C38ga_06BHvw", "review_count": 127, "categories": [{"alias": "mongolian", "title": "Mongolian"}, {"alias": "asianfusion", "title": "Asian Fusion"}, {"alias": "chinese", "title": "Chinese"}], "rating": 3.0, "coordinates": {"latitude": 39.7811789451251, "longitude": -104.890864566055}, "transactions": ["delivery"], "price": "$$", "location": {"address1": "8336 Northfield Blvd", "address2": "Ste 1600", "address3": null, "city": "Denver", "zip_code": "80238", "country": "US", "state": "CO", "display_address": ["8336 Northfield Blvd", "Ste 1600", "Denver, CO 80238"]}, "phone": "+13033071448", "display_phone": "(303) 307-1448", "distance": 2712.170257400025}, {"id": "ZG38XDfgkYdR-qlFFp2H4A", "alias": "marcos-pizza-denver", "name": "Marco's Pizza", "image_url": "https://s3-media2.fl.yelpcdn.com/bphoto/-DeOjRt71uAv9tDa9-l-ig/o.jpg", "is_closed": false, "url": "https://www.yelp.com/biz/marcos-pizza-denver?adjust_creative=a2JdNtFqB-C38ga_06BHvw&utm_campaign=yelp_api_v3&utm_medium=api_v3_business_search&utm_source=a2JdNtFqB-C38ga_06BHvw", "review_count": 74, "categories": [{"alias": "pizza", "title": "Pizza"}], "rating": 3.0, "coordinates": {"latitude": 39.780835, "longitude": -104.892226}, "transactions": ["delivery"], "price": "$", "location": {"address1": "8286 Northfield Blvd", "address2": "", "address3": "", "city": "Denver", "zip_code": "80266", "country": "US", "state": "CO", "display_address": ["8286 Northfield Blvd", "Denver, CO 80266"]}, "phone": "+13039962929", "display_phone": "(303) 996-2929", "distance": 2748.952319060749}, {"id": "zcjxMj9LN_BNCyW6akaOPw", "alias": "islamorada-fish-company-denver-2", "name": "Islamorada Fish Company", "image_url": "https://s3-media4.fl.yelpcdn.com/bphoto/YS3Wy_m7BCIbwpFmLLSszg/o.jpg", "is_closed": false, "url": "https://www.yelp.com/biz/islamorada-fish-company-denver-2?adjust_creative=a2JdNtFqB-C38ga_06BHvw&utm_campaign=yelp_api_v3&utm_medium=api_v3_business_search&utm_source=a2JdNtFqB-C38ga_06BHvw", "review_count": 113, "categories": [{"alias": "seafood", "title": "Seafood"}], "rating": 3.0, "coordinates": {"latitude": 39.7805484166803, "longitude": -104.89507727067}, "transactions": ["pickup", "delivery"], "price": "$$", "location": {"address1": "7970 Northfield Blvd", "address2": null, "address3": "", "city": "Denver", "zip_code": "80238", "country": "US", "state": "CO", "display_address": ["7970 Northfield Blvd", "Denver, CO 80238"]}, "phone": "+17203853500", "display_phone": "(720) 385-3500", "distance": 2793.5693300527146}, {"id": "iFEDbym-v-bAEuGWkHQ4JQ", "alias": "freddys-frozen-custard-and-steakburgers-denver", "name": "Freddy's Frozen Custard & Steakburgers", "image_url": "https://s3-media2.fl.yelpcdn.com/bphoto/K6GZqgrwIx9UhoFcfRjpxA/o.jpg", "is_closed": false, "url": "https://www.yelp.com/biz/freddys-frozen-custard-and-steakburgers-denver?adjust_creative=a2JdNtFqB-C38ga_06BHvw&utm_campaign=yelp_api_v3&utm_medium=api_v3_business_search&utm_source=a2JdNtFqB-C38ga_06BHvw", "review_count": 59, "categories": [{"alias": "burgers", "title": "Burgers"}, {"alias": "icecream", "title": "Ice Cream & Frozen Yogurt"}, {"alias": "hotdogs", "title": "Fast Food"}], "rating": 3.0, "coordinates": {"latitude": 39.7883004, "longitude": -104.8823351}, "transactions": [], "price": "$", "location": {"address1": "4952 Central Park Blvd", "address2": null, "address3": "", "city": "Denver", "zip_code": "80238", "country": "US", "state": "CO", "display_address": ["4952 Central Park Blvd", "Denver, CO 80238"]}, "phone": "+13033711923", "display_phone": "(303) 371-1923", "distance": 2230.630008129785}, {"id": "QDnJTRfUMhnn0zK32lyHGQ", "alias": "taquerias-iguala-commerce-city-3", "name": "Taquerias Iguala", "image_url": "https://s3-media4.fl.yelpcdn.com/bphoto/YG52lc9kKiMXotNboHbElw/o.jpg", "is_closed": false, "url": "https://www.yelp.com/biz/taquerias-iguala-commerce-city-3?adjust_creative=a2JdNtFqB-C38ga_06BHvw&utm_campaign=yelp_api_v3&utm_medium=api_v3_business_search&utm_source=a2JdNtFqB-C38ga_06BHvw", "review_count": 6, "categories": [{"alias": "mexican", "title": "Mexican"}], "rating": 4.5, "coordinates": {"latitude": 39.82747, "longitude": -104.90497}, "transactions": [], "price": "$", "location": {"address1": "7215 E72nd Ave", "address2": null, "address3": "", "city": "Commerce City", "zip_code": "80022", "country": "US", "state": "CO", "display_address": ["7215 E72nd Ave", "Commerce City, CO 80022"]}, "phone": "+17206381856", "display_phone": "(720) 638-1856", "distance": 2680.875904716173}, {"id": "-vA_LwLhk-R5ouIS8X7vgg", "alias": "gordibuena-mexican-restaurant-commerce-city", "name": "Gordibuena Mexican Restaurant", "image_url": "https://s3-media1.fl.yelpcdn.com/bphoto/1hpAe1TXOPJ3KDsjw2ewUA/o.jpg", "is_closed": false, "url": "https://www.yelp.com/biz/gordibuena-mexican-restaurant-commerce-city?adjust_creative=a2JdNtFqB-C38ga_06BHvw&utm_campaign=yelp_api_v3&utm_medium=api_v3_business_search&utm_source=a2JdNtFqB-C38ga_06BHvw", "review_count": 7, "categories": [{"alias": "mexican", "title": "Mexican"}], "rating": 4.5, "coordinates": {"latitude": 39.8277318, "longitude": -104.9121849}, "transactions": ["pickup", "delivery"], "location": {"address1": "7225 Monaco St", "address2": null, "address3": "", "city": "Commerce City", "zip_code": "80022", "country": "US", "state": "CO", "display_address": ["7225 Monaco St", "Commerce City, CO 80022"]}, "phone": "+13032889202", "display_phone": "(303) 288-9202", "distance": 3000.2429915964863}, {"id": "LyLJkdGMYjuA-zLKw1Dn2w", "alias": "los-gallitos-commerce-city", "name": "Los Gallitos", "image_url": "https://s3-media2.fl.yelpcdn.com/bphoto/IBER_vJ4jjn7l-96FitGkg/o.jpg", "is_closed": false, "url": "https://www.yelp.com/biz/los-gallitos-commerce-city?adjust_creative=a2JdNtFqB-C38ga_06BHvw&utm_campaign=yelp_api_v3&utm_medium=api_v3_business_search&utm_source=a2JdNtFqB-C38ga_06BHvw", "review_count": 20, "categories": [{"alias": "mexican", "title": "Mexican"}], "rating": 3.5, "coordinates": {"latitude": 39.827564239502, "longitude": -104.904052734375}, "transactions": ["delivery"], "price": "$", "location": {"address1": "7255 E 72nd Ave", "address2": null, "address3": null, "city": "Commerce City", "zip_code": "80022", "country": "US", "state": "CO", "display_address": ["7255 E 72nd Ave", "Commerce City, CO 80022"]}, "phone": "+17203534567", "display_phone": "(720) 353-4567", "distance": 2663.2397849095364}, {"id": "04EKbK236ZtynjUAKnycsQ", "alias": "el-taco-stop-commerce-city", "name": "El Taco Stop", "image_url": "https://s3-media2.fl.yelpcdn.com/bphoto/0fN6ao0ASGfn2Gol3goFgQ/o.jpg", "is_closed": false, "url": "https://www.yelp.com/biz/el-taco-stop-commerce-city?adjust_creative=a2JdNtFqB-C38ga_06BHvw&utm_campaign=yelp_api_v3&utm_medium=api_v3_business_search&utm_source=a2JdNtFqB-C38ga_06BHvw", "review_count": 13, "categories": [{"alias": "mexican", "title": "Mexican"}], "rating": 4.0, "coordinates": {"latitude": 39.8232079, "longitude": -104.9200483}, "transactions": ["delivery"], "location": {"address1": "6960 Highway 2", "address2": "", "address3": "", "city": "Commerce City", "zip_code": "80022", "country": "US", "state": "CO", "display_address": ["6960 Highway 2", "Commerce City, CO 80022"]}, "phone": "+17206850718", "display_phone": "(720) 685-0718", "distance": 3100.744515657081}, {"id": "Gb-yIdsEj_0-SQI0J6ROmg", "alias": "del-taco-denver-3", "name": "Del Taco", "image_url": "https://s3-media2.fl.yelpcdn.com/bphoto/FYrKPuZ8cHPupBoZRZr6OA/o.jpg", "is_closed": false, "url": "https://www.yelp.com/biz/del-taco-denver-3?adjust_creative=a2JdNtFqB-C38ga_06BHvw&utm_campaign=yelp_api_v3&utm_medium=api_v3_business_search&utm_source=a2JdNtFqB-C38ga_06BHvw", "review_count": 52, "categories": [{"alias": "mexican", "title": "Mexican"}, {"alias": "hotdogs", "title": "Fast Food"}], "rating": 3.0, "coordinates": {"latitude": 39.78535, "longitude": -104.89449}, "transactions": ["pickup", "delivery"], "price": "$", "location": {"address1": "8100 Northfield Blvd", "address2": null, "address3": null, "city": "Denver", "zip_code": "80238", "country": "US", "state": "CO", "display_address": ["8100 Northfield Blvd", "Denver, CO 80238"]}, "phone": "+13033071712", "display_phone": "(303) 307-1712", "distance": 2262.277062009235}, {"id": "tRXKImx69P_NU5i2wMC1dQ", "alias": "tokyo-joes-denver-8", "name": "Tokyo Joe's", "image_url": "https://s3-media1.fl.yelpcdn.com/bphoto/h-MNI4vlmtR531CuOrsDlA/o.jpg", "is_closed": false, "url": "https://www.yelp.com/biz/tokyo-joes-denver-8?adjust_creative=a2JdNtFqB-C38ga_06BHvw&utm_campaign=yelp_api_v3&utm_medium=api_v3_business_search&utm_source=a2JdNtFqB-C38ga_06BHvw", "review_count": 66, "categories": [{"alias": "asianfusion", "title": "Asian Fusion"}, {"alias": "sushi", "title": "Sushi Bars"}, {"alias": "poke", "title": "Poke"}], "rating": 3.0, "coordinates": {"latitude": 39.786005, "longitude": -104.8908156}, "transactions": ["pickup", "delivery"], "price": "$$", "location": {"address1": "8391 E Northfield Blvd", "address2": "", "address3": "", "city": "Denver", "zip_code": "80238", "country": "US", "state": "CO", "display_address": ["8391 E Northfield Blvd", "Denver, CO 80238"]}, "phone": "+13033071212", "display_phone": "(303) 307-1212", "distance": 2176.1060590705792}, {"id": "ZX_ff5zOuRpZBGaDyhP-dg", "alias": "santiagos-express-commerce-city", "name": "Santiagos Express", "image_url": "https://s3-media1.fl.yelpcdn.com/bphoto/5f-3eg6-bv379RrhIDCaiQ/o.jpg", "is_closed": false, "url": "https://www.yelp.com/biz/santiagos-express-commerce-city?adjust_creative=a2JdNtFqB-C38ga_06BHvw&utm_campaign=yelp_api_v3&utm_medium=api_v3_business_search&utm_source=a2JdNtFqB-C38ga_06BHvw", "review_count": 32, "categories": [{"alias": "mexican", "title": "Mexican"}], "rating": 3.0, "coordinates": {"latitude": 39.8268127441406, "longitude": -104.926452636719}, "transactions": ["delivery"], "price": "$", "location": {"address1": "5230 E 72nd Ave", "address2": "", "address3": "", "city": "Commerce City", "zip_code": "80022", "country": "US", "state": "CO", "display_address": ["5230 E 72nd Ave", "Commerce City, CO 80022"]}, "phone": "+13038530821", "display_phone": "(303) 853-0821", "distance": 3778.409016553143}, {"id": "M4DUrqUnB9JAo2dOtV5D2A", "alias": "red-lobster-denver", "name": "Red Lobster", "image_url": "https://s3-media2.fl.yelpcdn.com/bphoto/Mz9vcbcmnu5yTfGoHDE8Hg/o.jpg", "is_closed": false, "url": "https://www.yelp.com/biz/red-lobster-denver?adjust_creative=a2JdNtFqB-C38ga_06BHvw&utm_campaign=yelp_api_v3&utm_medium=api_v3_business_search&utm_source=a2JdNtFqB-C38ga_06BHvw", "review_count": 88, "categories": [{"alias": "seafood", "title": "Seafood"}, {"alias": "tradamerican", "title": "American (Traditional)"}], "rating": 2.5, "coordinates": {"latitude": 39.779487, "longitude": -104.893053}, "transactions": ["pickup", "delivery"], "price": "$$", "location": {"address1": "8268 E Northfield Blvd", "address2": "STAPLETON/NORTHFIELD", "address3": "", "city": "Denver", "zip_code": "80238", "country": "US", "state": "CO", "display_address": ["8268 E Northfield Blvd", "STAPLETON/NORTHFIELD", "Denver, CO 80238"]}, "phone": "+13033079955", "display_phone": "(303) 307-9955", "distance": 2900.285483697276}, {"id": "UOj69P2PVWI0U1PEDeQqZw", "alias": "five-guys-denver", "name": "Five Guys", "image_url": "https://s3-media2.fl.yelpcdn.com/bphoto/bS9QU7nl-_ztpei-EuWzEg/o.jpg", "is_closed": false, "url": "https://www.yelp.com/biz/five-guys-denver?adjust_creative=a2JdNtFqB-C38ga_06BHvw&utm_campaign=yelp_api_v3&utm_medium=api_v3_business_search&utm_source=a2JdNtFqB-C38ga_06BHvw", "review_count": 47, "categories": [{"alias": "burgers", "title": "Burgers"}, {"alias": "hotdogs", "title": "Fast Food"}], "rating": 2.5, "coordinates": {"latitude": 39.78598160274076, "longitude": -104.8929349504463}, "transactions": ["delivery"], "price": "$$", "location": {"address1": "8201 E Northfield Blvd", "address2": "", "address3": "", "city": "Denver", "zip_code": "80238", "country": "US", "state": "CO", "display_address": ["8201 E Northfield Blvd", "Denver, CO 80238"]}, "phone": "+13033713483", "display_phone": "(303) 371-3483", "distance": 2178.2171488379417}, {"id": "jJ-SK18YkKVOPwFAyHM0DA", "alias": "tgi-fridays-denver", "name": "TGI Fridays", "image_url": "https://s3-media1.fl.yelpcdn.com/bphoto/XGPgam839-wzUVUYPmfeaA/o.jpg", "is_closed": false, "url": "https://www.yelp.com/biz/tgi-fridays-denver?adjust_creative=a2JdNtFqB-C38ga_06BHvw&utm_campaign=yelp_api_v3&utm_medium=api_v3_business_search&utm_source=a2JdNtFqB-C38ga_06BHvw", "review_count": 185, "categories": [{"alias": "tradamerican", "title": "American (Traditional)"}], "rating": 2.0, "coordinates": {"latitude": 39.7851892524901, "longitude": -104.893602351931}, "transactions": ["pickup", "restaurant_reservation", "delivery"], "price": "$$", "location": {"address1": "8104 East 49th Ave", "address2": "", "address3": "", "city": "Denver", "zip_code": "80238", "country": "US", "state": "CO", "display_address": ["8104 East 49th Ave", "Denver, CO 80238"]}, "phone": "+13033718840", "display_phone": "(303) 371-8840", "distance": 2269.1040324155574}, {"id": "pAfrBalgFioRw-pAypX_jA", "alias": "jersey-mikes-subs-denver-7", "name": "Jersey Mike's Subs", "image_url": "https://s3-media4.fl.yelpcdn.com/bphoto/aVzCmwKUH-Fp9WTqxaxyHA/o.jpg", "is_closed": false, "url": "https://www.yelp.com/biz/jersey-mikes-subs-denver-7?adjust_creative=a2JdNtFqB-C38ga_06BHvw&utm_campaign=yelp_api_v3&utm_medium=api_v3_business_search&utm_source=a2JdNtFqB-C38ga_06BHvw", "review_count": 32, "categories": [{"alias": "hotdogs", "title": "Fast Food"}, {"alias": "delis", "title": "Delis"}, {"alias": "sandwiches", "title": "Sandwiches"}], "rating": 3.0, "coordinates": {"latitude": 39.786061, "longitude": -104.890947}, "transactions": ["pickup", "delivery"], "location": {"address1": "8381 E Northfield Blvd", "address2": "", "address3": "", "city": "Denver", "zip_code": "80238", "country": "US", "state": "CO", "display_address": ["8381 E Northfield Blvd", "Denver, CO 80238"]}, "phone": "+17202133100", "display_phone": "(720) 213-3100", "distance": 2169.415513716195}, {"id": "a8cnJ4Jo3e3mR1U1ssXh4Q", "alias": "birrieria-la-guera-michoacana-commerce-city", "name": "Birrieria La guera Michoacana", "image_url": "https://s3-media2.fl.yelpcdn.com/bphoto/e-fZD0fXr3Eev87j6ao5dg/o.jpg", "is_closed": false, "url": "https://www.yelp.com/biz/birrieria-la-guera-michoacana-commerce-city?adjust_creative=a2JdNtFqB-C38ga_06BHvw&utm_campaign=yelp_api_v3&utm_medium=api_v3_business_search&utm_source=a2JdNtFqB-C38ga_06BHvw", "review_count": 11, "categories": [{"alias": "mexican", "title": "Mexican"}], "rating": 3.5, "coordinates": {"latitude": 39.82869, "longitude": -104.9131}, "transactions": ["pickup", "delivery"], "location": {"address1": "7272 Locust St", "address2": "", "address3": null, "city": "Commerce City", "zip_code": "80022", "country": "US", "state": "CO", "display_address": ["7272 Locust St", "Commerce City, CO 80022"]}, "phone": "+13032879688", "display_phone": "(303) 287-9688", "distance": 3146.0940350592064}, {"id": "wz4ssfdKUBuQF1vwB7G1qA", "alias": "golden-town-chinese-commerce-city", "name": "Golden Town Chinese", "image_url": "https://s3-media4.fl.yelpcdn.com/bphoto/hiyolvCRRKGaGTW-W-MaLQ/o.jpg", "is_closed": false, "url": "https://www.yelp.com/biz/golden-town-chinese-commerce-city?adjust_creative=a2JdNtFqB-C38ga_06BHvw&utm_campaign=yelp_api_v3&utm_medium=api_v3_business_search&utm_source=a2JdNtFqB-C38ga_06BHvw", "review_count": 33, "categories": [{"alias": "chinese", "title": "Chinese"}], "rating": 2.5, "coordinates": {"latitude": 39.8127051, "longitude": -104.9188713}, "transactions": ["pickup", "delivery"], "price": "$", "location": {"address1": "5976 E 64th Ave", "address2": "", "address3": "", "city": "Commerce City", "zip_code": "80022", "country": "US", "state": "CO", "display_address": ["5976 E 64th Ave", "Commerce City, CO 80022"]}, "phone": "+13032868686", "display_phone": "(303) 286-8686", "distance": 2368.329464942705}, {"id": "DXOrF87cINK4vpbxENV74g", "alias": "el-camaron-loco-commerce-city-commerce-city", "name": "El Camaron Loco - Commerce City", "image_url": "https://s3-media2.fl.yelpcdn.com/bphoto/RO19TPQgERvwxOtU_C7Qrw/o.jpg", "is_closed": false, "url": "https://www.yelp.com/biz/el-camaron-loco-commerce-city-commerce-city?adjust_creative=a2JdNtFqB-C38ga_06BHvw&utm_campaign=yelp_api_v3&utm_medium=api_v3_business_search&utm_source=a2JdNtFqB-C38ga_06BHvw", "review_count": 10, "categories": [{"alias": "mexican", "title": "Mexican"}, {"alias": "seafood", "title": "Seafood"}], "rating": 3.5, "coordinates": {"latitude": 39.8270072937012, "longitude": -104.90877532959}, "transactions": ["pickup", "delivery"], "location": {"address1": "6740 E 72nd Ave", "address2": "", "address3": "", "city": "Commerce City", "zip_code": "80022", "country": "US", "state": "CO", "display_address": ["6740 E 72nd Ave", "Commerce City, CO 80022"]}, "phone": "+13032270188", "display_phone": "(303) 227-0188", "distance": 2784.675789415292}, {"id": "RiYqiTcSNZMksqRGU5h7-Q", "alias": "taqueria-los-dos-hermanos-denver", "name": "Taqueria Los Dos Hermanos", "image_url": "https://s3-media4.fl.yelpcdn.com/bphoto/dxXID6YMmyAmBuURKFUqVA/o.jpg", "is_closed": false, "url": "https://www.yelp.com/biz/taqueria-los-dos-hermanos-denver?adjust_creative=a2JdNtFqB-C38ga_06BHvw&utm_campaign=yelp_api_v3&utm_medium=api_v3_business_search&utm_source=a2JdNtFqB-C38ga_06BHvw", "review_count": 4, "categories": [{"alias": "streetvendors", "title": "Street Vendors"}, {"alias": "mexican", "title": "Mexican"}], "rating": 4.5, "coordinates": {"latitude": 39.78419019681926, "longitude": -104.87110633116947}, "transactions": [], "price": "$", "location": {"address1": "4700 Florence St", "address2": "", "address3": "", "city": "Denver", "zip_code": "80238", "country": "US", "state": "CO", "display_address": ["4700 Florence St", "Denver, CO 80238"]}, "phone": "+17202385326", "display_phone": "(720) 238-5326", "distance": 2968.779305435723}, {"id": "Slc339xoBj7TpmPFuVswJg", "alias": "burrito-rapido-commerce-city", "name": "Burrito Rapido", "image_url": "https://s3-media1.fl.yelpcdn.com/bphoto/gl3_5o1mgsfcIlqBKng6iA/o.jpg", "is_closed": false, "url": "https://www.yelp.com/biz/burrito-rapido-commerce-city?adjust_creative=a2JdNtFqB-C38ga_06BHvw&utm_campaign=yelp_api_v3&utm_medium=api_v3_business_search&utm_source=a2JdNtFqB-C38ga_06BHvw", "review_count": 18, "categories": [{"alias": "mexican", "title": "Mexican"}], "rating": 3.0, "coordinates": {"latitude": 39.80744, "longitude": -104.90392}, "transactions": ["delivery"], "price": "$", "location": {"address1": "6089 Quebec", "address2": "", "address3": "", "city": "Commerce City", "zip_code": "80022", "country": "US", "state": "CO", "display_address": ["6089 Quebec", "Commerce City, CO 80022"]}, "phone": "+13032897590", "display_phone": "(303) 289-7590", "distance": 1043.757150487719}, {"id": "-LyVJ3jTAjdYuZSkN4RnzA", "alias": "qdoba-mexican-eats-denver-2", "name": "QDOBA Mexican Eats", "image_url": "https://s3-media1.fl.yelpcdn.com/bphoto/zeAGlClF5X_nCkxBFiFf9g/o.jpg", "is_closed": false, "url": "https://www.yelp.com/biz/qdoba-mexican-eats-denver-2?adjust_creative=a2JdNtFqB-C38ga_06BHvw&utm_campaign=yelp_api_v3&utm_medium=api_v3_business_search&utm_source=a2JdNtFqB-C38ga_06BHvw", "review_count": 23, "categories": [{"alias": "mexican", "title": "Mexican"}, {"alias": "hotdogs", "title": "Fast Food"}], "rating": 2.5, "coordinates": {"latitude": 39.7807793240582, "longitude": -104.892642660119}, "transactions": ["delivery", "pickup"], "price": "$", "location": {"address1": "8286 E Northfield Blvd", "address2": "Ste 1510", "address3": null, "city": "Denver", "zip_code": "80238", "country": "US", "state": "CO", "display_address": ["8286 E Northfield Blvd", "Ste 1510", "Denver, CO 80238"]}, "phone": "+13032867337", "display_phone": "(303) 286-7337", "distance": 2755.6841873941726}, {"id": "1dNcLnawoUlU8qIan7Ymuw", "alias": "bad-mutha-clucka-denver-2", "name": "Bad Mutha Clucka", "image_url": "https://s3-media4.fl.yelpcdn.com/bphoto/M7FjZeSzNKjfEdvucmTZ6Q/o.jpg", "is_closed": false, "url": "https://www.yelp.com/biz/bad-mutha-clucka-denver-2?adjust_creative=a2JdNtFqB-C38ga_06BHvw&utm_campaign=yelp_api_v3&utm_medium=api_v3_business_search&utm_source=a2JdNtFqB-C38ga_06BHvw", "review_count": 8, "categories": [{"alias": "chicken_wings", "title": "Chicken Wings"}, {"alias": "burgers", "title": "Burgers"}, {"alias": "hotdogs", "title": "Fast Food"}], "rating": 3.5, "coordinates": {"latitude": 39.781131348978136, "longitude": -104.89114454655761}, "transactions": ["delivery", "pickup"], "location": {"address1": "8316 Northfield Blvd", "address2": "Ste 1610", "address3": null, "city": "Denver", "zip_code": "80238", "country": "US", "state": "CO", "display_address": ["8316 Northfield Blvd", "Ste 1610", "Denver, CO 80238"]}, "phone": "+13033534385", "display_phone": "(303) 353-4385", "distance": 2716.7530247145964}, {"id": "RH-Ns563kdcKx1r9fN_vBQ", "alias": "jimmy-johns-denver-16", "name": "Jimmy John's", "image_url": "https://s3-media2.fl.yelpcdn.com/bphoto/zO771YM5jh1Q6hVnmz2udg/o.jpg", "is_closed": false, "url": "https://www.yelp.com/biz/jimmy-johns-denver-16?adjust_creative=a2JdNtFqB-C38ga_06BHvw&utm_campaign=yelp_api_v3&utm_medium=api_v3_business_search&utm_source=a2JdNtFqB-C38ga_06BHvw", "review_count": 12, "categories": [{"alias": "sandwiches", "title": "Sandwiches"}, {"alias": "hotdogs", "title": "Fast Food"}, {"alias": "delis", "title": "Delis"}], "rating": 2.5, "coordinates": {"latitude": 39.786424, "longitude": -104.882178}, "transactions": [], "price": "$", "location": {"address1": "9135 E Northfield Blvd", "address2": "Ste 130", "address3": "", "city": "Denver", "zip_code": "80238", "country": "US", "state": "CO", "display_address": ["9135 E Northfield Blvd", "Ste 130", "Denver, CO 80238"]}, "phone": "+17203904545", "display_phone": "(720) 390-4545", "distance": 2285.143434800599}, {"id": "MYiFH8En4ekdWPdbuC5xLA", "alias": "little-caesars-pizza-commerce-city", "name": "Little Caesars Pizza", "image_url": "https://s3-media3.fl.yelpcdn.com/bphoto/ufmPtU_2_-LfssRvNvKxbw/o.jpg", "is_closed": false, "url": "https://www.yelp.com/biz/little-caesars-pizza-commerce-city?adjust_creative=a2JdNtFqB-C38ga_06BHvw&utm_campaign=yelp_api_v3&utm_medium=api_v3_business_search&utm_source=a2JdNtFqB-C38ga_06BHvw", "review_count": 10, "categories": [{"alias": "pizza", "title": "Pizza"}], "rating": 2.5, "coordinates": {"latitude": 39.812485, "longitude": -104.91922}, "transactions": [], "price": "$", "location": {"address1": "5940 E 64th Ave", "address2": "", "address3": "", "city": "Commerce City", "zip_code": "80022", "country": "US", "state": "CO", "display_address": ["5940 E 64th Ave", "Commerce City, CO 80022"]}, "phone": "+13032866703", "display_phone": "(303) 286-6703", "distance": 2455.5964926960664}, {"id": "9fUJhfuh-vksOT7IvOSJPg", "alias": "las-dos-americas-tortilleria-commerce-city", "name": "Las Dos Americas Tortilleria", "image_url": "https://s3-media3.fl.yelpcdn.com/bphoto/vqe-jVjo12RS5ER5aEYipg/o.jpg", "is_closed": false, "url": "https://www.yelp.com/biz/las-dos-americas-tortilleria-commerce-city?adjust_creative=a2JdNtFqB-C38ga_06BHvw&utm_campaign=yelp_api_v3&utm_medium=api_v3_business_search&utm_source=a2JdNtFqB-C38ga_06BHvw", "review_count": 4, "categories": [{"alias": "mexican", "title": "Mexican"}], "rating": 3.5, "coordinates": {"latitude": 39.806745, "longitude": -104.903822}, "transactions": ["delivery", "pickup"], "location": {"address1": "6065 Quebec St", "address2": "", "address3": "", "city": "Commerce City", "zip_code": "80022", "country": "US", "state": "CO", "display_address": ["6065 Quebec St", "Commerce City, CO 80022"]}, "phone": "+13032277791", "display_phone": "(303) 227-7791", "distance": 1023.2140004879273}, {"id": "sqUsoTFcKthS6epkkiGrpg", "alias": "teds-philly-cheese-steaks-and-mexican-grill-denver", "name": "Ted's Philly Cheese Steaks & Mexican Grill", "image_url": "https://s3-media3.fl.yelpcdn.com/bphoto/pgh3xRkFIjRSNV1fSVkmEQ/o.jpg", "is_closed": false, "url": "https://www.yelp.com/biz/teds-philly-cheese-steaks-and-mexican-grill-denver?adjust_creative=a2JdNtFqB-C38ga_06BHvw&utm_campaign=yelp_api_v3&utm_medium=api_v3_business_search&utm_source=a2JdNtFqB-C38ga_06BHvw", "review_count": 4, "categories": [{"alias": "mexican", "title": "Mexican"}], "rating": 3.5, "coordinates": {"latitude": 39.82747, "longitude": -104.90497}, "transactions": ["delivery", "pickup"], "location": {"address1": "7215 East 72nd Ave", "address2": null, "address3": "", "city": "Denver", "zip_code": "80022", "country": "US", "state": "CO", "display_address": ["7215 East 72nd Ave", "Denver, CO 80022"]}, "phone": "+13034980507", "display_phone": "(303) 498-0507", "distance": 2680.875904716173}, {"id": "dYZUkNjeOATQineAxry1ww", "alias": "el-coco-pirata-commerce-city", "name": "El Coco Pirata", "image_url": "https://s3-media4.fl.yelpcdn.com/bphoto/TrMiHPthvko4MDC3sIrQ3A/o.jpg", "is_closed": false, "url": "https://www.yelp.com/biz/el-coco-pirata-commerce-city?adjust_creative=a2JdNtFqB-C38ga_06BHvw&utm_campaign=yelp_api_v3&utm_medium=api_v3_business_search&utm_source=a2JdNtFqB-C38ga_06BHvw", "review_count": 7, "categories": [{"alias": "mexican", "title": "Mexican"}, {"alias": "seafood", "title": "Seafood"}, {"alias": "sushi", "title": "Sushi Bars"}], "rating": 2.5, "coordinates": {"latitude": 39.795043, "longitude": -104.9041645}, "transactions": ["delivery"], "location": {"address1": "5411 Quebec St", "address2": "", "address3": null, "city": "Commerce City", "zip_code": "80022", "country": "US", "state": "CO", "display_address": ["5411 Quebec St", "Commerce City, CO 80022"]}, "phone": "+17209092105", "display_phone": "(720) 909-2105", "distance": 1567.3030041383395}, {"id": "HBg00GqLKABHQC55fZX0vw", "alias": "taco-mex-v-commerce-city", "name": "Taco Mex V", "image_url": "https://s3-media1.fl.yelpcdn.com/bphoto/hDc0H2hy1tMCFMp-aC8yuQ/o.jpg", "is_closed": false, "url": "https://www.yelp.com/biz/taco-mex-v-commerce-city?adjust_creative=a2JdNtFqB-C38ga_06BHvw&utm_campaign=yelp_api_v3&utm_medium=api_v3_business_search&utm_source=a2JdNtFqB-C38ga_06BHvw", "review_count": 6, "categories": [{"alias": "mexican", "title": "Mexican"}], "rating": 3.0, "coordinates": {"latitude": 39.813090724676, "longitude": -104.917278048336}, "transactions": [], "location": {"address1": "6101 E 64th Ave", "address2": "", "address3": "", "city": "Commerce City", "zip_code": "80022", "country": "US", "state": "CO", "display_address": ["6101 E 64th Ave", "Commerce City, CO 80022"]}, "phone": "", "display_phone": "", "distance": 2320.5004948940937}, {"id": "hmcCa4XISI0CVJLiq0pQig", "alias": "mi-pueblo-market-commerce-city-2", "name": "Mi Pueblo Market", "image_url": "https://s3-media1.fl.yelpcdn.com/bphoto/JA0Uf-vTaRyk1yTzJWx_iA/o.jpg", "is_closed": false, "url": "https://www.yelp.com/biz/mi-pueblo-market-commerce-city-2?adjust_creative=a2JdNtFqB-C38ga_06BHvw&utm_campaign=yelp_api_v3&utm_medium=api_v3_business_search&utm_source=a2JdNtFqB-C38ga_06BHvw", "review_count": 4, "categories": [{"alias": "mexican", "title": "Mexican"}, {"alias": "grocery", "title": "Grocery"}, {"alias": "bakeries", "title": "Bakeries"}], "rating": 3.5, "coordinates": {"latitude": 39.8117296394973, "longitude": -104.918138431872}, "transactions": [], "location": {"address1": "6040 E 64th Ave", "address2": "", "address3": "", "city": "Commerce City", "zip_code": "80022", "country": "US", "state": "CO", "display_address": ["6040 E 64th Ave", "Commerce City, CO 80022"]}, "phone": "+17206380473", "display_phone": "(720) 638-0473", "distance": 2340.4263474099707}, {"id": "KdHqUwouzq5QRVP4YwiWmw", "alias": "rico-pollo-commerce-city", "name": "Rico Pollo", "image_url": "https://s3-media4.fl.yelpcdn.com/bphoto/SvYBkBKG4Pz0Ayzv9bu2kQ/o.jpg", "is_closed": false, "url": "https://www.yelp.com/biz/rico-pollo-commerce-city?adjust_creative=a2JdNtFqB-C38ga_06BHvw&utm_campaign=yelp_api_v3&utm_medium=api_v3_business_search&utm_source=a2JdNtFqB-C38ga_06BHvw", "review_count": 11, "categories": [{"alias": "mexican", "title": "Mexican"}], "rating": 2.5, "coordinates": {"latitude": 39.8125686645508, "longitude": -104.92024230957}, "transactions": ["delivery"], "price": "$$", "location": {"address1": "5790 E 64th Ave", "address2": "", "address3": "", "city": "Commerce City", "zip_code": "80022", "country": "US", "state": "CO", "display_address": ["5790 E 64th Ave", "Commerce City, CO 80022"]}, "phone": "+13038534666", "display_phone": "(303) 853-4666", "distance": 2534.083946161137}, {"id": "Q_O8F1JWyUSPRlt_jknB_g", "alias": "pudge-bros-pizza-commerce-city-4", "name": "Pudge Bros. Pizza", "image_url": "https://s3-media4.fl.yelpcdn.com/bphoto/dG65X0H8NtrSeEC1MbORCg/o.jpg", "is_closed": false, "url": "https://www.yelp.com/biz/pudge-bros-pizza-commerce-city-4?adjust_creative=a2JdNtFqB-C38ga_06BHvw&utm_campaign=yelp_api_v3&utm_medium=api_v3_business_search&utm_source=a2JdNtFqB-C38ga_06BHvw", "review_count": 9, "categories": [{"alias": "italian", "title": "Italian"}, {"alias": "pizza", "title": "Pizza"}], "rating": 2.0, "coordinates": {"latitude": 39.8131866455078, "longitude": -104.917785644531}, "transactions": ["delivery", "pickup"], "price": "$", "location": {"address1": "6085 E 64th Ave", "address2": "", "address3": "", "city": "Commerce City", "zip_code": "80022", "country": "US", "state": "CO", "display_address": ["6085 E 64th Ave", "Commerce City, CO 80022"]}, "phone": "+13038539300", "display_phone": "(303) 853-9300", "distance": 2371.087715250422}, {"id": "Gnxwy4tXLbT1DJbo6n-hUw", "alias": "wystones-northfield-denver", "name": "Wystone's Northfield", "image_url": "https://s3-media1.fl.yelpcdn.com/bphoto/mGSnsAAkxWKNxzYa21ib4Q/o.jpg", "is_closed": false, "url": "https://www.yelp.com/biz/wystones-northfield-denver?adjust_creative=a2JdNtFqB-C38ga_06BHvw&utm_campaign=yelp_api_v3&utm_medium=api_v3_business_search&utm_source=a2JdNtFqB-C38ga_06BHvw", "review_count": 8, "categories": [{"alias": "coffee", "title": "Coffee & Tea"}, {"alias": "breakfast_brunch", "title": "Breakfast & Brunch"}], "rating": 2.0, "coordinates": {"latitude": 39.783807, "longitude": -104.865293}, "transactions": [], "price": "$$$$", "location": {"address1": "4880 Havana St", "address2": null, "address3": "", "city": "Denver", "zip_code": "80239", "country": "US", "state": "CO", "display_address": ["4880 Havana St", "Denver, CO 80239"]}, "phone": "+13033718186", "display_phone": "(303) 371-8186", "distance": 3321.600996025308}, {"id": "_AgF9VNtkouzYqV4vnDxhw", "alias": "popeyes-louisiana-kitchen-commerce-city", "name": "Popeyes Louisiana Kitchen", "image_url": "https://s3-media1.fl.yelpcdn.com/bphoto/0TEdJo2DARsqVIph_7zYwg/o.jpg", "is_closed": false, "url": "https://www.yelp.com/biz/popeyes-louisiana-kitchen-commerce-city?adjust_creative=a2JdNtFqB-C38ga_06BHvw&utm_campaign=yelp_api_v3&utm_medium=api_v3_business_search&utm_source=a2JdNtFqB-C38ga_06BHvw", "review_count": 13, "categories": [{"alias": "chicken_wings", "title": "Chicken Wings"}, {"alias": "hotdogs", "title": "Fast Food"}], "rating": 1.5, "coordinates": {"latitude": 39.7899215, "longitude": -104.9045029}, "transactions": ["delivery"], "price": "$", "location": {"address1": "5101 Quebec St", "address2": "", "address3": "", "city": "Commerce City", "zip_code": "80022", "country": "US", "state": "CO", "display_address": ["5101 Quebec St", "Commerce City, CO 80022"]}, "phone": "+13032860123", "display_phone": "(303) 286-0123", "distance": 2042.9090262214377}, {"id": "eVes4EnX5hfycm47M7tlpQ", "alias": "blackjack-pizza-and-salads-commerce-city", "name": "Blackjack Pizza & Salads", "image_url": "https://s3-media3.fl.yelpcdn.com/bphoto/Xmif88Rht9KJw21qUuyrnA/o.jpg", "is_closed": false, "url": "https://www.yelp.com/biz/blackjack-pizza-and-salads-commerce-city?adjust_creative=a2JdNtFqB-C38ga_06BHvw&utm_campaign=yelp_api_v3&utm_medium=api_v3_business_search&utm_source=a2JdNtFqB-C38ga_06BHvw", "review_count": 15, "categories": [{"alias": "pizza", "title": "Pizza"}, {"alias": "italian", "title": "Italian"}], "rating": 1.5, "coordinates": {"latitude": 39.82655, "longitude": -104.9156299}, "transactions": ["delivery", "pickup"], "price": "$$", "location": {"address1": "6225 E 71st Pl", "address2": "", "address3": "", "city": "Commerce City", "zip_code": "80022", "country": "US", "state": "CO", "display_address": ["6225 E 71st Pl", "Commerce City, CO 80022"]}, "phone": "+13032861770", "display_phone": "(303) 286-1770", "distance": 3094.149560463431}, {"id": "MVxLqHHn_XQyEqzF4zcvmw", "alias": "panda-express-denver-19", "name": "Panda Express", "image_url": "https://s3-media2.fl.yelpcdn.com/bphoto/qFbwILUAF2dDK1pdC5NGUQ/o.jpg", "is_closed": false, "url": "https://www.yelp.com/biz/panda-express-denver-19?adjust_creative=a2JdNtFqB-C38ga_06BHvw&utm_campaign=yelp_api_v3&utm_medium=api_v3_business_search&utm_source=a2JdNtFqB-C38ga_06BHvw", "review_count": 6, "categories": [{"alias": "chinese", "title": "Chinese"}, {"alias": "hotdogs", "title": "Fast Food"}], "rating": 2.0, "coordinates": {"latitude": 39.798776, "longitude": -104.8821049}, "transactions": ["delivery", "pickup"], "location": {"address1": "5625 N. Beeler Street", "address2": null, "address3": null, "city": "Denver", "zip_code": "80238", "country": "US", "state": "CO", "display_address": ["5625 N. Beeler Street", "Denver, CO 80238"]}, "phone": "+17206738989", "display_phone": "(720) 673-8989", "distance": 1122.6959662745128}, {"id": "FnWpdfjDT8zDY7FeN0OrmA", "alias": "pudge-brothers-pizza-commerce-city-2", "name": "Pudge Brothers Pizza", "image_url": "", "is_closed": false, "url": "https://www.yelp.com/biz/pudge-brothers-pizza-commerce-city-2?adjust_creative=a2JdNtFqB-C38ga_06BHvw&utm_campaign=yelp_api_v3&utm_medium=api_v3_business_search&utm_source=a2JdNtFqB-C38ga_06BHvw", "review_count": 2, "categories": [{"alias": "pizza", "title": "Pizza"}], "rating": 3.0, "coordinates": {"latitude": 39.7852029651403, "longitude": -104.916204214096}, "transactions": [], "price": "$$$$", "location": {"address1": "6170 E 49th Ave", "address2": "", "address3": "", "city": "Commerce City", "zip_code": "80022", "country": "US", "state": "CO", "display_address": ["6170 E 49th Ave", "Commerce City, CO 80022"]}, "phone": "+13032871551", "display_phone": "(303) 287-1551", "distance": 3089.277667640319}, {"id": "crjFr1UCWKCNkU9Dhz6JtA", "alias": "subway-commerce-city-5", "name": "Subway", "image_url": "https://s3-media1.fl.yelpcdn.com/bphoto/c9ZyWeiX2LGpo98Jxeo2qg/o.jpg", "is_closed": false, "url": "https://www.yelp.com/biz/subway-commerce-city-5?adjust_creative=a2JdNtFqB-C38ga_06BHvw&utm_campaign=yelp_api_v3&utm_medium=api_v3_business_search&utm_source=a2JdNtFqB-C38ga_06BHvw", "review_count": 4, "categories": [{"alias": "sandwiches", "title": "Sandwiches"}], "rating": 2.5, "coordinates": {"latitude": 39.784824, "longitude": -104.905196}, "transactions": ["delivery"], "price": "$", "location": {"address1": "7120 E 49th Ave", "address2": "", "address3": "Sinclaire Gas Sapp Bros Truck", "city": "Commerce City", "zip_code": "80022", "country": "US", "state": "CO", "display_address": ["7120 E 49th Ave", "Sinclaire Gas Sapp Bros Truck", "Commerce City, CO 80022"]}, "phone": "+13032893900", "display_phone": "(303) 289-3900", "distance": 2568.3088437463252}, {"id": "GloIJVdXolwIumQ0rn7n7w", "alias": "dairy-queen-commerce-city", "name": "Dairy Queen", "image_url": "https://s3-media2.fl.yelpcdn.com/bphoto/GyXCY5_R-3hOn-eaHvY1lg/o.jpg", "is_closed": false, "url": "https://www.yelp.com/biz/dairy-queen-commerce-city?adjust_creative=a2JdNtFqB-C38ga_06BHvw&utm_campaign=yelp_api_v3&utm_medium=api_v3_business_search&utm_source=a2JdNtFqB-C38ga_06BHvw", "review_count": 5, "categories": [{"alias": "icecream", "title": "Ice Cream & Frozen Yogurt"}, {"alias": "hotdogs", "title": "Fast Food"}, {"alias": "burgers", "title": "Burgers"}], "rating": 2.0, "coordinates": {"latitude": 39.8125095, "longitude": -104.91946309804916}, "transactions": ["delivery"], "price": "$", "location": {"address1": "5800 E 64th Ave", "address2": "", "address3": "", "city": "Commerce City", "zip_code": "80022", "country": "US", "state": "CO", "display_address": ["5800 E 64th Ave", "Commerce City, CO 80022"]}, "phone": "+13032891650", "display_phone": "(303) 289-1650", "distance": 2474.522235399948}, {"id": "SW2SN3gZDo4avoXToWRG9g", "alias": "churchs-chicken-commerce-city", "name": "Church's Chicken", "image_url": "https://s3-media1.fl.yelpcdn.com/bphoto/Is_8bouWlhKnw0fshR8Elg/o.jpg", "is_closed": false, "url": "https://www.yelp.com/biz/churchs-chicken-commerce-city?adjust_creative=a2JdNtFqB-C38ga_06BHvw&utm_campaign=yelp_api_v3&utm_medium=api_v3_business_search&utm_source=a2JdNtFqB-C38ga_06BHvw", "review_count": 5, "categories": [{"alias": "hotdogs", "title": "Fast Food"}, {"alias": "chicken_wings", "title": "Chicken Wings"}], "rating": 2.0, "coordinates": {"latitude": 39.81344, "longitude": -104.90391}, "transactions": ["delivery", "pickup"], "price": "$", "location": {"address1": "7295 E 64th Ave", "address2": null, "address3": null, "city": "Commerce City", "zip_code": "80022", "country": "US", "state": "CO", "display_address": ["7295 E 64th Ave", "Commerce City, CO 80022"]}, "phone": "+13038530074", "display_phone": "(303) 853-0074", "distance": 1335.6178067002297}, {"id": "T0HbQ0Tnyit_5YbUqrDl3w", "alias": "burger-king-denver-44", "name": "Burger King", "image_url": "https://s3-media1.fl.yelpcdn.com/bphoto/W2GFoFNGpVTyt7bCMaqr6A/o.jpg", "is_closed": false, "url": "https://www.yelp.com/biz/burger-king-denver-44?adjust_creative=a2JdNtFqB-C38ga_06BHvw&utm_campaign=yelp_api_v3&utm_medium=api_v3_business_search&utm_source=a2JdNtFqB-C38ga_06BHvw", "review_count": 5, "categories": [{"alias": "burgers", "title": "Burgers"}, {"alias": "hotdogs", "title": "Fast Food"}], "rating": 1.5, "coordinates": {"latitude": 39.7899625984536, "longitude": -104.904196019345}, "transactions": [], "price": "$", "location": {"address1": "5101 Quebec St", "address2": null, "address3": null, "city": "Denver", "zip_code": "80022", "country": "US", "state": "CO", "display_address": ["5101 Quebec St", "Denver, CO 80022"]}, "phone": "+13037860123", "display_phone": "(303) 786-0123", "distance": 2025.348483352953}, {"id": "_KWpMevEc4fKiaejyi8CEg", "alias": "ta-truckstop-commerce-city", "name": "Ta Truckstop", "image_url": "https://s3-media4.fl.yelpcdn.com/bphoto/KDhpuyQa51ELK7hOkH17iA/o.jpg", "is_closed": false, "url": "https://www.yelp.com/biz/ta-truckstop-commerce-city?adjust_creative=a2JdNtFqB-C38ga_06BHvw&utm_campaign=yelp_api_v3&utm_medium=api_v3_business_search&utm_source=a2JdNtFqB-C38ga_06BHvw", "review_count": 8, "categories": [{"alias": "tradamerican", "title": "American (Traditional)"}, {"alias": "cafes", "title": "Cafes"}, {"alias": "hotelstravel", "title": "Hotels & Travel"}], "rating": 1.0, "coordinates": {"latitude": 39.7902450561523, "longitude": -104.904373168945}, "transactions": [], "price": "$$", "location": {"address1": "5101 Quebec St", "address2": "", "address3": "", "city": "Commerce City", "zip_code": "80022", "country": "US", "state": "CO", "display_address": ["5101 Quebec St", "Commerce City, CO 80022"]}, "phone": "+13032860123", "display_phone": "(303) 286-0123", "distance": 2006.4928001824958}, {"id": "3eWlJu_81Or4RcmUn1mRkA", "alias": "menuderia-y-taqueria-chihua-s-commerce-city", "name": "Menuderia Y Taqueria Chihuas", "image_url": "", "is_closed": false, "url": "https://www.yelp.com/biz/menuderia-y-taqueria-chihua-s-commerce-city?adjust_creative=a2JdNtFqB-C38ga_06BHvw&utm_campaign=yelp_api_v3&utm_medium=api_v3_business_search&utm_source=a2JdNtFqB-C38ga_06BHvw", "review_count": 1, "categories": [{"alias": "mexican", "title": "Mexican"}], "rating": 1.0, "coordinates": {"latitude": 39.8272849662731, "longitude": -104.916785707843}, "transactions": ["delivery"], "location": {"address1": "6185 E 72nd Ave", "address2": "", "address3": null, "city": "Commerce City", "zip_code": "80022", "country": "US", "state": "CO", "display_address": ["6185 E 72nd Ave", "Commerce City, CO 80022"]}, "phone": "+13032861980", "display_phone": "(303) 286-1980", "distance": 3235.7638195593763}, {"id": "eJPG774sxXyoEYvVOFANHg", "alias": "plant-b-denver-2", "name": "Plant B", "image_url": "https://s3-media2.fl.yelpcdn.com/bphoto/HUBQu6Vzll846aOMyfD6yg/o.jpg", "is_closed": false, "url": "https://www.yelp.com/biz/plant-b-denver-2?adjust_creative=a2JdNtFqB-C38ga_06BHvw&utm_campaign=yelp_api_v3&utm_medium=api_v3_business_search&utm_source=a2JdNtFqB-C38ga_06BHvw", "review_count": 1, "categories": [{"alias": "burgers", "title": "Burgers"}, {"alias": "vegetarian", "title": "Vegetarian"}, {"alias": "tradamerican", "title": "American (Traditional)"}], "rating": 1.0, "coordinates": {"latitude": 39.78172015417935, "longitude": -104.8915737}, "transactions": ["pickup", "delivery"], "location": {"address1": "8316 N Northfield Blvd", "address2": "Ste 1610", "address3": null, "city": "Denver", "zip_code": "80238", "country": "US", "state": "CO", "display_address": ["8316 N Northfield Blvd", "Ste 1610", "Denver, CO 80238"]}, "phone": "+13033534385", "display_phone": "(303) 353-4385", "distance": 2650.611004148932}, {"id": "Ch1qzhTfSnwOvAjUb6qyFw", "alias": "panda-express-denver-20", "name": "Panda Express", "image_url": "https://s3-media2.fl.yelpcdn.com/bphoto/512lih89cEqoq_0bzx95WA/o.jpg", "is_closed": false, "url": "https://www.yelp.com/biz/panda-express-denver-20?adjust_creative=a2JdNtFqB-C38ga_06BHvw&utm_campaign=yelp_api_v3&utm_medium=api_v3_business_search&utm_source=a2JdNtFqB-C38ga_06BHvw", "review_count": 1, "categories": [{"alias": "chinese", "title": "Chinese"}, {"alias": "hotdogs", "title": "Fast Food"}], "rating": 1.0, "coordinates": {"latitude": 39.798776, "longitude": -104.8821049}, "transactions": [], "location": {"address1": "5625 N. Beeler Street", "address2": null, "address3": null, "city": "Denver", "zip_code": "80238", "country": "US", "state": "CO", "display_address": ["5625 N. Beeler Street", "Denver, CO 80238"]}, "phone": "+17206738989", "display_phone": "(720) 673-8989", "distance": 1122.6959662745128}, {"id": "ww_QuPqBDeiXtOSqR4-I2A", "alias": "northeast-seafood-products-denver", "name": "Northeast Seafood Products", "image_url": "https://s3-media1.fl.yelpcdn.com/bphoto/y5bK9a2SMpqAl-23I1PXBQ/o.jpg", "is_closed": false, "url": "https://www.yelp.com/biz/northeast-seafood-products-denver?adjust_creative=a2JdNtFqB-C38ga_06BHvw&utm_campaign=yelp_api_v3&utm_medium=api_v3_business_search&utm_source=a2JdNtFqB-C38ga_06BHvw", "review_count": 1, "categories": [{"alias": "seafood", "title": "Seafood"}], "rating": 1.0, "coordinates": {"latitude": 39.7809257507324, "longitude": -104.859474182129}, "transactions": [], "location": {"address1": "4555 Kingston St", "address2": "", "address3": "", "city": "Denver", "zip_code": "80239", "country": "US", "state": "CO", "display_address": ["4555 Kingston St", "Denver, CO 80239"]}, "phone": "+13033732226", "display_phone": "(303) 373-2226", "distance": 3887.667747420021}], "absolute total": 65, "total": 65}