{"league": "MLS", "team": "FC Dallas", "stadium": "Toyota Stadium", "stadium latitude": 33.154444, "stadium longitude": -96.835278, "radius": "3000 meters", "city": "Frisco", "state": "Texas", "businesses": [{"id": "DtYMJeVbFgGXroWYUX5P4Q", "alias": "hutchins-bbq-frisco-11", "name": "Hutchins BBQ", "image_url": "https://s3-media2.fl.yelpcdn.com/bphoto/SZ4fbWdjTlE9UBoLFj6BiA/o.jpg", "is_closed": false, "url": "https://www.yelp.com/biz/hutchins-bbq-frisco-11?adjust_creative=a2JdNtFqB-C38ga_06BHvw&utm_campaign=yelp_api_v3&utm_medium=api_v3_business_search&utm_source=a2JdNtFqB-C38ga_06BHvw", "review_count": 1239, "categories": [{"alias": "bbq", "title": "Barbeque"}, {"alias": "desserts", "title": "Desserts"}], "rating": 4.5, "coordinates": {"latitude": 33.15463, "longitude": -96.80443}, "transactions": ["delivery"], "price": "$$", "location": {"address1": "9225 Preston Rd", "address2": "", "address3": "", "city": "Frisco", "zip_code": "75033", "country": "US", "state": "TX", "display_address": ["9225 Preston Rd", "Frisco, TX 75033"]}, "phone": "+19723772046", "display_phone": "(972) 377-2046", "distance": 2842.110368084306}, {"id": "S-rE8z1VykG4baImdX8OHg", "alias": "veggie-express-frisco", "name": "Veggie Express", "image_url": "https://s3-media2.fl.yelpcdn.com/bphoto/HweWYkAbTdTZ9dzUfSD14A/o.jpg", "is_closed": false, "url": "https://www.yelp.com/biz/veggie-express-frisco?adjust_creative=a2JdNtFqB-C38ga_06BHvw&utm_campaign=yelp_api_v3&utm_medium=api_v3_business_search&utm_source=a2JdNtFqB-C38ga_06BHvw", "review_count": 187, "categories": [{"alias": "buffets", "title": "Buffets"}, {"alias": "vegan", "title": "Vegan"}, {"alias": "chinese", "title": "Chinese"}], "rating": 4.5, "coordinates": {"latitude": 33.1405960372258, "longitude": -96.8124650700842}, "transactions": ["delivery"], "price": "$", "location": {"address1": "8200 Stonebrook Pkwy", "address2": "Ste 110", "address3": "", "city": "Frisco", "zip_code": "75034", "country": "US", "state": "TX", "display_address": ["8200 Stonebrook Pkwy", "Ste 110", "Frisco, TX 75034"]}, "phone": "+14698509335", "display_phone": "(469) 850-9335", "distance": 2623.3358669302224}, {"id": "xUzzt6pgTf0Sy01X-ge63w", "alias": "maple-street-biscuit-company-frisco-frisco-3", "name": "Maple Street Biscuit Company - Frisco", "image_url": "https://s3-media3.fl.yelpcdn.com/bphoto/TLUNSQW0qAPzECBKpbVBcA/o.jpg", "is_closed": false, "url": "https://www.yelp.com/biz/maple-street-biscuit-company-frisco-frisco-3?adjust_creative=a2JdNtFqB-C38ga_06BHvw&utm_campaign=yelp_api_v3&utm_medium=api_v3_business_search&utm_source=a2JdNtFqB-C38ga_06BHvw", "review_count": 255, "categories": [{"alias": "breakfast_brunch", "title": "Breakfast & Brunch"}, {"alias": "comfortfood", "title": "Comfort Food"}, {"alias": "southern", "title": "Southern"}], "rating": 4.5, "coordinates": {"latitude": 33.154358, "longitude": -96.861548}, "transactions": ["delivery"], "price": "$$", "location": {"address1": "3288 Main St", "address2": "Ste 111", "address3": null, "city": "Frisco", "zip_code": "75034", "country": "US", "state": "TX", "display_address": ["3288 Main St", "Ste 111", "Frisco, TX 75034"]}, "phone": "+14698035334", "display_phone": "(469) 803-5334", "distance": 2445.552628816196}, {"id": "-Y7lHLK6zVzpS74d92wTBQ", "alias": "frisco-diner-frisco", "name": "Frisco Diner", "image_url": "https://s3-media1.fl.yelpcdn.com/bphoto/onpGu_JavHFaWBClHrbS6g/o.jpg", "is_closed": false, "url": "https://www.yelp.com/biz/frisco-diner-frisco?adjust_creative=a2JdNtFqB-C38ga_06BHvw&utm_campaign=yelp_api_v3&utm_medium=api_v3_business_search&utm_source=a2JdNtFqB-C38ga_06BHvw", "review_count": 403, "categories": [{"alias": "breakfast_brunch", "title": "Breakfast & Brunch"}, {"alias": "diners", "title": "Diners"}, {"alias": "tradamerican", "title": "American (Traditional)"}], "rating": 4.5, "coordinates": {"latitude": 33.154656, "longitude": -96.839446}, "transactions": ["delivery"], "price": "$$", "location": {"address1": "9250 Dallas Pkwy", "address2": "Ste 160", "address3": "", "city": "Frisco", "zip_code": "75033", "country": "US", "state": "TX", "display_address": ["9250 Dallas Pkwy", "Ste 160", "Frisco, TX 75033"]}, "phone": "+12146180652", "display_phone": "(214) 618-0652", "distance": 388.7233576556755}, {"id": "WQbMbt_WwyUNxzg6QVzsEw", "alias": "momo-japanese-cuisine-frisco", "name": "MOMO Japanese Cuisine", "image_url": "https://s3-media2.fl.yelpcdn.com/bphoto/_l7Q3YJTPspfuN4HHpyT6g/o.jpg", "is_closed": false, "url": "https://www.yelp.com/biz/momo-japanese-cuisine-frisco?adjust_creative=a2JdNtFqB-C38ga_06BHvw&utm_campaign=yelp_api_v3&utm_medium=api_v3_business_search&utm_source=a2JdNtFqB-C38ga_06BHvw", "review_count": 199, "categories": [{"alias": "japanese", "title": "Japanese"}, {"alias": "asianfusion", "title": "Asian Fusion"}, {"alias": "sushi", "title": "Sushi Bars"}], "rating": 4.5, "coordinates": {"latitude": 33.154569, "longitude": -96.84989}, "transactions": ["delivery"], "price": "$$", "location": {"address1": "4350 Main St", "address2": "Ste 155", "address3": null, "city": "Frisco", "zip_code": "75033", "country": "US", "state": "TX", "display_address": ["4350 Main St", "Ste 155", "Frisco, TX 75033"]}, "phone": "+14698884594", "display_phone": "(469) 888-4594", "distance": 1360.6621652719855}, {"id": "isYi-iSEDl_GjEuW9Wml0g", "alias": "didi-s-downtown-frisco", "name": "Didiâ€™s Downtown", "image_url": "https://s3-media3.fl.yelpcdn.com/bphoto/1xs0d7voyJ7tlun3sReFxQ/o.jpg", "is_closed": false, "url": "https://www.yelp.com/biz/didi-s-downtown-frisco?adjust_creative=a2JdNtFqB-C38ga_06BHvw&utm_campaign=yelp_api_v3&utm_medium=api_v3_business_search&utm_source=a2JdNtFqB-C38ga_06BHvw", "review_count": 203, "categories": [{"alias": "cheesesteaks", "title": "Cheesesteaks"}, {"alias": "cocktailbars", "title": "Cocktail Bars"}, {"alias": "tradamerican", "title": "American (Traditional)"}], "rating": 4.5, "coordinates": {"latitude": 33.15032, "longitude": -96.82131}, "transactions": ["delivery", "pickup"], "price": "$$", "location": {"address1": "7210 Main St", "address2": "", "address3": null, "city": "Frisco", "zip_code": "75033", "country": "US", "state": "TX", "display_address": ["7210 Main St", "Frisco, TX 75033"]}, "phone": "+14698884020", "display_phone": "(469) 888-4020", "distance": 1374.8987224274995}, {"id": "92olaKGptfVZlLN75JDLPA", "alias": "wulf-burger-frisco", "name": "Wulf Burger", "image_url": "https://s3-media4.fl.yelpcdn.com/bphoto/geAHsGl2wqyTdV92dP1Z9g/o.jpg", "is_closed": false, "url": "https://www.yelp.com/biz/wulf-burger-frisco?adjust_creative=a2JdNtFqB-C38ga_06BHvw&utm_campaign=yelp_api_v3&utm_medium=api_v3_business_search&utm_source=a2JdNtFqB-C38ga_06BHvw", "review_count": 102, "categories": [{"alias": "burgers", "title": "Burgers"}, {"alias": "vegan", "title": "Vegan"}, {"alias": "chickenshop", "title": "Chicken Shop"}], "rating": 4.5, "coordinates": {"latitude": 33.154537, "longitude": -96.839417}, "transactions": ["delivery"], "location": {"address1": "9250 Dallas Pkwy", "address2": "Ste 134", "address3": "", "city": "Frisco", "zip_code": "75033", "country": "US", "state": "TX", "display_address": ["9250 Dallas Pkwy", "Ste 134", "Frisco, TX 75033"]}, "phone": "+14694284113", "display_phone": "(469) 428-4113", "distance": 389.4700122972866}, {"id": "PqxMYBUi_KMvN5PPHe4_GQ", "alias": "babes-chicken-dinner-house-frisco", "name": "Babe's Chicken Dinner House", "image_url": "https://s3-media3.fl.yelpcdn.com/bphoto/j-KZSuW_Ko9FcoFF-pRbWA/o.jpg", "is_closed": false, "url": "https://www.yelp.com/biz/babes-chicken-dinner-house-frisco?adjust_creative=a2JdNtFqB-C38ga_06BHvw&utm_campaign=yelp_api_v3&utm_medium=api_v3_business_search&utm_source=a2JdNtFqB-C38ga_06BHvw", "review_count": 863, "categories": [{"alias": "chickenshop", "title": "Chicken Shop"}], "rating": 4.0, "coordinates": {"latitude": 33.1489325002, "longitude": -96.8302623555}, "transactions": ["delivery"], "price": "$$", "location": {"address1": "6475 Page Rd", "address2": "", "address3": "", "city": "Frisco", "zip_code": "75034", "country": "US", "state": "TX", "display_address": ["6475 Page Rd", "Frisco, TX 75034"]}, "phone": "+12143879500", "display_phone": "(214) 387-9500", "distance": 770.4615136618003}, {"id": "Z3N__-JLDo1k0ukdH8Mm8g", "alias": "buddha-belly-sushi-frisco", "name": "Buddha Belly Sushi", "image_url": "https://s3-media2.fl.yelpcdn.com/bphoto/rtFjRLoOe40u7IgPCkoJCQ/o.jpg", "is_closed": false, "url": "https://www.yelp.com/biz/buddha-belly-sushi-frisco?adjust_creative=a2JdNtFqB-C38ga_06BHvw&utm_campaign=yelp_api_v3&utm_medium=api_v3_business_search&utm_source=a2JdNtFqB-C38ga_06BHvw", "review_count": 372, "categories": [{"alias": "asianfusion", "title": "Asian Fusion"}, {"alias": "sushi", "title": "Sushi Bars"}], "rating": 4.0, "coordinates": {"latitude": 33.15201, "longitude": -96.861415}, "transactions": ["delivery", "pickup"], "price": "$$", "location": {"address1": "3245 W Main St", "address2": "Ste 245", "address3": "", "city": "Frisco", "zip_code": "75034", "country": "US", "state": "TX", "display_address": ["3245 W Main St", "Ste 245", "Frisco, TX 75034"]}, "phone": "+14693628699", "display_phone": "(469) 362-8699", "distance": 2448.1913269535394}, {"id": "K7cmD8XdKgMZO0KDfsw8VA", "alias": "frisco-sushi-469-frisco", "name": "Frisco Sushi 469", "image_url": "https://s3-media1.fl.yelpcdn.com/bphoto/sqe_UJO5zrPu1AaM0-8RVQ/o.jpg", "is_closed": false, "url": "https://www.yelp.com/biz/frisco-sushi-469-frisco?adjust_creative=a2JdNtFqB-C38ga_06BHvw&utm_campaign=yelp_api_v3&utm_medium=api_v3_business_search&utm_source=a2JdNtFqB-C38ga_06BHvw", "review_count": 100, "categories": [{"alias": "japanese", "title": "Japanese"}, {"alias": "sushi", "title": "Sushi Bars"}, {"alias": "noodles", "title": "Noodles"}], "rating": 4.5, "coordinates": {"latitude": 33.1541, "longitude": -96.86175}, "transactions": ["delivery", "pickup"], "price": "$$", "location": {"address1": "3288 Main St", "address2": "Ste 107", "address3": null, "city": "Frisco", "zip_code": "75033", "country": "US", "state": "TX", "display_address": ["3288 Main St", "Ste 107", "Frisco, TX 75033"]}, "phone": "+14693629600", "display_phone": "(469) 362-9600", "distance": 2482.620669087774}, {"id": "hzfzGVfh6PJWHINkzOvDTw", "alias": "pizzeria-testa-frisco", "name": "Pizzeria Testa", "image_url": "https://s3-media4.fl.yelpcdn.com/bphoto/uYe3gULUwvQ3sDBZrQRN8w/o.jpg", "is_closed": false, "url": "https://www.yelp.com/biz/pizzeria-testa-frisco?adjust_creative=a2JdNtFqB-C38ga_06BHvw&utm_campaign=yelp_api_v3&utm_medium=api_v3_business_search&utm_source=a2JdNtFqB-C38ga_06BHvw", "review_count": 628, "categories": [{"alias": "italian", "title": "Italian"}, {"alias": "pizza", "title": "Pizza"}, {"alias": "venues", "title": "Venues & Event Spaces"}], "rating": 4.0, "coordinates": {"latitude": 33.1506123654249, "longitude": -96.8355732539673}, "transactions": ["delivery", "pickup"], "price": "$$", "location": {"address1": "8660 Church St", "address2": "", "address3": "", "city": "Frisco", "zip_code": "75034", "country": "US", "state": "TX", "display_address": ["8660 Church St", "Frisco, TX 75034"]}, "phone": "+14692008015", "display_phone": "(469) 200-8015", "distance": 426.9435547602045}, {"id": "JHwMwZu4oU9L0gCGHJ4caA", "alias": "rudys-kitchen-frisco-2", "name": "Rudy's Kitchen", "image_url": "https://s3-media2.fl.yelpcdn.com/bphoto/FYEKM_Qdii45-UHnHEiS4A/o.jpg", "is_closed": false, "url": "https://www.yelp.com/biz/rudys-kitchen-frisco-2?adjust_creative=a2JdNtFqB-C38ga_06BHvw&utm_campaign=yelp_api_v3&utm_medium=api_v3_business_search&utm_source=a2JdNtFqB-C38ga_06BHvw", "review_count": 90, "categories": [{"alias": "mexican", "title": "Mexican"}], "rating": 4.5, "coordinates": {"latitude": 33.149686, "longitude": -96.821197}, "transactions": ["delivery", "pickup"], "price": "$", "location": {"address1": "7227 Main St", "address2": null, "address3": "", "city": "Frisco", "zip_code": "75034", "country": "US", "state": "TX", "display_address": ["7227 Main St", "Frisco, TX 75034"]}, "phone": "+14693628707", "display_phone": "(469) 362-8707", "distance": 1373.2496365027432}, {"id": "DFg_NsqMZnBAfEbF4YQuWA", "alias": "rockin-taco-and-tex-mex-frisco", "name": "Rockin' Taco & Tex-Mex", "image_url": "https://s3-media1.fl.yelpcdn.com/bphoto/TtRjser03fIppejiUxYj4Q/o.jpg", "is_closed": false, "url": "https://www.yelp.com/biz/rockin-taco-and-tex-mex-frisco?adjust_creative=a2JdNtFqB-C38ga_06BHvw&utm_campaign=yelp_api_v3&utm_medium=api_v3_business_search&utm_source=a2JdNtFqB-C38ga_06BHvw", "review_count": 208, "categories": [{"alias": "tex-mex", "title": "Tex-Mex"}, {"alias": "tacos", "title": "Tacos"}], "rating": 4.5, "coordinates": {"latitude": 33.151035, "longitude": -96.825172}, "transactions": ["delivery", "pickup"], "price": "$", "location": {"address1": "6890 Main St", "address2": "", "address3": "Ste C & D", "city": "Frisco", "zip_code": "75033", "country": "US", "state": "TX", "display_address": ["6890 Main St", "Ste C & D", "Frisco, TX 75033"]}, "phone": "+14698884308", "display_phone": "(469) 888-4308", "distance": 1013.2977577533767}, {"id": "ZadjbWA7kQi34IdSJfScow", "alias": "kitchen-master-frisco", "name": "Kitchen Master", "image_url": "https://s3-media3.fl.yelpcdn.com/bphoto/YoqthuPWaG-QdpX7j9CUBA/o.jpg", "is_closed": false, "url": "https://www.yelp.com/biz/kitchen-master-frisco?adjust_creative=a2JdNtFqB-C38ga_06BHvw&utm_campaign=yelp_api_v3&utm_medium=api_v3_business_search&utm_source=a2JdNtFqB-C38ga_06BHvw", "review_count": 169, "categories": [{"alias": "chinese", "title": "Chinese"}, {"alias": "noodles", "title": "Noodles"}], "rating": 4.5, "coordinates": {"latitude": 33.15484908538643, "longitude": -96.80391294547053}, "transactions": [], "location": {"address1": "9285 Preston Rd", "address2": null, "address3": "", "city": "Frisco", "zip_code": "75033", "country": "US", "state": "TX", "display_address": ["9285 Preston Rd", "Frisco, TX 75033"]}, "phone": "+14693628001", "display_phone": "(469) 362-8001", "distance": 2920.1833611372804}, {"id": "QBhNEbSTqoRAQoCAh0gwAQ", "alias": "eddies-napolis-frisco-2", "name": "Eddie's Napolis", "image_url": "https://s3-media4.fl.yelpcdn.com/bphoto/XV0af8ByNaSLBuI_oh_51Q/o.jpg", "is_closed": false, "url": "https://www.yelp.com/biz/eddies-napolis-frisco-2?adjust_creative=a2JdNtFqB-C38ga_06BHvw&utm_campaign=yelp_api_v3&utm_medium=api_v3_business_search&utm_source=a2JdNtFqB-C38ga_06BHvw", "review_count": 546, "categories": [{"alias": "pizza", "title": "Pizza"}, {"alias": "italian", "title": "Italian"}, {"alias": "desserts", "title": "Desserts"}], "rating": 4.0, "coordinates": {"latitude": 33.1514217049899, "longitude": -96.863800622522}, "transactions": ["delivery", "pickup"], "price": "$$", "location": {"address1": "8822 Teel Pkwy", "address2": "Ste 410", "address3": "", "city": "Frisco", "zip_code": "75034", "country": "US", "state": "TX", "display_address": ["8822 Teel Pkwy", "Ste 410", "Frisco, TX 75034"]}, "phone": "+12144944455", "display_phone": "(214) 494-4455", "distance": 2676.462438564601}, {"id": "7GYhTL_ZGsl3upw0duHMFQ", "alias": "kona-reserve-coffee-frisco", "name": "Kona Reserve Coffee", "image_url": "https://s3-media1.fl.yelpcdn.com/bphoto/qMYPwNE80VmBDQwg-aIJoA/o.jpg", "is_closed": false, "url": "https://www.yelp.com/biz/kona-reserve-coffee-frisco?adjust_creative=a2JdNtFqB-C38ga_06BHvw&utm_campaign=yelp_api_v3&utm_medium=api_v3_business_search&utm_source=a2JdNtFqB-C38ga_06BHvw", "review_count": 65, "categories": [{"alias": "coffee", "title": "Coffee & Tea"}, {"alias": "breakfast_brunch", "title": "Breakfast & Brunch"}, {"alias": "sandwiches", "title": "Sandwiches"}], "rating": 4.5, "coordinates": {"latitude": 33.1301512310185, "longitude": -96.8250927329063}, "transactions": ["delivery"], "price": "$$", "location": {"address1": "6363 Dallas Pkwy", "address2": "Ste 201", "address3": "", "city": "Frisco", "zip_code": "75034", "country": "US", "state": "TX", "display_address": ["6363 Dallas Pkwy", "Ste 201", "Frisco, TX 75034"]}, "phone": "+14692005112", "display_phone": "(469) 200-5112", "distance": 2862.850930504904}, {"id": "GrTcRGrIPsPZ01wNfFXoTg", "alias": "ramen-wahta-frisco", "name": "Ramen Wahta", "image_url": "https://s3-media2.fl.yelpcdn.com/bphoto/dS1FLwyd7-7xt6wfZ8tnSg/o.jpg", "is_closed": false, "url": "https://www.yelp.com/biz/ramen-wahta-frisco?adjust_creative=a2JdNtFqB-C38ga_06BHvw&utm_campaign=yelp_api_v3&utm_medium=api_v3_business_search&utm_source=a2JdNtFqB-C38ga_06BHvw", "review_count": 69, "categories": [{"alias": "ramen", "title": "Ramen"}, {"alias": "izakaya", "title": "Izakaya"}], "rating": 4.5, "coordinates": {"latitude": 33.14896, "longitude": -96.80701}, "transactions": ["delivery", "pickup"], "price": "$$", "location": {"address1": "8745 Gary Burns Dr", "address2": "Ste 165", "address3": "", "city": "Frisco", "zip_code": "75034", "country": "US", "state": "TX", "display_address": ["8745 Gary Burns Dr", "Ste 165", "Frisco, TX 75034"]}, "phone": "+12144078118", "display_phone": "(214) 407-8118", "distance": 2701.243909961051}, {"id": "saVF1GAai9idAncGgH--Tg", "alias": "eight-11-frisco", "name": "Eight 11", "image_url": "https://s3-media2.fl.yelpcdn.com/bphoto/fDg4rbM-OYT0Y0tzFXbE2A/o.jpg", "is_closed": false, "url": "https://www.yelp.com/biz/eight-11-frisco?adjust_creative=a2JdNtFqB-C38ga_06BHvw&utm_campaign=yelp_api_v3&utm_medium=api_v3_business_search&utm_source=a2JdNtFqB-C38ga_06BHvw", "review_count": 327, "categories": [{"alias": "wine_bars", "title": "Wine Bars"}, {"alias": "beerbar", "title": "Beer Bar"}, {"alias": "newamerican", "title": "American (New)"}], "rating": 4.0, "coordinates": {"latitude": 33.1506059, "longitude": -96.822885}, "transactions": ["delivery", "pickup"], "price": "$$", "location": {"address1": "7080 Main St", "address2": "", "address3": "", "city": "Frisco", "zip_code": "75033", "country": "US", "state": "TX", "display_address": ["7080 Main St", "Frisco, TX 75033"]}, "phone": "+14698884037", "display_phone": "(469) 888-4037", "distance": 1230.1226550288761}, {"id": "3ZiOvwzcsN3eOm7glVxWpw", "alias": "zhao-star-china-bistro-frisco", "name": "Zhao Star China Bistro", "image_url": "https://s3-media2.fl.yelpcdn.com/bphoto/RXW_3Xh5sZflCz0Rpqkogw/o.jpg", "is_closed": false, "url": "https://www.yelp.com/biz/zhao-star-china-bistro-frisco?adjust_creative=a2JdNtFqB-C38ga_06BHvw&utm_campaign=yelp_api_v3&utm_medium=api_v3_business_search&utm_source=a2JdNtFqB-C38ga_06BHvw", "review_count": 66, "categories": [{"alias": "chinese", "title": "Chinese"}], "rating": 4.5, "coordinates": {"latitude": 33.129804338064, "longitude": -96.8251443186344}, "transactions": ["delivery"], "location": {"address1": "6363 Dallas Pkwy", "address2": "Ste 118", "address3": null, "city": "Frisco", "zip_code": "75034", "country": "US", "state": "TX", "display_address": ["6363 Dallas Pkwy", "Ste 118", "Frisco, TX 75034"]}, "phone": "+19729875258", "display_phone": "(972) 987-5258", "distance": 2897.7073910500562}, {"id": "os_9iQIiQ--eSFvNAIul0A", "alias": "kpop-burger-and-crab-king-frisco", "name": "Kpop Burger & Crab King", "image_url": "https://s3-media4.fl.yelpcdn.com/bphoto/GbupySmmQ3VgK7VoRW7Ykg/o.jpg", "is_closed": false, "url": "https://www.yelp.com/biz/kpop-burger-and-crab-king-frisco?adjust_creative=a2JdNtFqB-C38ga_06BHvw&utm_campaign=yelp_api_v3&utm_medium=api_v3_business_search&utm_source=a2JdNtFqB-C38ga_06BHvw", "review_count": 284, "categories": [{"alias": "burgers", "title": "Burgers"}, {"alias": "cajun", "title": "Cajun/Creole"}, {"alias": "seafood", "title": "Seafood"}], "rating": 4.0, "coordinates": {"latitude": 33.1529751, "longitude": -96.8681637}, "transactions": ["delivery", "pickup"], "price": "$$", "location": {"address1": "2575 Main St", "address2": "Ste 350", "address3": "", "city": "Frisco", "zip_code": "75034", "country": "US", "state": "TX", "display_address": ["2575 Main St", "Ste 350", "Frisco, TX 75034"]}, "phone": "+12144305170", "display_phone": "(214) 430-5170", "distance": 2970.5402146812894}, {"id": "A3HeeuhyfPJsM04YPzsY5w", "alias": "marianas-taco-shop-frisco", "name": "Marianas Taco Shop", "image_url": "https://s3-media4.fl.yelpcdn.com/bphoto/SohxaKIGE-CQRygoKurQEA/o.jpg", "is_closed": false, "url": "https://www.yelp.com/biz/marianas-taco-shop-frisco?adjust_creative=a2JdNtFqB-C38ga_06BHvw&utm_campaign=yelp_api_v3&utm_medium=api_v3_business_search&utm_source=a2JdNtFqB-C38ga_06BHvw", "review_count": 396, "categories": [{"alias": "mexican", "title": "Mexican"}], "rating": 4.0, "coordinates": {"latitude": 33.151359245193, "longitude": -96.8238664712737}, "transactions": ["delivery"], "price": "$", "location": {"address1": "8981 5th St", "address2": "", "address3": "", "city": "Frisco", "zip_code": "75034", "country": "US", "state": "TX", "display_address": ["8981 5th St", "Frisco, TX 75034"]}, "phone": "+12147059059", "display_phone": "(214) 705-9059", "distance": 1116.3459162876047}, {"id": "Qa7I32janQVsb_YLv13qTg", "alias": "super-chix-frisco", "name": "Super Chix", "image_url": "https://s3-media2.fl.yelpcdn.com/bphoto/7qmsnLHqXDRm0Nk7LJEPiA/o.jpg", "is_closed": false, "url": "https://www.yelp.com/biz/super-chix-frisco?adjust_creative=a2JdNtFqB-C38ga_06BHvw&utm_campaign=yelp_api_v3&utm_medium=api_v3_business_search&utm_source=a2JdNtFqB-C38ga_06BHvw", "review_count": 240, "categories": [{"alias": "hotdogs", "title": "Fast Food"}, {"alias": "chickenshop", "title": "Chicken Shop"}], "rating": 4.0, "coordinates": {"latitude": 33.1535372, "longitude": -96.8413137}, "transactions": ["pickup", "delivery"], "price": "$", "location": {"address1": "9169 Dallas Pkwy", "address2": "Ste 100", "address3": null, "city": "Frisco", "zip_code": "75034", "country": "US", "state": "TX", "display_address": ["9169 Dallas Pkwy", "Ste 100", "Frisco, TX 75034"]}, "phone": "+14698884145", "display_phone": "(469) 888-4145", "distance": 570.8552492177798}, {"id": "GYDttSQAaK62Lr5_70G3ng", "alias": "koto-hibachi-and-sushi-frisco", "name": "Koto Hibachi and Sushi", "image_url": "https://s3-media4.fl.yelpcdn.com/bphoto/pYXMZomvuZpPbV8zwLWFWA/o.jpg", "is_closed": false, "url": "https://www.yelp.com/biz/koto-hibachi-and-sushi-frisco?adjust_creative=a2JdNtFqB-C38ga_06BHvw&utm_campaign=yelp_api_v3&utm_medium=api_v3_business_search&utm_source=a2JdNtFqB-C38ga_06BHvw", "review_count": 35, "categories": [{"alias": "japanese", "title": "Japanese"}, {"alias": "sushi", "title": "Sushi Bars"}, {"alias": "steak", "title": "Steakhouses"}], "rating": 4.5, "coordinates": {"latitude": 33.127785, "longitude": -96.805743}, "transactions": ["pickup"], "location": {"address1": "5995 Preston Rd", "address2": "Ste 103", "address3": "", "city": "Frisco", "zip_code": "75034", "country": "US", "state": "TX", "display_address": ["5995 Preston Rd", "Ste 103", "Frisco, TX 75034"]}, "phone": "+14692005121", "display_phone": "(469) 200-5121", "distance": 4041.50180111668}, {"id": "dWLlfnYioMnLS1kNILhrvw", "alias": "the-depot-cafe-frisco", "name": "The Depot Cafe", "image_url": "https://s3-media3.fl.yelpcdn.com/bphoto/d_NcE-UkNiGcRd2HO_NMHQ/o.jpg", "is_closed": false, "url": "https://www.yelp.com/biz/the-depot-cafe-frisco?adjust_creative=a2JdNtFqB-C38ga_06BHvw&utm_campaign=yelp_api_v3&utm_medium=api_v3_business_search&utm_source=a2JdNtFqB-C38ga_06BHvw", "review_count": 147, "categories": [{"alias": "tradamerican", "title": "American (Traditional)"}, {"alias": "diners", "title": "Diners"}, {"alias": "cafes", "title": "Cafes"}], "rating": 4.0, "coordinates": {"latitude": 33.1507, "longitude": -96.8268}, "transactions": ["delivery"], "price": "$", "location": {"address1": "6733 W Main St", "address2": "", "address3": "", "city": "Frisco", "zip_code": "75034", "country": "US", "state": "TX", "display_address": ["6733 W Main St", "Frisco, TX 75034"]}, "phone": "+19723770707", "display_phone": "(972) 377-0707", "distance": 885.5714892288798}, {"id": "vMK7S4iMzOgi2aqrHVN9LQ", "alias": "saigon-box-frisco-2", "name": "Saigon Box", "image_url": "https://s3-media1.fl.yelpcdn.com/bphoto/IekN0aF0vgBzw0ykEY5EXQ/o.jpg", "is_closed": false, "url": "https://www.yelp.com/biz/saigon-box-frisco-2?adjust_creative=a2JdNtFqB-C38ga_06BHvw&utm_campaign=yelp_api_v3&utm_medium=api_v3_business_search&utm_source=a2JdNtFqB-C38ga_06BHvw", "review_count": 76, "categories": [{"alias": "vietnamese", "title": "Vietnamese"}, {"alias": "sandwiches", "title": "Sandwiches"}, {"alias": "coffee", "title": "Coffee & Tea"}], "rating": 4.5, "coordinates": {"latitude": 33.12962518103165, "longitude": -96.8254278}, "transactions": ["pickup", "delivery"], "location": {"address1": "6363 Dallas Pkwy", "address2": "Ste 106", "address3": "", "city": "Frisco", "zip_code": "75034", "country": "US", "state": "TX", "display_address": ["6363 Dallas Pkwy", "Ste 106", "Frisco, TX 75034"]}, "phone": "+12144942035", "display_phone": "(214) 494-2035", "distance": 2908.1196019517856}, {"id": "TvfnPWq0_KAqFepc0Eowrg", "alias": "crush-taco-frisco-2", "name": "Crush Taco", "image_url": "https://s3-media4.fl.yelpcdn.com/bphoto/kPceTb9YmtUvQvYevL45zQ/o.jpg", "is_closed": false, "url": "https://www.yelp.com/biz/crush-taco-frisco-2?adjust_creative=a2JdNtFqB-C38ga_06BHvw&utm_campaign=yelp_api_v3&utm_medium=api_v3_business_search&utm_source=a2JdNtFqB-C38ga_06BHvw", "review_count": 337, "categories": [{"alias": "tacos", "title": "Tacos"}], "rating": 4.0, "coordinates": {"latitude": 33.1724650665837, "longitude": -96.8404238040242}, "transactions": ["delivery"], "price": "$$", "location": {"address1": "11445 Dallas Pkwy", "address2": "Ste 230", "address3": null, "city": "Frisco", "zip_code": "75033", "country": "US", "state": "TX", "display_address": ["11445 Dallas Pkwy", "Ste 230", "Frisco, TX 75033"]}, "phone": "+14695794094", "display_phone": "(469) 579-4094", "distance": 2060.3003126560147}, {"id": "NzfzwOMbXstr8KgYtl230w", "alias": "jets-pizza-frisco", "name": "Jet's Pizza", "image_url": "https://s3-media2.fl.yelpcdn.com/bphoto/UPAEZoblDvZeMdtD2tySiA/o.jpg", "is_closed": false, "url": "https://www.yelp.com/biz/jets-pizza-frisco?adjust_creative=a2JdNtFqB-C38ga_06BHvw&utm_campaign=yelp_api_v3&utm_medium=api_v3_business_search&utm_source=a2JdNtFqB-C38ga_06BHvw", "review_count": 154, "categories": [{"alias": "pizza", "title": "Pizza"}], "rating": 4.0, "coordinates": {"latitude": 33.1379240247996, "longitude": -96.8061908306101}, "transactions": ["delivery"], "price": "$", "location": {"address1": "7151 Preston Rd", "address2": "Ste 331", "address3": "", "city": "Frisco", "zip_code": "75034", "country": "US", "state": "TX", "display_address": ["7151 Preston Rd", "Ste 331", "Frisco, TX 75034"]}, "phone": "+19723779700", "display_phone": "(972) 377-9700", "distance": 3272.2828897675527}, {"id": "W5xgQQBtYJnt75Da8c0ZKg", "alias": "5th-street-patio-cafe-frisco-3", "name": "5th Street Patio  Cafe", "image_url": "https://s3-media1.fl.yelpcdn.com/bphoto/Lx1PKUuioyHHtQEAKqMA2Q/o.jpg", "is_closed": false, "url": "https://www.yelp.com/biz/5th-street-patio-cafe-frisco-3?adjust_creative=a2JdNtFqB-C38ga_06BHvw&utm_campaign=yelp_api_v3&utm_medium=api_v3_business_search&utm_source=a2JdNtFqB-C38ga_06BHvw", "review_count": 659, "categories": [{"alias": "tradamerican", "title": "American (Traditional)"}, {"alias": "coffee", "title": "Coffee & Tea"}, {"alias": "breakfast_brunch", "title": "Breakfast & Brunch"}], "rating": 4.0, "coordinates": {"latitude": 33.14778, "longitude": -96.82495}, "transactions": ["delivery"], "price": "$", "location": {"address1": "8621 5th St", "address2": "", "address3": "", "city": "Frisco", "zip_code": "75034", "country": "US", "state": "TX", "display_address": ["8621 5th St", "Frisco, TX 75034"]}, "phone": "+19723773483", "display_phone": "(972) 377-3483", "distance": 1224.0883307616537}, {"id": "NXLO7IxmBkUMe2wBm2Jf1g", "alias": "salsa-tex-mex-frisco", "name": "Salsa Tex Mex", "image_url": "https://s3-media2.fl.yelpcdn.com/bphoto/DiT7PeUyDzO6CNbW73q2Ow/o.jpg", "is_closed": false, "url": "https://www.yelp.com/biz/salsa-tex-mex-frisco?adjust_creative=a2JdNtFqB-C38ga_06BHvw&utm_campaign=yelp_api_v3&utm_medium=api_v3_business_search&utm_source=a2JdNtFqB-C38ga_06BHvw", "review_count": 272, "categories": [{"alias": "tex-mex", "title": "Tex-Mex"}], "rating": 4.0, "coordinates": {"latitude": 33.152776, "longitude": -96.861408}, "transactions": ["delivery"], "price": "$$", "location": {"address1": "3245 W Main St", "address2": "Ste 201", "address3": "", "city": "Frisco", "zip_code": "75034", "country": "US", "state": "TX", "display_address": ["3245 W Main St", "Ste 201", "Frisco, TX 75034"]}, "phone": "+12147058500", "display_phone": "(214) 705-8500", "distance": 2439.583595178057}, {"id": "pbAZBIf0UDp3hyDztApznQ", "alias": "nerdvana-frisco-2", "name": "Nerdvana ", "image_url": "https://s3-media1.fl.yelpcdn.com/bphoto/G9vgMgwaQ0qMzre7KAyXNw/o.jpg", "is_closed": false, "url": "https://www.yelp.com/biz/nerdvana-frisco-2?adjust_creative=a2JdNtFqB-C38ga_06BHvw&utm_campaign=yelp_api_v3&utm_medium=api_v3_business_search&utm_source=a2JdNtFqB-C38ga_06BHvw", "review_count": 470, "categories": [{"alias": "newamerican", "title": "American (New)"}, {"alias": "beerbar", "title": "Beer Bar"}, {"alias": "cocktailbars", "title": "Cocktail Bars"}], "rating": 4.0, "coordinates": {"latitude": 33.152213, "longitude": -96.836955}, "transactions": ["pickup", "delivery"], "price": "$$", "location": {"address1": "5757 Main St", "address2": "Ste 112", "address3": null, "city": "Frisco", "zip_code": "75034", "country": "US", "state": "TX", "display_address": ["5757 Main St", "Ste 112", "Frisco, TX 75034"]}, "phone": "+12143089080", "display_phone": "(214) 308-9080", "distance": 293.1112857061715}, {"id": "-LTRytE898vpXoZI8KoRkw", "alias": "simply-thai-bistro-frisco", "name": "Simply Thai Bistro", "image_url": "https://s3-media3.fl.yelpcdn.com/bphoto/oy1p93l-0fn09thyXW_BFw/o.jpg", "is_closed": false, "url": "https://www.yelp.com/biz/simply-thai-bistro-frisco?adjust_creative=a2JdNtFqB-C38ga_06BHvw&utm_campaign=yelp_api_v3&utm_medium=api_v3_business_search&utm_source=a2JdNtFqB-C38ga_06BHvw", "review_count": 387, "categories": [{"alias": "thai", "title": "Thai"}], "rating": 4.0, "coordinates": {"latitude": 33.15112, "longitude": -96.82566}, "transactions": ["pickup", "delivery"], "price": "$$", "location": {"address1": "6842 Main St", "address2": "Ste 101", "address3": "", "city": "Frisco", "zip_code": "75033", "country": "US", "state": "TX", "display_address": ["6842 Main St", "Ste 101", "Frisco, TX 75033"]}, "phone": "+12144364411", "display_phone": "(214) 436-4411", "distance": 953.1579434153388}, {"id": "7TkYToFcsYjIJ1aYq4tZCw", "alias": "haystack-burgers-and-barley-frisco", "name": "Haystack Burgers and Barley", "image_url": "https://s3-media3.fl.yelpcdn.com/bphoto/3T77v-HBUMQRoHcgKC3csQ/o.jpg", "is_closed": false, "url": "https://www.yelp.com/biz/haystack-burgers-and-barley-frisco?adjust_creative=a2JdNtFqB-C38ga_06BHvw&utm_campaign=yelp_api_v3&utm_medium=api_v3_business_search&utm_source=a2JdNtFqB-C38ga_06BHvw", "review_count": 130, "categories": [{"alias": "burgers", "title": "Burgers"}, {"alias": "salad", "title": "Salad"}, {"alias": "sandwiches", "title": "Sandwiches"}], "rating": 4.0, "coordinates": {"latitude": 33.150952, "longitude": -96.827218}, "transactions": ["delivery"], "price": "$$", "location": {"address1": "6705 Main St", "address2": null, "address3": "", "city": "Frisco", "zip_code": "75034", "country": "US", "state": "TX", "display_address": ["6705 Main St", "Frisco, TX 75034"]}, "phone": "+19727043861", "display_phone": "(972) 704-3861", "distance": 844.8540625355411}, {"id": "rdTDtfC1T70Z4lBPP9NoJQ", "alias": "kolache-factory-frisco", "name": "Kolache Factory", "image_url": "https://s3-media3.fl.yelpcdn.com/bphoto/h6crIiX7kOxY3VqpHyVmIw/o.jpg", "is_closed": false, "url": "https://www.yelp.com/biz/kolache-factory-frisco?adjust_creative=a2JdNtFqB-C38ga_06BHvw&utm_campaign=yelp_api_v3&utm_medium=api_v3_business_search&utm_source=a2JdNtFqB-C38ga_06BHvw", "review_count": 85, "categories": [{"alias": "breakfast_brunch", "title": "Breakfast & Brunch"}, {"alias": "bakeries", "title": "Bakeries"}, {"alias": "coffee", "title": "Coffee & Tea"}], "rating": 4.0, "coordinates": {"latitude": 33.1277847290039, "longitude": -96.8057250976562}, "transactions": ["pickup", "delivery"], "price": "$", "location": {"address1": "5995 Preston Rd", "address2": "", "address3": "", "city": "Frisco", "zip_code": "75034", "country": "US", "state": "TX", "display_address": ["5995 Preston Rd", "Frisco, TX 75034"]}, "phone": "+12143870001", "display_phone": "(214) 387-0001", "distance": 4041.50180111668}, {"id": "XpyrGWMGtmTuucT-5LTy5Q", "alias": "thai-green-village-frisco-2", "name": "Thai Green Village", "image_url": "https://s3-media2.fl.yelpcdn.com/bphoto/TgFE5ts9VHkJBQDiMEXOxQ/o.jpg", "is_closed": false, "url": "https://www.yelp.com/biz/thai-green-village-frisco-2?adjust_creative=a2JdNtFqB-C38ga_06BHvw&utm_campaign=yelp_api_v3&utm_medium=api_v3_business_search&utm_source=a2JdNtFqB-C38ga_06BHvw", "review_count": 507, "categories": [{"alias": "thai", "title": "Thai"}], "rating": 3.5, "coordinates": {"latitude": 33.137315, "longitude": -96.806032}, "transactions": ["pickup"], "price": "$$", "location": {"address1": "7151 Preston Rd", "address2": "Ste 201", "address3": "", "city": "Frisco", "zip_code": "75034", "country": "US", "state": "TX", "display_address": ["7151 Preston Rd", "Ste 201", "Frisco, TX 75034"]}, "phone": "+12147059228", "display_phone": "(214) 705-9228", "distance": 3322.88680326714}, {"id": "Q1uNE4_H_Lczy7hMg8WZhA", "alias": "the-heritage-table-frisco", "name": "The Heritage Table", "image_url": "https://s3-media1.fl.yelpcdn.com/bphoto/lwZqA19qKESRlIBlQdecJQ/o.jpg", "is_closed": false, "url": "https://www.yelp.com/biz/the-heritage-table-frisco?adjust_creative=a2JdNtFqB-C38ga_06BHvw&utm_campaign=yelp_api_v3&utm_medium=api_v3_business_search&utm_source=a2JdNtFqB-C38ga_06BHvw", "review_count": 260, "categories": [{"alias": "tradamerican", "title": "American (Traditional)"}, {"alias": "beer_and_wine", "title": "Beer, Wine & Spirits"}, {"alias": "cocktailbars", "title": "Cocktail Bars"}], "rating": 4.0, "coordinates": {"latitude": 33.150545, "longitude": -96.822425}, "transactions": ["delivery"], "price": "$$", "location": {"address1": "7110 Main St", "address2": "", "address3": "", "city": "Frisco", "zip_code": "75033", "country": "US", "state": "TX", "display_address": ["7110 Main St", "Frisco, TX 75033"]}, "phone": "+14696640100", "display_phone": "(469) 664-0100", "distance": 1264.1550673599033}, {"id": "TTjP3BiTwjjUajqQZcU8KQ", "alias": "shoji-sushi-and-hibachi-frisco", "name": "Shoji Sushi & Hibachi", "image_url": "https://s3-media3.fl.yelpcdn.com/bphoto/3q3WQ19a5ZjxnrnrB9ev2w/o.jpg", "is_closed": false, "url": "https://www.yelp.com/biz/shoji-sushi-and-hibachi-frisco?adjust_creative=a2JdNtFqB-C38ga_06BHvw&utm_campaign=yelp_api_v3&utm_medium=api_v3_business_search&utm_source=a2JdNtFqB-C38ga_06BHvw", "review_count": 158, "categories": [{"alias": "japanese", "title": "Japanese"}, {"alias": "sushi", "title": "Sushi Bars"}], "rating": 4.0, "coordinates": {"latitude": 33.1518567039996, "longitude": -96.8666972543838}, "transactions": ["pickup", "delivery"], "price": "$$", "location": {"address1": "2575 W Main St", "address2": "Ste 340", "address3": "", "city": "Frisco", "zip_code": "75034", "country": "US", "state": "TX", "display_address": ["2575 W Main St", "Ste 340", "Frisco, TX 75034"]}, "phone": "+12147057777", "display_phone": "(214) 705-7777", "distance": 2939.046024414002}, {"id": "Xiy3ZAXgkZDcbDNQ-hVihA", "alias": "sake-toro-frisco-3", "name": "Sake Toro", "image_url": "https://s3-media3.fl.yelpcdn.com/bphoto/f1hYVM1f3_4RsQ7ulwti9Q/o.jpg", "is_closed": false, "url": "https://www.yelp.com/biz/sake-toro-frisco-3?adjust_creative=a2JdNtFqB-C38ga_06BHvw&utm_campaign=yelp_api_v3&utm_medium=api_v3_business_search&utm_source=a2JdNtFqB-C38ga_06BHvw", "review_count": 275, "categories": [{"alias": "sushi", "title": "Sushi Bars"}], "rating": 3.5, "coordinates": {"latitude": 33.1515275106407, "longitude": -96.8349976467132}, "transactions": ["delivery"], "price": "$$", "location": {"address1": "8801 Coleman Blvd", "address2": "", "address3": "", "city": "Frisco", "zip_code": "75034", "country": "US", "state": "TX", "display_address": ["8801 Coleman Blvd", "Frisco, TX 75034"]}, "phone": "+12148722831", "display_phone": "(214) 872-2831", "distance": 325.3469793554381}, {"id": "DVz7Re9iXefYKLByYMj5WA", "alias": "chitos-authentic-mexican-restaurant-frisco", "name": "Chitos Authentic Mexican Restaurant", "image_url": "https://s3-media2.fl.yelpcdn.com/bphoto/cPNpQ2PsskTukjHopZJ6iQ/o.jpg", "is_closed": false, "url": "https://www.yelp.com/biz/chitos-authentic-mexican-restaurant-frisco?adjust_creative=a2JdNtFqB-C38ga_06BHvw&utm_campaign=yelp_api_v3&utm_medium=api_v3_business_search&utm_source=a2JdNtFqB-C38ga_06BHvw", "review_count": 281, "categories": [{"alias": "mexican", "title": "Mexican"}], "rating": 3.5, "coordinates": {"latitude": 33.15262, "longitude": -96.83441}, "transactions": ["pickup", "delivery"], "price": "$$", "location": {"address1": "6129 Main St", "address2": "", "address3": "", "city": "Frisco", "zip_code": "75034", "country": "US", "state": "TX", "display_address": ["6129 Main St", "Frisco, TX 75034"]}, "phone": "+14699807056", "display_phone": "(469) 980-7056", "distance": 214.34544433892455}, {"id": "IAh1XtMoJUYgURQeVusZ8Q", "alias": "randys-steakhouse-frisco", "name": "Randy's Steakhouse", "image_url": "https://s3-media1.fl.yelpcdn.com/bphoto/KJx1EbnZtdbesi54HbYhZA/o.jpg", "is_closed": false, "url": "https://www.yelp.com/biz/randys-steakhouse-frisco?adjust_creative=a2JdNtFqB-C38ga_06BHvw&utm_campaign=yelp_api_v3&utm_medium=api_v3_business_search&utm_source=a2JdNtFqB-C38ga_06BHvw", "review_count": 288, "categories": [{"alias": "steak", "title": "Steakhouses"}, {"alias": "tradamerican", "title": "American (Traditional)"}], "rating": 3.5, "coordinates": {"latitude": 33.150714, "longitude": -96.823458}, "transactions": ["delivery"], "price": "$$$", "location": {"address1": "7026 Main St", "address2": "", "address3": "", "city": "Frisco", "zip_code": "75033", "country": "US", "state": "TX", "display_address": ["7026 Main St", "Frisco, TX 75033"]}, "phone": "+19723353066", "display_phone": "(972) 335-3066", "distance": 1175.9442455793956}, {"id": "M-sJbSejtpJxrd4jgbQjFQ", "alias": "lemma-coffee-co-frisco-4", "name": "Lemma Coffee Co", "image_url": "https://s3-media2.fl.yelpcdn.com/bphoto/_Lt--dXc4GWI7Aj1ehIYNA/o.jpg", "is_closed": false, "url": "https://www.yelp.com/biz/lemma-coffee-co-frisco-4?adjust_creative=a2JdNtFqB-C38ga_06BHvw&utm_campaign=yelp_api_v3&utm_medium=api_v3_business_search&utm_source=a2JdNtFqB-C38ga_06BHvw", "review_count": 18, "categories": [{"alias": "coffee", "title": "Coffee & Tea"}, {"alias": "breakfast_brunch", "title": "Breakfast & Brunch"}, {"alias": "acaibowls", "title": "Acai Bowls"}], "rating": 4.5, "coordinates": {"latitude": 33.15451, "longitude": -96.83942}, "transactions": [], "location": {"address1": "9250 Dallas Pkwy", "address2": "Ste 150", "address3": "", "city": "Frisco", "zip_code": "75034", "country": "US", "state": "TX", "display_address": ["9250 Dallas Pkwy", "Ste 150", "Frisco, TX 75034"]}, "phone": "+14692940007", "display_phone": "(469) 294-0007", "distance": 389.4700122972866}, {"id": "J6-PwOfRohS4gGriZciTVw", "alias": "la-suprema-market-frisco", "name": "La Suprema Market", "image_url": "https://s3-media2.fl.yelpcdn.com/bphoto/Lfg5n3B3K24UGDNJ36Rrmg/o.jpg", "is_closed": false, "url": "https://www.yelp.com/biz/la-suprema-market-frisco?adjust_creative=a2JdNtFqB-C38ga_06BHvw&utm_campaign=yelp_api_v3&utm_medium=api_v3_business_search&utm_source=a2JdNtFqB-C38ga_06BHvw", "review_count": 27, "categories": [{"alias": "intlgrocery", "title": "International Grocery"}, {"alias": "mexican", "title": "Mexican"}, {"alias": "mediterranean", "title": "Mediterranean"}], "rating": 4.5, "coordinates": {"latitude": 33.151254, "longitude": -96.82714}, "transactions": ["delivery"], "price": "$", "location": {"address1": "6726 Main St", "address2": "Ste 100", "address3": "", "city": "Frisco", "zip_code": "75033", "country": "US", "state": "TX", "display_address": ["6726 Main St", "Ste 100", "Frisco, TX 75033"]}, "phone": "+14692940072", "display_phone": "(469) 294-0072", "distance": 836.5257778415913}, {"id": "AKMIIvW8JDuDOjRzaN4ntw", "alias": "golden-pot-frisco", "name": "Golden Pot", "image_url": "https://s3-media2.fl.yelpcdn.com/bphoto/-9HyXRUoIbnTHO7yLMUTJw/o.jpg", "is_closed": false, "url": "https://www.yelp.com/biz/golden-pot-frisco?adjust_creative=a2JdNtFqB-C38ga_06BHvw&utm_campaign=yelp_api_v3&utm_medium=api_v3_business_search&utm_source=a2JdNtFqB-C38ga_06BHvw", "review_count": 81, "categories": [{"alias": "chinese", "title": "Chinese"}], "rating": 4.0, "coordinates": {"latitude": 33.1521903671436, "longitude": -96.8615858629346}, "transactions": ["pickup", "delivery"], "price": "$", "location": {"address1": "3245 Main St", "address2": "Ste 221", "address3": null, "city": "Frisco", "zip_code": "75034", "country": "US", "state": "TX", "display_address": ["3245 Main St", "Ste 221", "Frisco, TX 75034"]}, "phone": "+12147050388", "display_phone": "(214) 705-0388", "distance": 2461.8759355067027}, {"id": "cEIkirpGljclPdTXg-mHgQ", "alias": "rudys-country-store-and-bar-b-q-frisco-3", "name": "Rudy's \"Country Store\" and Bar-B-Q", "image_url": "https://s3-media3.fl.yelpcdn.com/bphoto/M49Bx8MV13FzV4OjfBAlQw/o.jpg", "is_closed": false, "url": "https://www.yelp.com/biz/rudys-country-store-and-bar-b-q-frisco-3?adjust_creative=a2JdNtFqB-C38ga_06BHvw&utm_campaign=yelp_api_v3&utm_medium=api_v3_business_search&utm_source=a2JdNtFqB-C38ga_06BHvw", "review_count": 413, "categories": [{"alias": "bbq", "title": "Barbeque"}], "rating": 3.5, "coordinates": {"latitude": 33.159809, "longitude": -96.8392503}, "transactions": ["delivery"], "price": "$$", "location": {"address1": "9828 Dallas Pkwy", "address2": "", "address3": "", "city": "Frisco", "zip_code": "75034", "country": "US", "state": "TX", "display_address": ["9828 Dallas Pkwy", "Frisco, TX 75034"]}, "phone": "+19727127839", "display_phone": "(972) 712-7839", "distance": 701.8692442729723}, {"id": "kyEoPMpwBVXs01xrNvQPfA", "alias": "hikari-sushi-and-grill-japanese-restaurant-frisco", "name": "Hikari Sushi & Grill Japanese Restaurant", "image_url": "https://s3-media2.fl.yelpcdn.com/bphoto/jgTd65oAoAFOgZFHzmqFJA/o.jpg", "is_closed": false, "url": "https://www.yelp.com/biz/hikari-sushi-and-grill-japanese-restaurant-frisco?adjust_creative=a2JdNtFqB-C38ga_06BHvw&utm_campaign=yelp_api_v3&utm_medium=api_v3_business_search&utm_source=a2JdNtFqB-C38ga_06BHvw", "review_count": 195, "categories": [{"alias": "sushi", "title": "Sushi Bars"}, {"alias": "japanese", "title": "Japanese"}, {"alias": "asianfusion", "title": "Asian Fusion"}], "rating": 3.5, "coordinates": {"latitude": 33.1532048081679, "longitude": -96.83955560098156}, "transactions": ["pickup", "delivery"], "price": "$$", "location": {"address1": "5454 Main St", "address2": "Ste 150", "address3": "", "city": "Frisco", "zip_code": "75033", "country": "US", "state": "TX", "display_address": ["5454 Main St", "Ste 150", "Frisco, TX 75033"]}, "phone": "+12146180035", "display_phone": "(214) 618-0035", "distance": 421.37999815247684}, {"id": "zTwNymkfEtDL2KrG5F_zKA", "alias": "aiya-frisco-2", "name": "Aiya", "image_url": "https://s3-media4.fl.yelpcdn.com/bphoto/t0tURfcFcmlUoR0OqXoMvQ/o.jpg", "is_closed": false, "url": "https://www.yelp.com/biz/aiya-frisco-2?adjust_creative=a2JdNtFqB-C38ga_06BHvw&utm_campaign=yelp_api_v3&utm_medium=api_v3_business_search&utm_source=a2JdNtFqB-C38ga_06BHvw", "review_count": 324, "categories": [{"alias": "chinese", "title": "Chinese"}, {"alias": "asianfusion", "title": "Asian Fusion"}], "rating": 3.5, "coordinates": {"latitude": 33.15344, "longitude": -96.80387}, "transactions": ["pickup", "delivery"], "price": "$$", "location": {"address1": "9101 Preston Rd", "address2": "", "address3": "", "city": "Frisco", "zip_code": "75034", "country": "US", "state": "TX", "display_address": ["9101 Preston Rd", "Frisco, TX 75034"]}, "phone": "+12147056688", "display_phone": "(214) 705-6688", "distance": 2929.230875339289}, {"id": "vxq-VIQENYOVtM1q3Oqhhg", "alias": "rotolos-craft-and-crust-frisco-2", "name": "Rotolo's Craft & Crust", "image_url": "https://s3-media3.fl.yelpcdn.com/bphoto/DNkt3uBtwPhDR3kMPPjlqQ/o.jpg", "is_closed": false, "url": "https://www.yelp.com/biz/rotolos-craft-and-crust-frisco-2?adjust_creative=a2JdNtFqB-C38ga_06BHvw&utm_campaign=yelp_api_v3&utm_medium=api_v3_business_search&utm_source=a2JdNtFqB-C38ga_06BHvw", "review_count": 142, "categories": [{"alias": "italian", "title": "Italian"}, {"alias": "pizza", "title": "Pizza"}, {"alias": "beerbar", "title": "Beer Bar"}], "rating": 3.5, "coordinates": {"latitude": 33.154622, "longitude": -96.839477}, "transactions": ["delivery"], "price": "$$", "location": {"address1": "9250 N Dallas Pkwy", "address2": "Ste 130", "address3": "", "city": "Frisco", "zip_code": "75033", "country": "US", "state": "TX", "display_address": ["9250 N Dallas Pkwy", "Ste 130", "Frisco, TX 75033"]}, "phone": "+19726686567", "display_phone": "(972) 668-6567", "distance": 391.3946286665743}, {"id": "pdh_lSQmWok-ziY-_zSPEg", "alias": "54th-street-restaurant-and-drafthouse-frisco", "name": "54th Street Restaurant & Drafthouse", "image_url": "https://s3-media1.fl.yelpcdn.com/bphoto/-B7ZIlnBAcBeHVj1jMUTrQ/o.jpg", "is_closed": false, "url": "https://www.yelp.com/biz/54th-street-restaurant-and-drafthouse-frisco?adjust_creative=a2JdNtFqB-C38ga_06BHvw&utm_campaign=yelp_api_v3&utm_medium=api_v3_business_search&utm_source=a2JdNtFqB-C38ga_06BHvw", "review_count": 311, "categories": [{"alias": "bars", "title": "Bars"}, {"alias": "tradamerican", "title": "American (Traditional)"}, {"alias": "burgers", "title": "Burgers"}], "rating": 3.5, "coordinates": {"latitude": 33.1561341, "longitude": -96.8411403}, "transactions": ["delivery"], "price": "$$", "location": {"address1": "9449 Dallas Pkwy", "address2": "", "address3": null, "city": "Frisco", "zip_code": "75033", "country": "US", "state": "TX", "display_address": ["9449 Dallas Pkwy", "Frisco, TX 75033"]}, "phone": "+12143870284", "display_phone": "(214) 387-0284", "distance": 577.1813143045545}, {"id": "VJFWCA-_YFp6L9ilderheA", "alias": "best-thai-frisco", "name": "Best Thai", "image_url": "https://s3-media2.fl.yelpcdn.com/bphoto/vRJ4KmlOqyzgAPIpeJCuJA/o.jpg", "is_closed": false, "url": "https://www.yelp.com/biz/best-thai-frisco?adjust_creative=a2JdNtFqB-C38ga_06BHvw&utm_campaign=yelp_api_v3&utm_medium=api_v3_business_search&utm_source=a2JdNtFqB-C38ga_06BHvw", "review_count": 285, "categories": [{"alias": "thai", "title": "Thai"}], "rating": 3.5, "coordinates": {"latitude": 33.15222, "longitude": -96.8351799}, "transactions": ["pickup", "delivery"], "price": "$$", "location": {"address1": "8897 Coleman Blvd", "address2": "", "address3": "", "city": "Frisco", "zip_code": "75034", "country": "US", "state": "TX", "display_address": ["8897 Coleman Blvd", "Frisco, TX 75034"]}, "phone": "+19723770170", "display_phone": "(972) 377-0170", "distance": 247.7229371130514}, {"id": "k8SflrjlIUxSf1UxU3Dyxg", "alias": "chick-fil-a-frisco-6", "name": "Chick-fil-A", "image_url": "https://s3-media1.fl.yelpcdn.com/bphoto/FxIYoWmwtLwlNJIrZQp2pA/o.jpg", "is_closed": false, "url": "https://www.yelp.com/biz/chick-fil-a-frisco-6?adjust_creative=a2JdNtFqB-C38ga_06BHvw&utm_campaign=yelp_api_v3&utm_medium=api_v3_business_search&utm_source=a2JdNtFqB-C38ga_06BHvw", "review_count": 33, "categories": [{"alias": "hotdogs", "title": "Fast Food"}], "rating": 4.0, "coordinates": {"latitude": 33.149233, "longitude": -96.8051742}, "transactions": ["delivery"], "price": "$", "location": {"address1": "8875 Preston Rd", "address2": null, "address3": null, "city": "Frisco", "zip_code": "75034", "country": "US", "state": "TX", "display_address": ["8875 Preston Rd", "Frisco, TX 75034"]}, "phone": "+12144365418", "display_phone": "(214) 436-5418", "distance": 2861.7870332395983}, {"id": "-IyQj3-fwnQwK4yR-F5aCw", "alias": "sushi-go-frisco", "name": "Sushi Go", "image_url": "https://s3-media2.fl.yelpcdn.com/bphoto/lEfrRMhKl0k3YKEQ1zoXqA/o.jpg", "is_closed": false, "url": "https://www.yelp.com/biz/sushi-go-frisco?adjust_creative=a2JdNtFqB-C38ga_06BHvw&utm_campaign=yelp_api_v3&utm_medium=api_v3_business_search&utm_source=a2JdNtFqB-C38ga_06BHvw", "review_count": 65, "categories": [{"alias": "sushi", "title": "Sushi Bars"}], "rating": 4.0, "coordinates": {"latitude": 33.1517677307129, "longitude": -96.8652496337891}, "transactions": ["pickup", "delivery"], "price": "$$", "location": {"address1": "8811 Teel Pkwy", "address2": "Ste 130", "address3": null, "city": "Frisco", "zip_code": "75034", "country": "US", "state": "TX", "display_address": ["8811 Teel Pkwy", "Ste 130", "Frisco, TX 75034"]}, "phone": "+14692940858", "display_phone": "(469) 294-0858", "distance": 2812.28835250008}, {"id": "kUTLx_nG_tZq5mxHV20jMA", "alias": "slim-chickens-frisco", "name": "Slim Chickens", "image_url": "https://s3-media4.fl.yelpcdn.com/bphoto/amryV8OKgaN4CK_7dBT_gA/o.jpg", "is_closed": false, "url": "https://www.yelp.com/biz/slim-chickens-frisco?adjust_creative=a2JdNtFqB-C38ga_06BHvw&utm_campaign=yelp_api_v3&utm_medium=api_v3_business_search&utm_source=a2JdNtFqB-C38ga_06BHvw", "review_count": 117, "categories": [{"alias": "southern", "title": "Southern"}, {"alias": "chicken_wings", "title": "Chicken Wings"}, {"alias": "comfortfood", "title": "Comfort Food"}], "rating": 3.5, "coordinates": {"latitude": 33.1589801200439, "longitude": -96.8392916465906}, "transactions": ["delivery"], "price": "$", "location": {"address1": "9770 Dallas Pkwy", "address2": "", "address3": null, "city": "Frisco", "zip_code": "75034", "country": "US", "state": "TX", "display_address": ["9770 Dallas Pkwy", "Frisco, TX 75034"]}, "phone": "+12146180377", "display_phone": "(214) 618-0377", "distance": 627.7032521896948}, {"id": "8F-LNn0pl3SVLYeFceVM5g", "alias": "pho-que-huong-noodle-and-grill-frisco", "name": "Pho Que Huong - Noodle & Grill", "image_url": "https://s3-media4.fl.yelpcdn.com/bphoto/C-hp3qv9KDbZ3yLZmzKYSQ/o.jpg", "is_closed": false, "url": "https://www.yelp.com/biz/pho-que-huong-noodle-and-grill-frisco?adjust_creative=a2JdNtFqB-C38ga_06BHvw&utm_campaign=yelp_api_v3&utm_medium=api_v3_business_search&utm_source=a2JdNtFqB-C38ga_06BHvw", "review_count": 194, "categories": [{"alias": "vietnamese", "title": "Vietnamese"}, {"alias": "noodles", "title": "Noodles"}], "rating": 3.5, "coordinates": {"latitude": 33.1757818, "longitude": -96.8421414}, "transactions": ["pickup", "delivery"], "price": "$", "location": {"address1": "5110 Eldorado Pkwy", "address2": "Ste 200", "address3": "", "city": "Frisco", "zip_code": "75033", "country": "US", "state": "TX", "display_address": ["5110 Eldorado Pkwy", "Ste 200", "Frisco, TX 75033"]}, "phone": "+19722945168", "display_phone": "(972) 294-5168", "distance": 2457.1550460529975}, {"id": "-ptKXpBnXnb0_2q6-z3M7A", "alias": "china-wok-frisco", "name": "China Wok", "image_url": "https://s3-media4.fl.yelpcdn.com/bphoto/phD1gHjPrDX49wepJyBV5A/o.jpg", "is_closed": false, "url": "https://www.yelp.com/biz/china-wok-frisco?adjust_creative=a2JdNtFqB-C38ga_06BHvw&utm_campaign=yelp_api_v3&utm_medium=api_v3_business_search&utm_source=a2JdNtFqB-C38ga_06BHvw", "review_count": 123, "categories": [{"alias": "chinese", "title": "Chinese"}], "rating": 3.5, "coordinates": {"latitude": 33.1348114013672, "longitude": -96.8047943115234}, "transactions": ["pickup", "delivery"], "price": "$", "location": {"address1": "6803 Preston Rd", "address2": "", "address3": "Unit No 112", "city": "Frisco", "zip_code": "75034", "country": "US", "state": "TX", "display_address": ["6803 Preston Rd", "Unit No 112", "Frisco, TX 75034"]}, "phone": "+12147051199", "display_phone": "(214) 705-1199", "distance": 3575.9794997952285}, {"id": "orsc-l0O4p17u0-E41moxg", "alias": "chris-s-speciality-foods-frisco", "name": "Chrisâ€™s Speciality Foods", "image_url": "https://s3-media1.fl.yelpcdn.com/bphoto/r6RSkEotSqHwcCevtDnOdA/o.jpg", "is_closed": false, "url": "https://www.yelp.com/biz/chris-s-speciality-foods-frisco?adjust_creative=a2JdNtFqB-C38ga_06BHvw&utm_campaign=yelp_api_v3&utm_medium=api_v3_business_search&utm_source=a2JdNtFqB-C38ga_06BHvw", "review_count": 17, "categories": [{"alias": "cajun", "title": "Cajun/Creole"}, {"alias": "meats", "title": "Meat Shops"}], "rating": 4.5, "coordinates": {"latitude": 33.129566947695, "longitude": -96.8257391697864}, "transactions": [], "location": {"address1": "6363 Dallas Pkwy", "address2": "Ste 110", "address3": null, "city": "Frisco", "zip_code": "75034", "country": "US", "state": "TX", "display_address": ["6363 Dallas Pkwy", "Ste 110", "Frisco, TX 75034"]}, "phone": "+12143082800", "display_phone": "(214) 308-2800", "distance": 2905.272456827276}, {"id": "BjTP0NhxjO3Z69-uDwjlIw", "alias": "jersey-mikes-subs-frisco-2", "name": "Jersey Mike's Subs", "image_url": "https://s3-media1.fl.yelpcdn.com/bphoto/JKbq5OUyd0iu_r0jwxrYJw/o.jpg", "is_closed": false, "url": "https://www.yelp.com/biz/jersey-mikes-subs-frisco-2?adjust_creative=a2JdNtFqB-C38ga_06BHvw&utm_campaign=yelp_api_v3&utm_medium=api_v3_business_search&utm_source=a2JdNtFqB-C38ga_06BHvw", "review_count": 47, "categories": [{"alias": "sandwiches", "title": "Sandwiches"}, {"alias": "hotdogs", "title": "Fast Food"}, {"alias": "delis", "title": "Delis"}], "rating": 4.0, "coordinates": {"latitude": 33.175693, "longitude": -96.841917}, "transactions": ["pickup", "delivery"], "price": "$", "location": {"address1": "5110 El Dorado Parkway450", "address2": "", "address3": "", "city": "Frisco", "zip_code": "75033", "country": "US", "state": "TX", "display_address": ["5110 El Dorado Parkway450", "Frisco, TX 75033"]}, "phone": "+19726686003", "display_phone": "(972) 668-6003", "distance": 2442.2533952017056}, {"id": "It5tdF9-kQpnxMOaNMsatA", "alias": "rockfish-seafood-and-grill-frisco-frisco", "name": "Rockfish Seafood and Grill - Frisco", "image_url": "https://s3-media2.fl.yelpcdn.com/bphoto/h3Fm0LcYBjvUWH6TjbeMZA/o.jpg", "is_closed": false, "url": "https://www.yelp.com/biz/rockfish-seafood-and-grill-frisco-frisco?adjust_creative=a2JdNtFqB-C38ga_06BHvw&utm_campaign=yelp_api_v3&utm_medium=api_v3_business_search&utm_source=a2JdNtFqB-C38ga_06BHvw", "review_count": 153, "categories": [{"alias": "seafood", "title": "Seafood"}, {"alias": "cajun", "title": "Cajun/Creole"}, {"alias": "cocktailbars", "title": "Cocktail Bars"}], "rating": 3.5, "coordinates": {"latitude": 33.15441239472143, "longitude": -96.8411542436554}, "transactions": ["pickup", "delivery"], "price": "$$", "location": {"address1": "9179 Dallas Pkwy", "address2": "Ste 170", "address3": "", "city": "Frisco", "zip_code": "75034", "country": "US", "state": "TX", "display_address": ["9179 Dallas Pkwy", "Ste 170", "Frisco, TX 75034"]}, "phone": "+14692878793", "display_phone": "(469) 287-8793", "distance": 547.04398116545}, {"id": "wpvggwrUd-roXvIr1lSGRA", "alias": "laynes-chicken-fingers-frisco-2", "name": "Layne's Chicken Fingers", "image_url": "https://s3-media1.fl.yelpcdn.com/bphoto/KpG5craQ0fKAzGhL_-3bwg/o.jpg", "is_closed": false, "url": "https://www.yelp.com/biz/laynes-chicken-fingers-frisco-2?adjust_creative=a2JdNtFqB-C38ga_06BHvw&utm_campaign=yelp_api_v3&utm_medium=api_v3_business_search&utm_source=a2JdNtFqB-C38ga_06BHvw", "review_count": 65, "categories": [{"alias": "chickenshop", "title": "Chicken Shop"}, {"alias": "hotdogs", "title": "Fast Food"}], "rating": 4.0, "coordinates": {"latitude": 33.17327, "longitude": -96.83861}, "transactions": ["pickup", "delivery"], "price": "$", "location": {"address1": "11440 Dallas Pkwy", "address2": null, "address3": "", "city": "Frisco", "zip_code": "75034", "country": "US", "state": "TX", "display_address": ["11440 Dallas Pkwy", "Frisco, TX 75034"]}, "phone": "+14692946638", "display_phone": "(469) 294-6638", "distance": 2121.896613055907}, {"id": "P4Nk4Kyd4lcLuGuTDavmIQ", "alias": "jakes-burgers-and-beer-frisco-2", "name": "Jakes Burgers and Beer", "image_url": "https://s3-media1.fl.yelpcdn.com/bphoto/cVDrI10XQ11TpkR4SAFL7g/o.jpg", "is_closed": false, "url": "https://www.yelp.com/biz/jakes-burgers-and-beer-frisco-2?adjust_creative=a2JdNtFqB-C38ga_06BHvw&utm_campaign=yelp_api_v3&utm_medium=api_v3_business_search&utm_source=a2JdNtFqB-C38ga_06BHvw", "review_count": 469, "categories": [{"alias": "bars", "title": "Bars"}, {"alias": "burgers", "title": "Burgers"}, {"alias": "tradamerican", "title": "American (Traditional)"}], "rating": 3.5, "coordinates": {"latitude": 33.1526802808786, "longitude": -96.8341262711639}, "transactions": ["pickup", "delivery"], "price": "$$", "location": {"address1": "6195 West Main St", "address2": "", "address3": "", "city": "Frisco", "zip_code": "75034", "country": "US", "state": "TX", "display_address": ["6195 West Main St", "Frisco, TX 75034"]}, "phone": "+12147051770", "display_phone": "(214) 705-1770", "distance": 223.51142878725975}, {"id": "2_TeolyUZPOZzo6kYrxyng", "alias": "blue-goose-cantina-frisco-2", "name": "Blue Goose Cantina", "image_url": "https://s3-media2.fl.yelpcdn.com/bphoto/VWdo3smKV_uGHe0geqwsXg/o.jpg", "is_closed": false, "url": "https://www.yelp.com/biz/blue-goose-cantina-frisco-2?adjust_creative=a2JdNtFqB-C38ga_06BHvw&utm_campaign=yelp_api_v3&utm_medium=api_v3_business_search&utm_source=a2JdNtFqB-C38ga_06BHvw", "review_count": 247, "categories": [{"alias": "mexican", "title": "Mexican"}], "rating": 3.5, "coordinates": {"latitude": 33.155517, "longitude": -96.83942}, "transactions": ["delivery", "pickup"], "price": "$$", "location": {"address1": "9320 Dallas Pkwy", "address2": "Ste 140", "address3": "", "city": "Frisco", "zip_code": "75033", "country": "US", "state": "TX", "display_address": ["9320 Dallas Pkwy", "Ste 140", "Frisco, TX 75033"]}, "phone": "+19726689604", "display_phone": "(972) 668-9604", "distance": 403.6231428477077}, {"id": "X-Q7PtcWTYvGDfOfA-QjjA", "alias": "mooyah-burgers-fries-and-shakes-frisco", "name": "MOOYAH Burgers, Fries & Shakes", "image_url": "https://s3-media3.fl.yelpcdn.com/bphoto/fDrsRXpFJekgkBnIOHCUJQ/o.jpg", "is_closed": false, "url": "https://www.yelp.com/biz/mooyah-burgers-fries-and-shakes-frisco?adjust_creative=a2JdNtFqB-C38ga_06BHvw&utm_campaign=yelp_api_v3&utm_medium=api_v3_business_search&utm_source=a2JdNtFqB-C38ga_06BHvw", "review_count": 71, "categories": [{"alias": "burgers", "title": "Burgers"}, {"alias": "icecream", "title": "Ice Cream & Frozen Yogurt"}, {"alias": "hotdog", "title": "Hot Dogs"}], "rating": 3.5, "coordinates": {"latitude": 33.1542516679656, "longitude": -96.8434100318169}, "transactions": ["pickup", "delivery"], "price": "$", "location": {"address1": "5170 W Main St", "address2": "Ste 600", "address3": "", "city": "Frisco", "zip_code": "75034", "country": "US", "state": "TX", "display_address": ["5170 W Main St", "Ste 600", "Frisco, TX 75034"]}, "phone": "+14695453240", "display_phone": "(469) 545-3240", "distance": 757.3317868737928}, {"id": "bqdjUIwYVlg8T00hzAgU3Q", "alias": "cristinas-fine-mexican-restaurant-frisco-2", "name": "Cristina's Fine Mexican Restaurant", "image_url": "https://s3-media4.fl.yelpcdn.com/bphoto/JEwEhhnS656dmhJHmQnuHg/o.jpg", "is_closed": false, "url": "https://www.yelp.com/biz/cristinas-fine-mexican-restaurant-frisco-2?adjust_creative=a2JdNtFqB-C38ga_06BHvw&utm_campaign=yelp_api_v3&utm_medium=api_v3_business_search&utm_source=a2JdNtFqB-C38ga_06BHvw", "review_count": 129, "categories": [{"alias": "mexican", "title": "Mexican"}, {"alias": "tex-mex", "title": "Tex-Mex"}], "rating": 3.5, "coordinates": {"latitude": 33.1749669263671, "longitude": -96.8430576370279}, "transactions": ["delivery", "pickup"], "price": "$$", "location": {"address1": "5105 Eldorado Pkwy", "address2": "Ste 120", "address3": null, "city": "Frisco", "zip_code": "75034", "country": "US", "state": "TX", "display_address": ["5105 Eldorado Pkwy", "Ste 120", "Frisco, TX 75034"]}, "phone": "+14693628177", "display_phone": "(469) 362-8177", "distance": 2320.283803999632}, {"id": "-o0BRJ9KapCBiZkyMWSEvg", "alias": "pie-five-pizza-co-frisco", "name": "Pie Five Pizza Co", "image_url": "https://s3-media3.fl.yelpcdn.com/bphoto/feYSTvYcfORsSMKRIghJvw/o.jpg", "is_closed": false, "url": "https://www.yelp.com/biz/pie-five-pizza-co-frisco?adjust_creative=a2JdNtFqB-C38ga_06BHvw&utm_campaign=yelp_api_v3&utm_medium=api_v3_business_search&utm_source=a2JdNtFqB-C38ga_06BHvw", "review_count": 158, "categories": [{"alias": "pizza", "title": "Pizza"}, {"alias": "salad", "title": "Salad"}, {"alias": "gluten_free", "title": "Gluten-Free"}], "rating": 3.5, "coordinates": {"latitude": 33.153331, "longitude": -96.842176}, "transactions": ["delivery", "pickup"], "price": "$$", "location": {"address1": "5110 W Main St", "address2": "", "address3": "", "city": "Frisco", "zip_code": "75034", "country": "US", "state": "TX", "display_address": ["5110 W Main St", "Frisco, TX 75034"]}, "phone": "+12147056335", "display_phone": "(214) 705-6335", "distance": 653.9713748845402}, {"id": "_9OEYhv5CTbczJG9w9romw", "alias": "ernestos-fine-mexican-food-frisco", "name": "Ernesto's Fine Mexican Food", "image_url": "https://s3-media4.fl.yelpcdn.com/bphoto/gEfCqZh5JmfQrE2AHL6OMw/o.jpg", "is_closed": false, "url": "https://www.yelp.com/biz/ernestos-fine-mexican-food-frisco?adjust_creative=a2JdNtFqB-C38ga_06BHvw&utm_campaign=yelp_api_v3&utm_medium=api_v3_business_search&utm_source=a2JdNtFqB-C38ga_06BHvw", "review_count": 147, "categories": [{"alias": "tex-mex", "title": "Tex-Mex"}, {"alias": "mexican", "title": "Mexican"}], "rating": 3.5, "coordinates": {"latitude": 33.1493058445637, "longitude": -96.8069770932197}, "transactions": ["delivery"], "price": "$$", "location": {"address1": "8745 Gary Burns Dr", "address2": "Ste 170", "address3": "", "city": "Frisco", "zip_code": "75034", "country": "US", "state": "TX", "display_address": ["8745 Gary Burns Dr", "Ste 170", "Frisco, TX 75034"]}, "phone": "+12144944545", "display_phone": "(214) 494-4545", "distance": 2695.9078411016176}, {"id": "aB5bP5VAL7wpd5YyYV-HxQ", "alias": "marys-mediterranean-cafe-and-grill-frisco", "name": "Mary's Mediterranean Cafe and Grill", "image_url": "https://s3-media1.fl.yelpcdn.com/bphoto/tCWjOoV5wpW-OTSPGLLc1w/o.jpg", "is_closed": false, "url": "https://www.yelp.com/biz/marys-mediterranean-cafe-and-grill-frisco?adjust_creative=a2JdNtFqB-C38ga_06BHvw&utm_campaign=yelp_api_v3&utm_medium=api_v3_business_search&utm_source=a2JdNtFqB-C38ga_06BHvw", "review_count": 173, "categories": [{"alias": "mediterranean", "title": "Mediterranean"}, {"alias": "vegan", "title": "Vegan"}, {"alias": "vegetarian", "title": "Vegetarian"}], "rating": 3.5, "coordinates": {"latitude": 33.1759240052467, "longitude": -96.8434708938002}, "transactions": ["delivery", "pickup"], "price": "$$", "location": {"address1": "4950 Eldorado Pkwy", "address2": "Ste 100", "address3": "", "city": "Frisco", "zip_code": "75034", "country": "US", "state": "TX", "display_address": ["4950 Eldorado Pkwy", "Ste 100", "Frisco, TX 75034"]}, "phone": "+12147053303", "display_phone": "(214) 705-3303", "distance": 2507.254592620075}, {"id": "Dc0OAK0h0D-gNu6Low17zA", "alias": "rosita-s-tex-mex-and-cantina-frisco", "name": "Rositaâ€™s Tex-Mex  & Cantina", "image_url": "https://s3-media2.fl.yelpcdn.com/bphoto/PWBA2A3Np8KXgcQPo0A1VQ/o.jpg", "is_closed": false, "url": "https://www.yelp.com/biz/rosita-s-tex-mex-and-cantina-frisco?adjust_creative=a2JdNtFqB-C38ga_06BHvw&utm_campaign=yelp_api_v3&utm_medium=api_v3_business_search&utm_source=a2JdNtFqB-C38ga_06BHvw", "review_count": 31, "categories": [{"alias": "tex-mex", "title": "Tex-Mex"}, {"alias": "breakfast_brunch", "title": "Breakfast & Brunch"}, {"alias": "beerbar", "title": "Beer Bar"}], "rating": 4.0, "coordinates": {"latitude": 33.1384772793921, "longitude": -96.8062282278972}, "transactions": ["delivery", "pickup"], "location": {"address1": "7151 Preston Rd", "address2": "Ste 451 D", "address3": null, "city": "Frisco", "zip_code": "75034", "country": "US", "state": "TX", "display_address": ["7151 Preston Rd", "Ste 451 D", "Frisco, TX 75034"]}, "phone": "+14692940077", "display_phone": "(469) 294-0077", "distance": 3235.2303769615687}, {"id": "AV3KH4HwFDbgFRdVsSygMQ", "alias": "vakeroz-frisco", "name": "Vakeroz", "image_url": "https://s3-media2.fl.yelpcdn.com/bphoto/wRatLXNJ3U9dSzorSwbk0Q/o.jpg", "is_closed": false, "url": "https://www.yelp.com/biz/vakeroz-frisco?adjust_creative=a2JdNtFqB-C38ga_06BHvw&utm_campaign=yelp_api_v3&utm_medium=api_v3_business_search&utm_source=a2JdNtFqB-C38ga_06BHvw", "review_count": 137, "categories": [{"alias": "mexican", "title": "Mexican"}, {"alias": "desserts", "title": "Desserts"}, {"alias": "seafood", "title": "Seafood"}], "rating": 3.5, "coordinates": {"latitude": 33.179842, "longitude": -96.866559}, "transactions": [], "price": "$$", "location": {"address1": "12255 Teel Pkwy", "address2": "Ste 460", "address3": null, "city": "Frisco", "zip_code": "75033", "country": "US", "state": "TX", "display_address": ["12255 Teel Pkwy", "Ste 460", "Frisco, TX 75033"]}, "phone": "+14699807898", "display_phone": "(469) 980-7898", "distance": 4056.239326433768}, {"id": "ETA-JSx9f5wjDqWFKoOPIA", "alias": "the-green-gator-frisco", "name": "The Green Gator", "image_url": "https://s3-media3.fl.yelpcdn.com/bphoto/1ee0X1tvM7gXCCXCm57wNA/o.jpg", "is_closed": false, "url": "https://www.yelp.com/biz/the-green-gator-frisco?adjust_creative=a2JdNtFqB-C38ga_06BHvw&utm_campaign=yelp_api_v3&utm_medium=api_v3_business_search&utm_source=a2JdNtFqB-C38ga_06BHvw", "review_count": 166, "categories": [{"alias": "cajun", "title": "Cajun/Creole"}, {"alias": "tradamerican", "title": "American (Traditional)"}, {"alias": "sportsbars", "title": "Sports Bars"}], "rating": 3.0, "coordinates": {"latitude": 33.153277, "longitude": -96.838834}, "transactions": ["pickup"], "price": "$$", "location": {"address1": "5566 Main St", "address2": "Ste 110", "address3": null, "city": "Frisco", "zip_code": "75034", "country": "US", "state": "TX", "display_address": ["5566 Main St", "Ste 110", "Frisco, TX 75034"]}, "phone": "+12146182334", "display_phone": "(214) 618-2334", "distance": 362.3546481902013}, {"id": "28BwwPQHZQUk_T-bifn_NQ", "alias": "scotty-ps-hamburgers-frisco-3", "name": "Scotty P's Hamburgers", "image_url": "https://s3-media1.fl.yelpcdn.com/bphoto/yWZ0jKi0aNbHj0MkjRolLw/o.jpg", "is_closed": false, "url": "https://www.yelp.com/biz/scotty-ps-hamburgers-frisco-3?adjust_creative=a2JdNtFqB-C38ga_06BHvw&utm_campaign=yelp_api_v3&utm_medium=api_v3_business_search&utm_source=a2JdNtFqB-C38ga_06BHvw", "review_count": 153, "categories": [{"alias": "burgers", "title": "Burgers"}], "rating": 3.0, "coordinates": {"latitude": 33.177398, "longitude": -96.841232}, "transactions": ["delivery"], "price": "$$", "location": {"address1": "5110 Eldorado Pkwy", "address2": "", "address3": "", "city": "Frisco", "zip_code": "75034", "country": "US", "state": "TX", "display_address": ["5110 Eldorado Pkwy", "Frisco, TX 75034"]}, "phone": "+19723777070", "display_phone": "(972) 377-7070", "distance": 2455.0094127559037}, {"id": "yarRK_CyQjiA7TlezTHb6Q", "alias": "snookered-billiards-and-bar-frisco-2", "name": "Snookered Billiards & Bar", "image_url": "https://s3-media3.fl.yelpcdn.com/bphoto/WSiTL80KDBGI6KMkNc3Apg/o.jpg", "is_closed": false, "url": "https://www.yelp.com/biz/snookered-billiards-and-bar-frisco-2?adjust_creative=a2JdNtFqB-C38ga_06BHvw&utm_campaign=yelp_api_v3&utm_medium=api_v3_business_search&utm_source=a2JdNtFqB-C38ga_06BHvw", "review_count": 30, "categories": [{"alias": "poolhalls", "title": "Pool Halls"}, {"alias": "sportsbars", "title": "Sports Bars"}, {"alias": "tradamerican", "title": "American (Traditional)"}], "rating": 4.0, "coordinates": {"latitude": 33.15723, "longitude": -96.8393}, "transactions": [], "location": {"address1": "9550 Dallas Pkwy", "address2": "", "address3": null, "city": "Frisco", "zip_code": "75034", "country": "US", "state": "TX", "display_address": ["9550 Dallas Pkwy", "Frisco, TX 75034"]}, "phone": "+19722126187", "display_phone": "(972) 212-6187", "distance": 490.77294413997896}, {"id": "BzUMAbGLTppRzIG-fbSOOg", "alias": "chick-fil-a-frisco-2", "name": "Chick-fil-A", "image_url": "https://s3-media3.fl.yelpcdn.com/bphoto/0k4jR7EpQcsTmAfKtl5wZg/o.jpg", "is_closed": false, "url": "https://www.yelp.com/biz/chick-fil-a-frisco-2?adjust_creative=a2JdNtFqB-C38ga_06BHvw&utm_campaign=yelp_api_v3&utm_medium=api_v3_business_search&utm_source=a2JdNtFqB-C38ga_06BHvw", "review_count": 102, "categories": [{"alias": "hotdogs", "title": "Fast Food"}], "rating": 3.5, "coordinates": {"latitude": 33.1744582, "longitude": -96.8411861}, "transactions": [], "price": "$", "location": {"address1": "5211 Eldorado Pkwy", "address2": null, "address3": null, "city": "Frisco", "zip_code": "75033", "country": "US", "state": "TX", "display_address": ["5211 Eldorado Pkwy", "Frisco, TX 75033"]}, "phone": "+12143879887", "display_phone": "(214) 387-9887", "distance": 2292.415335637189}, {"id": "03O8XMlMfBYx8sGx38U90Q", "alias": "taco-shack-frisco", "name": "Taco Shack", "image_url": "https://s3-media3.fl.yelpcdn.com/bphoto/VeC73BSq--0YD8BDV0pbQw/o.jpg", "is_closed": false, "url": "https://www.yelp.com/biz/taco-shack-frisco?adjust_creative=a2JdNtFqB-C38ga_06BHvw&utm_campaign=yelp_api_v3&utm_medium=api_v3_business_search&utm_source=a2JdNtFqB-C38ga_06BHvw", "review_count": 62, "categories": [{"alias": "tacos", "title": "Tacos"}, {"alias": "tex-mex", "title": "Tex-Mex"}, {"alias": "breakfast_brunch", "title": "Breakfast & Brunch"}], "rating": 3.5, "coordinates": {"latitude": 33.14665, "longitude": -96.80527}, "transactions": ["delivery"], "location": {"address1": "8333 Preston Rd", "address2": null, "address3": "", "city": "Frisco", "zip_code": "75034", "country": "US", "state": "TX", "display_address": ["8333 Preston Rd", "Frisco, TX 75034"]}, "phone": "+12144942233", "display_phone": "(214) 494-2233", "distance": 2927.324282170165}, {"id": "GhZKg8l_CFZzU6y6pcIxUg", "alias": "palios-pizza-cafe-frisco-6", "name": "Palio's Pizza Cafe", "image_url": "https://s3-media3.fl.yelpcdn.com/bphoto/wNseqe-djl3J17hBN3r-gQ/o.jpg", "is_closed": false, "url": "https://www.yelp.com/biz/palios-pizza-cafe-frisco-6?adjust_creative=a2JdNtFqB-C38ga_06BHvw&utm_campaign=yelp_api_v3&utm_medium=api_v3_business_search&utm_source=a2JdNtFqB-C38ga_06BHvw", "review_count": 49, "categories": [{"alias": "pizza", "title": "Pizza"}, {"alias": "italian", "title": "Italian"}], "rating": 3.5, "coordinates": {"latitude": 33.1484557179358, "longitude": -96.8052679618415}, "transactions": ["delivery", "pickup"], "price": "$", "location": {"address1": "8755 Preston Rd", "address2": "", "address3": "", "city": "Frisco", "zip_code": "75034", "country": "US", "state": "TX", "display_address": ["8755 Preston Rd", "Frisco, TX 75034"]}, "phone": "+14693625591", "display_phone": "(469) 362-5591", "distance": 2872.0509343990207}, {"id": "Y8R6dBxCTuUapbaCscnJiQ", "alias": "cowboy-chicken-frisco-4", "name": "Cowboy Chicken", "image_url": "https://s3-media2.fl.yelpcdn.com/bphoto/95QxUEaX4PliJZIXPpDioA/o.jpg", "is_closed": false, "url": "https://www.yelp.com/biz/cowboy-chicken-frisco-4?adjust_creative=a2JdNtFqB-C38ga_06BHvw&utm_campaign=yelp_api_v3&utm_medium=api_v3_business_search&utm_source=a2JdNtFqB-C38ga_06BHvw", "review_count": 91, "categories": [{"alias": "southern", "title": "Southern"}, {"alias": "chickenshop", "title": "Chicken Shop"}, {"alias": "tradamerican", "title": "American (Traditional)"}], "rating": 3.5, "coordinates": {"latitude": 33.15347, "longitude": -96.84399}, "transactions": ["delivery", "pickup"], "price": "$$", "location": {"address1": "4984 Main St", "address2": "", "address3": "", "city": "Frisco", "zip_code": "75033", "country": "US", "state": "TX", "display_address": ["4984 Main St", "Frisco, TX 75033"]}, "phone": "+14693628002", "display_phone": "(469) 362-8002", "distance": 813.8469470008068}, {"id": "VsQdpn2_KxXOBtj_cbLfCg", "alias": "yummy-thai-frisco-frisco", "name": "YUMMY THAI Frisco", "image_url": "https://s3-media4.fl.yelpcdn.com/bphoto/vsgU6TVdax3FnrAPKhZGBg/o.jpg", "is_closed": false, "url": "https://www.yelp.com/biz/yummy-thai-frisco-frisco?adjust_creative=a2JdNtFqB-C38ga_06BHvw&utm_campaign=yelp_api_v3&utm_medium=api_v3_business_search&utm_source=a2JdNtFqB-C38ga_06BHvw", "review_count": 69, "categories": [{"alias": "thai", "title": "Thai"}, {"alias": "vietnamese", "title": "Vietnamese"}, {"alias": "vegetarian", "title": "Vegetarian"}], "rating": 3.5, "coordinates": {"latitude": 33.178021, "longitude": -96.840426}, "transactions": ["delivery", "pickup"], "price": "$$", "location": {"address1": "12005 Dallas Pkwy", "address2": "Ste 300", "address3": null, "city": "Frisco", "zip_code": "75034", "country": "US", "state": "TX", "display_address": ["12005 Dallas Pkwy", "Ste 300", "Frisco, TX 75034"]}, "phone": "+14693881270", "display_phone": "(469) 388-1270", "distance": 2665.071049626567}, {"id": "SxgZPDwoNHmQeqdFA2adaQ", "alias": "snappy-salads-frisco-2", "name": "Snappy Salads", "image_url": "https://s3-media4.fl.yelpcdn.com/bphoto/VFdONu4TOGMoE6fW3mRITw/o.jpg", "is_closed": false, "url": "https://www.yelp.com/biz/snappy-salads-frisco-2?adjust_creative=a2JdNtFqB-C38ga_06BHvw&utm_campaign=yelp_api_v3&utm_medium=api_v3_business_search&utm_source=a2JdNtFqB-C38ga_06BHvw", "review_count": 80, "categories": [{"alias": "salad", "title": "Salad"}, {"alias": "wraps", "title": "Wraps"}, {"alias": "desserts", "title": "Desserts"}], "rating": 3.5, "coordinates": {"latitude": 33.153214, "longitude": -96.841319}, "transactions": ["delivery"], "price": "$$", "location": {"address1": "5252 Main St", "address2": "Ste 100", "address3": null, "city": "Frisco", "zip_code": "75034", "country": "US", "state": "TX", "display_address": ["5252 Main St", "Ste 100", "Frisco, TX 75034"]}, "phone": "+19725767627", "display_phone": "(972) 576-7627", "distance": 578.7663797439393}, {"id": "qHWxt_82KsiDsU4_tiMlNQ", "alias": "rice-pot-frisco", "name": "Rice Pot", "image_url": "https://s3-media3.fl.yelpcdn.com/bphoto/qQzyXC3xhbmbdg2C-hi3aA/o.jpg", "is_closed": false, "url": "https://www.yelp.com/biz/rice-pot-frisco?adjust_creative=a2JdNtFqB-C38ga_06BHvw&utm_campaign=yelp_api_v3&utm_medium=api_v3_business_search&utm_source=a2JdNtFqB-C38ga_06BHvw", "review_count": 53, "categories": [{"alias": "chinese", "title": "Chinese"}], "rating": 3.5, "coordinates": {"latitude": 33.16311, "longitude": -96.84841}, "transactions": ["delivery", "pickup"], "price": "$", "location": {"address1": "10150 Legacy Dr", "address2": "Ste 200B", "address3": "", "city": "Frisco", "zip_code": "75033", "country": "US", "state": "TX", "display_address": ["10150 Legacy Dr", "Ste 200B", "Frisco, TX 75033"]}, "phone": "+14693626988", "display_phone": "(469) 362-6988", "distance": 1538.938014227169}, {"id": "2xZILGaSKG2pSXEK0jQDew", "alias": "the-revel-frisco", "name": "The Revel", "image_url": "https://s3-media2.fl.yelpcdn.com/bphoto/m5dD5w6j0xkYUMg0QR77Fw/o.jpg", "is_closed": false, "url": "https://www.yelp.com/biz/the-revel-frisco?adjust_creative=a2JdNtFqB-C38ga_06BHvw&utm_campaign=yelp_api_v3&utm_medium=api_v3_business_search&utm_source=a2JdNtFqB-C38ga_06BHvw", "review_count": 64, "categories": [{"alias": "tradamerican", "title": "American (Traditional)"}, {"alias": "sportsbars", "title": "Sports Bars"}], "rating": 3.5, "coordinates": {"latitude": 33.1551902622268, "longitude": -96.804449}, "transactions": ["delivery"], "price": "$$", "location": {"address1": "9305 Preston Rd", "address2": null, "address3": "", "city": "Frisco", "zip_code": "75033", "country": "US", "state": "TX", "display_address": ["9305 Preston Rd", "Frisco, TX 75033"]}, "phone": "+14693847700", "display_phone": "(469) 384-7700", "distance": 2871.1273612360696}, {"id": "bSnPJidAIfQ-eRUOYIZUfQ", "alias": "i-fratelli-pizza-frisco-frisco", "name": "i Fratelli Pizza Frisco", "image_url": "https://s3-media2.fl.yelpcdn.com/bphoto/DB5iEql1ldTSDYWwqoMbHg/o.jpg", "is_closed": false, "url": "https://www.yelp.com/biz/i-fratelli-pizza-frisco-frisco?adjust_creative=a2JdNtFqB-C38ga_06BHvw&utm_campaign=yelp_api_v3&utm_medium=api_v3_business_search&utm_source=a2JdNtFqB-C38ga_06BHvw", "review_count": 27, "categories": [{"alias": "pizza", "title": "Pizza"}, {"alias": "desserts", "title": "Desserts"}, {"alias": "salad", "title": "Salad"}], "rating": 3.5, "coordinates": {"latitude": 33.1302678124917, "longitude": -96.8259725710147}, "transactions": ["delivery"], "location": {"address1": "6363 Dallas Pkwy", "address2": "Ste 208", "address3": null, "city": "Frisco", "zip_code": "75034", "country": "US", "state": "TX", "display_address": ["6363 Dallas Pkwy", "Ste 208", "Frisco, TX 75034"]}, "phone": "+12144364070", "display_phone": "(214) 436-4070", "distance": 2824.4282339458664}, {"id": "h_lWIGnjyTFUSPsC6dE0sQ", "alias": "great-harvest-bread-frisco", "name": "Great Harvest Bread", "image_url": "https://s3-media2.fl.yelpcdn.com/bphoto/DTHDSqR7_ra1dhxDLdQCVw/o.jpg", "is_closed": false, "url": "https://www.yelp.com/biz/great-harvest-bread-frisco?adjust_creative=a2JdNtFqB-C38ga_06BHvw&utm_campaign=yelp_api_v3&utm_medium=api_v3_business_search&utm_source=a2JdNtFqB-C38ga_06BHvw", "review_count": 19, "categories": [{"alias": "bakeries", "title": "Bakeries"}, {"alias": "sandwiches", "title": "Sandwiches"}, {"alias": "coffee", "title": "Coffee & Tea"}], "rating": 4.0, "coordinates": {"latitude": 33.129621, "longitude": -96.8254278}, "transactions": ["delivery", "pickup"], "location": {"address1": "6363 Dallas Pkwy", "address2": null, "address3": "", "city": "Frisco", "zip_code": "75034", "country": "US", "state": "TX", "display_address": ["6363 Dallas Pkwy", "Frisco, TX 75034"]}, "phone": "+19729875607", "display_phone": "(972) 987-5607", "distance": 2908.5607980892}, {"id": "r3TwC0SGxwqlycndwJvRog", "alias": "chiloso-mexican-bistro-frisco", "name": "Chiloso Mexican Bistro", "image_url": "https://s3-media3.fl.yelpcdn.com/bphoto/pqGu2dRhUteBV9Cex1h_pg/o.jpg", "is_closed": false, "url": "https://www.yelp.com/biz/chiloso-mexican-bistro-frisco?adjust_creative=a2JdNtFqB-C38ga_06BHvw&utm_campaign=yelp_api_v3&utm_medium=api_v3_business_search&utm_source=a2JdNtFqB-C38ga_06BHvw", "review_count": 51, "categories": [{"alias": "tex-mex", "title": "Tex-Mex"}, {"alias": "hotdogs", "title": "Fast Food"}, {"alias": "mexican", "title": "Mexican"}], "rating": 3.5, "coordinates": {"latitude": 33.1538806639519, "longitude": -96.8613386279979}, "transactions": ["delivery"], "price": "$$", "location": {"address1": "3290 Main St", "address2": "Ste 200", "address3": null, "city": "Frisco", "zip_code": "75033", "country": "US", "state": "TX", "display_address": ["3290 Main St", "Ste 200", "Frisco, TX 75033"]}, "phone": "+14698884063", "display_phone": "(469) 888-4063", "distance": 2426.8581599449817}, {"id": "CB9VhUhMTkGHgQn-SzbqFg", "alias": "green-apple-mediterranean-cuisine-frisco", "name": "Green Apple Mediterranean Cuisine", "image_url": "https://s3-media3.fl.yelpcdn.com/bphoto/3i3lyb0hOqtqtNRHNTPx1g/o.jpg", "is_closed": false, "url": "https://www.yelp.com/biz/green-apple-mediterranean-cuisine-frisco?adjust_creative=a2JdNtFqB-C38ga_06BHvw&utm_campaign=yelp_api_v3&utm_medium=api_v3_business_search&utm_source=a2JdNtFqB-C38ga_06BHvw", "review_count": 31, "categories": [{"alias": "mediterranean", "title": "Mediterranean"}, {"alias": "mideastern", "title": "Middle Eastern"}, {"alias": "greek", "title": "Greek"}], "rating": 3.5, "coordinates": {"latitude": 33.1274551, "longitude": -96.80565999999999}, "transactions": ["delivery", "pickup"], "location": {"address1": "5855 Preston Rd", "address2": "Bldg 2 Ste 100A", "address3": null, "city": "Frisco", "zip_code": "75034", "country": "US", "state": "TX", "display_address": ["5855 Preston Rd", "Bldg 2 Ste 100A", "Frisco, TX 75034"]}, "phone": "+12146180063", "display_phone": "(214) 618-0063", "distance": 4075.619519949516}, {"id": "HeSDtvFdccnj7Q-IR6KcsQ", "alias": "tropical-smoothie-cafe-frisco-2", "name": "Tropical Smoothie Cafe", "image_url": "https://s3-media2.fl.yelpcdn.com/bphoto/JwrawBeZmfUHsRDWMs7pDw/o.jpg", "is_closed": false, "url": "https://www.yelp.com/biz/tropical-smoothie-cafe-frisco-2?adjust_creative=a2JdNtFqB-C38ga_06BHvw&utm_campaign=yelp_api_v3&utm_medium=api_v3_business_search&utm_source=a2JdNtFqB-C38ga_06BHvw", "review_count": 27, "categories": [{"alias": "juicebars", "title": "Juice Bars & Smoothies"}, {"alias": "sandwiches", "title": "Sandwiches"}], "rating": 3.5, "coordinates": {"latitude": 33.1755235, "longitude": -96.8421917}, "transactions": ["delivery", "pickup"], "location": {"address1": "5110 Eldorado Pkwy", "address2": "Ste 150", "address3": null, "city": "Frisco", "zip_code": "75034", "country": "US", "state": "TX", "display_address": ["5110 Eldorado Pkwy", "Ste 150", "Frisco, TX 75034"]}, "phone": "+14697311023", "display_phone": "(469) 731-1023", "distance": 2430.6682874744993}, {"id": "oHvIrycm6jsBZhBVFfOLaA", "alias": "fuzzys-taco-shop-frisco-3", "name": "Fuzzy's Taco Shop", "image_url": "https://s3-media1.fl.yelpcdn.com/bphoto/pWno_dY3ldy02XNZwzXA1w/o.jpg", "is_closed": false, "url": "https://www.yelp.com/biz/fuzzys-taco-shop-frisco-3?adjust_creative=a2JdNtFqB-C38ga_06BHvw&utm_campaign=yelp_api_v3&utm_medium=api_v3_business_search&utm_source=a2JdNtFqB-C38ga_06BHvw", "review_count": 144, "categories": [{"alias": "tex-mex", "title": "Tex-Mex"}, {"alias": "mexican", "title": "Mexican"}], "rating": 3.0, "coordinates": {"latitude": 33.15164191595868, "longitude": -96.86622258306066}, "transactions": ["delivery", "pickup"], "price": "$", "location": {"address1": "2575 Main St", "address2": "Ste 385", "address3": "", "city": "Frisco", "zip_code": "75035", "country": "US", "state": "TX", "display_address": ["2575 Main St", "Ste 385", "Frisco, TX 75035"]}, "phone": "+12147058226", "display_phone": "(214) 705-8226", "distance": 2897.546947896519}, {"id": "5Is2w0FGIUVekvKuYabHLA", "alias": "freebirds-world-burrito-frisco", "name": "Freebirds World Burrito", "image_url": "https://s3-media3.fl.yelpcdn.com/bphoto/jGlF1afAmios50h39F9tww/o.jpg", "is_closed": false, "url": "https://www.yelp.com/biz/freebirds-world-burrito-frisco?adjust_creative=a2JdNtFqB-C38ga_06BHvw&utm_campaign=yelp_api_v3&utm_medium=api_v3_business_search&utm_source=a2JdNtFqB-C38ga_06BHvw", "review_count": 95, "categories": [{"alias": "tex-mex", "title": "Tex-Mex"}, {"alias": "mexican", "title": "Mexican"}], "rating": 3.0, "coordinates": {"latitude": 33.15330796139328, "longitude": -96.84177909999997}, "transactions": ["delivery", "pickup"], "price": "$", "location": {"address1": "5170 Main St", "address2": "Ste 900", "address3": "", "city": "Frisco", "zip_code": "75034", "country": "US", "state": "TX", "display_address": ["5170 Main St", "Ste 900", "Frisco, TX 75034"]}, "phone": "+12148721007", "display_phone": "(214) 872-1007", "distance": 618.2484780926854}, {"id": "DDs6SgnILpNZ43D8ILk_og", "alias": "main-event-frisco-frisco", "name": "Main Event Frisco", "image_url": "https://s3-media1.fl.yelpcdn.com/bphoto/l52-3-NzzCWYVr5Nvm33aA/o.jpg", "is_closed": false, "url": "https://www.yelp.com/biz/main-event-frisco-frisco?adjust_creative=a2JdNtFqB-C38ga_06BHvw&utm_campaign=yelp_api_v3&utm_medium=api_v3_business_search&utm_source=a2JdNtFqB-C38ga_06BHvw", "review_count": 136, "categories": [{"alias": "bowling", "title": "Bowling"}, {"alias": "arcades", "title": "Arcades"}, {"alias": "tradamerican", "title": "American (Traditional)"}], "rating": 3.0, "coordinates": {"latitude": 33.1553040207902, "longitude": -96.8425614134695}, "transactions": ["delivery"], "price": "$$", "location": {"address1": "9375 Dallas Pkwy", "address2": "", "address3": "", "city": "Frisco", "zip_code": "75034", "country": "US", "state": "TX", "display_address": ["9375 Dallas Pkwy", "Frisco, TX 75034"]}, "phone": "+14693627227", "display_phone": "(469) 362-7227", "distance": 684.7365215363347}, {"id": "6hDHVCKSnIPQG0TGkro_2w", "alias": "bawarchi-biryanis-frisco", "name": "Bawarchi Biryanis", "image_url": "https://s3-media3.fl.yelpcdn.com/bphoto/DlU3CoEa9FvbnxHIn07F7w/o.jpg", "is_closed": false, "url": "https://www.yelp.com/biz/bawarchi-biryanis-frisco?adjust_creative=a2JdNtFqB-C38ga_06BHvw&utm_campaign=yelp_api_v3&utm_medium=api_v3_business_search&utm_source=a2JdNtFqB-C38ga_06BHvw", "review_count": 160, "categories": [{"alias": "indpak", "title": "Indian"}], "rating": 3.0, "coordinates": {"latitude": 33.1759705184346, "longitude": -96.8430334045043}, "transactions": ["delivery", "pickup"], "price": "$$", "location": {"address1": "4950 Eldorado Pkwy", "address2": "Ste 400", "address3": "", "city": "Frisco", "zip_code": "75033", "country": "US", "state": "TX", "display_address": ["4950 Eldorado Pkwy", "Ste 400", "Frisco, TX 75033"]}, "phone": "+12146998003", "display_phone": "(214) 699-8003", "distance": 2500.1215258522757}, {"id": "cP9puqDInVekjyMyZ3S6Ew", "alias": "wayback-burgers-frisco-3", "name": "Wayback Burgers", "image_url": "https://s3-media2.fl.yelpcdn.com/bphoto/3iDzI1YHPR2nPNxp0s-1cg/o.jpg", "is_closed": false, "url": "https://www.yelp.com/biz/wayback-burgers-frisco-3?adjust_creative=a2JdNtFqB-C38ga_06BHvw&utm_campaign=yelp_api_v3&utm_medium=api_v3_business_search&utm_source=a2JdNtFqB-C38ga_06BHvw", "review_count": 86, "categories": [{"alias": "burgers", "title": "Burgers"}, {"alias": "tradamerican", "title": "American (Traditional)"}, {"alias": "hotdog", "title": "Hot Dogs"}], "rating": 3.0, "coordinates": {"latitude": 33.14464, "longitude": -96.80527}, "transactions": ["delivery", "pickup"], "price": "$$", "location": {"address1": "8049 Preston Rd", "address2": null, "address3": "", "city": "Frisco", "zip_code": "75034", "country": "US", "state": "TX", "display_address": ["8049 Preston Rd", "Frisco, TX 75034"]}, "phone": "+14695794757", "display_phone": "(469) 579-4757", "distance": 2994.2678306121857}, {"id": "uiKy5eD4OzErY-WrbuH6ZA", "alias": "chick-fil-a-frisco-5", "name": "Chick-fil-A", "image_url": "https://s3-media2.fl.yelpcdn.com/bphoto/ufShPVd1aJh96xCa8UoU2Q/o.jpg", "is_closed": false, "url": "https://www.yelp.com/biz/chick-fil-a-frisco-5?adjust_creative=a2JdNtFqB-C38ga_06BHvw&utm_campaign=yelp_api_v3&utm_medium=api_v3_business_search&utm_source=a2JdNtFqB-C38ga_06BHvw", "review_count": 23, "categories": [{"alias": "hotdogs", "title": "Fast Food"}], "rating": 3.5, "coordinates": {"latitude": 33.1492891641952, "longitude": -96.8050621272265}, "transactions": [], "price": "$", "location": {"address1": "8950 Gary Burns Dr", "address2": "", "address3": "", "city": "Frisco", "zip_code": "75034", "country": "US", "state": "TX", "display_address": ["8950 Gary Burns Dr", "Frisco, TX 75034"]}, "phone": "+12144365418", "display_phone": "(214) 436-5418", "distance": 2870.7507761660218}, {"id": "i1zEl3cr3_og02V_UpJrPA", "alias": "marcos-pizza-frisco", "name": "Marco's Pizza", "image_url": "https://s3-media2.fl.yelpcdn.com/bphoto/t--niRUFBQFYpFNvNfGj6Q/o.jpg", "is_closed": false, "url": "https://www.yelp.com/biz/marcos-pizza-frisco?adjust_creative=a2JdNtFqB-C38ga_06BHvw&utm_campaign=yelp_api_v3&utm_medium=api_v3_business_search&utm_source=a2JdNtFqB-C38ga_06BHvw", "review_count": 46, "categories": [{"alias": "pizza", "title": "Pizza"}, {"alias": "italian", "title": "Italian"}, {"alias": "chicken_wings", "title": "Chicken Wings"}], "rating": 3.0, "coordinates": {"latitude": 33.1539169161926, "longitude": -96.861845394435}, "transactions": [], "price": "$", "location": {"address1": "3288 Main St", "address2": "", "address3": null, "city": "Frisco", "zip_code": "75033", "country": "US", "state": "TX", "display_address": ["3288 Main St", "Frisco, TX 75033"]}, "phone": "+14693626467", "display_phone": "(469) 362-6467", "distance": 2473.9196163907955}, {"id": "2Nt2Q5nxHI39RgYxZZ9N-g", "alias": "jasons-deli-frisco-3", "name": "Jason's Deli", "image_url": "https://s3-media1.fl.yelpcdn.com/bphoto/uoTlu7Rfi-_RPsJ7Z7Pk3A/o.jpg", "is_closed": false, "url": "https://www.yelp.com/biz/jasons-deli-frisco-3?adjust_creative=a2JdNtFqB-C38ga_06BHvw&utm_campaign=yelp_api_v3&utm_medium=api_v3_business_search&utm_source=a2JdNtFqB-C38ga_06BHvw", "review_count": 61, "categories": [{"alias": "salad", "title": "Salad"}, {"alias": "delis", "title": "Delis"}, {"alias": "sandwiches", "title": "Sandwiches"}], "rating": 3.0, "coordinates": {"latitude": 33.174722, "longitude": -96.835174}, "transactions": ["delivery"], "price": "$$", "location": {"address1": "5845 Eldorado Pkwy", "address2": "", "address3": null, "city": "Frisco", "zip_code": "75033", "country": "US", "state": "TX", "display_address": ["5845 Eldorado Pkwy", "Frisco, TX 75033"]}, "phone": "+14693626144", "display_phone": "(469) 362-6144", "distance": 2254.8290019700544}, {"id": "TXgYoFvA71_HPruOFZnxZw", "alias": "dwaraka-curry-point-frisco", "name": "Dwaraka Curry Point", "image_url": "https://s3-media1.fl.yelpcdn.com/bphoto/0Kabxwly-O7_AddkPAwz9Q/o.jpg", "is_closed": false, "url": "https://www.yelp.com/biz/dwaraka-curry-point-frisco?adjust_creative=a2JdNtFqB-C38ga_06BHvw&utm_campaign=yelp_api_v3&utm_medium=api_v3_business_search&utm_source=a2JdNtFqB-C38ga_06BHvw", "review_count": 32, "categories": [{"alias": "indpak", "title": "Indian"}], "rating": 3.5, "coordinates": {"latitude": 33.13672, "longitude": -96.806086}, "transactions": ["delivery", "pickup"], "price": "$$", "location": {"address1": "7151 Preston Rd", "address2": "Ste 101A", "address3": "", "city": "Frisco", "zip_code": "75034", "country": "US", "state": "TX", "display_address": ["7151 Preston Rd", "Ste 101A", "Frisco, TX 75034"]}, "phone": "+14698035559", "display_phone": "(469) 803-5559", "distance": 3357.18316995708}, {"id": "uhOSmiTRR2r40pU5KV-X_A", "alias": "taco-bell-frisco-7", "name": "Taco Bell", "image_url": "https://s3-media1.fl.yelpcdn.com/bphoto/E0wlOfb5G41rfVt-lnGZ9g/o.jpg", "is_closed": false, "url": "https://www.yelp.com/biz/taco-bell-frisco-7?adjust_creative=a2JdNtFqB-C38ga_06BHvw&utm_campaign=yelp_api_v3&utm_medium=api_v3_business_search&utm_source=a2JdNtFqB-C38ga_06BHvw", "review_count": 27, "categories": [{"alias": "mexican", "title": "Mexican"}, {"alias": "hotdogs", "title": "Fast Food"}], "rating": 3.5, "coordinates": {"latitude": 33.175601970018, "longitude": -96.8360975911289}, "transactions": ["delivery"], "price": "$", "location": {"address1": "5656 Eldorado Parkway", "address2": "", "address3": null, "city": "Frisco", "zip_code": "75033", "country": "US", "state": "TX", "display_address": ["5656 Eldorado Parkway", "Frisco, TX 75033"]}, "phone": "+14693626640", "display_phone": "(469) 362-6640", "distance": 2353.8928711287354}, {"id": "SShegjBxh1Mqkp0cxqIy4A", "alias": "curry-n-biryani-indian-cuisine-frisco", "name": "Curry 'N' Biryani Indian Cuisine", "image_url": "https://s3-media3.fl.yelpcdn.com/bphoto/qatTxjPWHJaOkfHZJt3PjQ/o.jpg", "is_closed": false, "url": "https://www.yelp.com/biz/curry-n-biryani-indian-cuisine-frisco?adjust_creative=a2JdNtFqB-C38ga_06BHvw&utm_campaign=yelp_api_v3&utm_medium=api_v3_business_search&utm_source=a2JdNtFqB-C38ga_06BHvw", "review_count": 17, "categories": [{"alias": "indpak", "title": "Indian"}], "rating": 4.0, "coordinates": {"latitude": 33.15458, "longitude": -96.84991}, "transactions": ["delivery", "pickup"], "location": {"address1": "4350 Main St", "address2": "Ste 160", "address3": null, "city": "Frisco", "zip_code": "75034", "country": "US", "state": "TX", "display_address": ["4350 Main St", "Ste 160", "Frisco, TX 75034"]}, "phone": "+14698884395", "display_phone": "(469) 888-4395", "distance": 1360.6686272734485}, {"id": "SJIyDOjpUT5BSAfqW6D9uw", "alias": "la-unica-taqueria-frisco", "name": "La Unica Taqueria", "image_url": "https://s3-media2.fl.yelpcdn.com/bphoto/T589V3lS0MuCb1D8x1_C_w/o.jpg", "is_closed": false, "url": "https://www.yelp.com/biz/la-unica-taqueria-frisco?adjust_creative=a2JdNtFqB-C38ga_06BHvw&utm_campaign=yelp_api_v3&utm_medium=api_v3_business_search&utm_source=a2JdNtFqB-C38ga_06BHvw", "review_count": 32, "categories": [{"alias": "mexican", "title": "Mexican"}], "rating": 3.5, "coordinates": {"latitude": 33.1489199, "longitude": -96.82505}, "transactions": ["delivery"], "price": "$", "location": {"address1": "6942 Pecan St", "address2": "", "address3": "", "city": "Frisco", "zip_code": "75034", "country": "US", "state": "TX", "display_address": ["6942 Pecan St", "Frisco, TX 75034"]}, "phone": "+19723340943", "display_phone": "(972) 334-0943", "distance": 1138.967014421582}, {"id": "IC1A5xLL1OSK1Q7j6jYJeQ", "alias": "casa-linda-bakery-frisco", "name": "Casa Linda Bakery", "image_url": "https://s3-media3.fl.yelpcdn.com/bphoto/dX6OV9qyIyV1GwRy8jXnfg/o.jpg", "is_closed": false, "url": "https://www.yelp.com/biz/casa-linda-bakery-frisco?adjust_creative=a2JdNtFqB-C38ga_06BHvw&utm_campaign=yelp_api_v3&utm_medium=api_v3_business_search&utm_source=a2JdNtFqB-C38ga_06BHvw", "review_count": 81, "categories": [{"alias": "cafes", "title": "Cafes"}, {"alias": "bakeries", "title": "Bakeries"}, {"alias": "cupcakes", "title": "Cupcakes"}], "rating": 3.0, "coordinates": {"latitude": 33.1542363669674, "longitude": -96.8490408360958}, "transactions": ["delivery", "pickup"], "price": "$", "location": {"address1": "4350 Main St", "address2": "Ste 140", "address3": "", "city": "Frisco", "zip_code": "75034", "country": "US", "state": "TX", "display_address": ["4350 Main St", "Ste 140", "Frisco, TX 75034"]}, "phone": "+14693625353", "display_phone": "(469) 362-5353", "distance": 1281.4225497690018}, {"id": "GGBzpGEHRW1VbYm2OSSh_A", "alias": "firehouse-subs-frisco-2", "name": "Firehouse Subs", "image_url": "https://s3-media2.fl.yelpcdn.com/bphoto/s6H8l3W4BKQreCMG0rIuCQ/o.jpg", "is_closed": false, "url": "https://www.yelp.com/biz/firehouse-subs-frisco-2?adjust_creative=a2JdNtFqB-C38ga_06BHvw&utm_campaign=yelp_api_v3&utm_medium=api_v3_business_search&utm_source=a2JdNtFqB-C38ga_06BHvw", "review_count": 66, "categories": [{"alias": "sandwiches", "title": "Sandwiches"}, {"alias": "hotdogs", "title": "Fast Food"}, {"alias": "delis", "title": "Delis"}], "rating": 3.0, "coordinates": {"latitude": 33.152629642765, "longitude": -96.835632197155}, "transactions": ["delivery", "pickup"], "price": "$", "location": {"address1": "6025 Main St", "address2": null, "address3": null, "city": "Frisco", "zip_code": "75034", "country": "US", "state": "TX", "display_address": ["6025 Main St", "Frisco, TX 75034"]}, "phone": "+12143874353", "display_phone": "(214) 387-4353", "distance": 204.42390269560894}, {"id": "YJJeGldNu5riaHzdJckB4g", "alias": "raising-canes-chicken-fingers-frisco-2", "name": "Raising Cane's Chicken Fingers", "image_url": "https://s3-media1.fl.yelpcdn.com/bphoto/9Ky37JJElkkYBO6LB9zN6Q/o.jpg", "is_closed": false, "url": "https://www.yelp.com/biz/raising-canes-chicken-fingers-frisco-2?adjust_creative=a2JdNtFqB-C38ga_06BHvw&utm_campaign=yelp_api_v3&utm_medium=api_v3_business_search&utm_source=a2JdNtFqB-C38ga_06BHvw", "review_count": 53, "categories": [{"alias": "chicken_wings", "title": "Chicken Wings"}, {"alias": "hotdogs", "title": "Fast Food"}], "rating": 3.0, "coordinates": {"latitude": 33.17558, "longitude": -96.84123}, "transactions": [], "price": "$", "location": {"address1": "5220 Eldorado Pkwy", "address2": "", "address3": "", "city": "Frisco", "zip_code": "75034", "country": "US", "state": "TX", "display_address": ["5220 Eldorado Pkwy", "Frisco, TX 75034"]}, "phone": "+12144944560", "display_phone": "(214) 494-4560", "distance": 2418.1212600799267}, {"id": "MhXsR-K3udMpgiA4Pukrhw", "alias": "chilis-frisco-5", "name": "Chili's", "image_url": "https://s3-media4.fl.yelpcdn.com/bphoto/YKHBOcdvdijCiRVvmoXbGA/o.jpg", "is_closed": false, "url": "https://www.yelp.com/biz/chilis-frisco-5?adjust_creative=a2JdNtFqB-C38ga_06BHvw&utm_campaign=yelp_api_v3&utm_medium=api_v3_business_search&utm_source=a2JdNtFqB-C38ga_06BHvw", "review_count": 141, "categories": [{"alias": "tradamerican", "title": "American (Traditional)"}, {"alias": "bars", "title": "Bars"}, {"alias": "tex-mex", "title": "Tex-Mex"}], "rating": 2.5, "coordinates": {"latitude": 33.1737488599507, "longitude": -96.8405985832214}, "transactions": [], "price": "$$", "location": {"address1": "11555 Dallas Pkwy", "address2": "", "address3": "", "city": "Frisco", "zip_code": "75034", "country": "US", "state": "TX", "display_address": ["11555 Dallas Pkwy", "Frisco, TX 75034"]}, "phone": "+19727129922", "display_phone": "(972) 712-9922", "distance": 2202.990008600292}, {"id": "sytEJOWJJAJw72nRgBwraQ", "alias": "taco-bell-frisco-2", "name": "Taco Bell", "image_url": "https://s3-media4.fl.yelpcdn.com/bphoto/Vu408hK9hV6FiJyb7FjZ1Q/o.jpg", "is_closed": false, "url": "https://www.yelp.com/biz/taco-bell-frisco-2?adjust_creative=a2JdNtFqB-C38ga_06BHvw&utm_campaign=yelp_api_v3&utm_medium=api_v3_business_search&utm_source=a2JdNtFqB-C38ga_06BHvw", "review_count": 23, "categories": [{"alias": "hotdogs", "title": "Fast Food"}, {"alias": "mexican", "title": "Mexican"}], "rating": 3.0, "coordinates": {"latitude": 33.13586, "longitude": -96.80459}, "transactions": ["delivery"], "price": "$", "location": {"address1": "6929 S Preston Rd", "address2": "", "address3": "", "city": "Frisco", "zip_code": "75034", "country": "US", "state": "TX", "display_address": ["6929 S Preston Rd", "Frisco, TX 75034"]}, "phone": "+19727125400", "display_phone": "(972) 712-5400", "distance": 3526.0896109584055}, {"id": "imuBwQgy4AZWx1y9YTwUDA", "alias": "quiktrip-frisco-4", "name": "QuikTrip", "image_url": "https://s3-media1.fl.yelpcdn.com/bphoto/GUHCmx0CjryIj8aXs4rIPA/o.jpg", "is_closed": false, "url": "https://www.yelp.com/biz/quiktrip-frisco-4?adjust_creative=a2JdNtFqB-C38ga_06BHvw&utm_campaign=yelp_api_v3&utm_medium=api_v3_business_search&utm_source=a2JdNtFqB-C38ga_06BHvw", "review_count": 7, "categories": [{"alias": "servicestations", "title": "Gas Stations"}, {"alias": "convenience", "title": "Convenience Stores"}, {"alias": "hotdogs", "title": "Fast Food"}], "rating": 4.0, "coordinates": {"latitude": 33.17578632888905, "longitude": -96.8384566135664}, "transactions": [], "price": "$", "location": {"address1": "5530 Eldorado Pkwy", "address2": "", "address3": "", "city": "Frisco", "zip_code": "75034", "country": "US", "state": "TX", "display_address": ["5530 Eldorado Pkwy", "Frisco, TX 75034"]}, "phone": "+12144944306", "display_phone": "(214) 494-4306", "distance": 2391.5283169076347}, {"id": "icbNjFkK_Knw4C7Rf2hJfw", "alias": "dickeys-barbecue-pit-frisco", "name": "Dickey's Barbecue Pit", "image_url": "https://s3-media2.fl.yelpcdn.com/bphoto/CtDicqvg5Uc07ZMKBcR97w/o.jpg", "is_closed": false, "url": "https://www.yelp.com/biz/dickeys-barbecue-pit-frisco?adjust_creative=a2JdNtFqB-C38ga_06BHvw&utm_campaign=yelp_api_v3&utm_medium=api_v3_business_search&utm_source=a2JdNtFqB-C38ga_06BHvw", "review_count": 38, "categories": [{"alias": "bbq", "title": "Barbeque"}, {"alias": "tradamerican", "title": "American (Traditional)"}, {"alias": "chicken_wings", "title": "Chicken Wings"}], "rating": 3.0, "coordinates": {"latitude": 33.13703, "longitude": -96.803596}, "transactions": ["pickup", "delivery"], "price": "$$", "location": {"address1": "7070 Preston Rd", "address2": "", "address3": "", "city": "Frisco", "zip_code": "75034", "country": "US", "state": "TX", "display_address": ["7070 Preston Rd", "Frisco, TX 75034"]}, "phone": "+19723777679", "display_phone": "(972) 377-7679", "distance": 3528.4297533294894}, {"id": "SCqQaNz-VdtJsBF0-rDhug", "alias": "mcalisters-deli-frisco", "name": "McAlister's Deli", "image_url": "https://s3-media2.fl.yelpcdn.com/bphoto/6GoLZnE5Wf4aj-t4b0uyqA/o.jpg", "is_closed": false, "url": "https://www.yelp.com/biz/mcalisters-deli-frisco?adjust_creative=a2JdNtFqB-C38ga_06BHvw&utm_campaign=yelp_api_v3&utm_medium=api_v3_business_search&utm_source=a2JdNtFqB-C38ga_06BHvw", "review_count": 64, "categories": [{"alias": "salad", "title": "Salad"}, {"alias": "delis", "title": "Delis"}, {"alias": "sandwiches", "title": "Sandwiches"}], "rating": 2.5, "coordinates": {"latitude": 33.17692, "longitude": -96.84043}, "transactions": ["delivery"], "price": "$$", "location": {"address1": "11901 Dallas Pkwy", "address2": "Ste 800", "address3": null, "city": "Frisco", "zip_code": "75033", "country": "US", "state": "TX", "display_address": ["11901 Dallas Pkwy", "Ste 800", "Frisco, TX 75033"]}, "phone": "+12148723354", "display_phone": "(214) 872-3354", "distance": 2555.9248896652334}, {"id": "gcZYvz_9SQUwOpoC6_1q_A", "alias": "charminar-cafe-frisco", "name": "Charminar Cafe", "image_url": "https://s3-media1.fl.yelpcdn.com/bphoto/G5KUjFw0FLc-weJSinnQNg/o.jpg", "is_closed": false, "url": "https://www.yelp.com/biz/charminar-cafe-frisco?adjust_creative=a2JdNtFqB-C38ga_06BHvw&utm_campaign=yelp_api_v3&utm_medium=api_v3_business_search&utm_source=a2JdNtFqB-C38ga_06BHvw", "review_count": 27, "categories": [{"alias": "halal", "title": "Halal"}, {"alias": "indpak", "title": "Indian"}, {"alias": "icecream", "title": "Ice Cream & Frozen Yogurt"}], "rating": 3.0, "coordinates": {"latitude": 33.15684, "longitude": -96.83939}, "transactions": ["pickup", "delivery"], "price": "$$", "location": {"address1": "9500 Dallas Pkwy", "address2": "Ste 600", "address3": "", "city": "Frisco", "zip_code": "75034", "country": "US", "state": "TX", "display_address": ["9500 Dallas Pkwy", "Ste 600", "Frisco, TX 75034"]}, "phone": "+14692008363", "display_phone": "(469) 200-8363", "distance": 461.10524573787984}, {"id": "rjaxz6DXmdVJWqwb5NYfGg", "alias": "wingstop-frisco", "name": "Wingstop", "image_url": "https://s3-media4.fl.yelpcdn.com/bphoto/zA3gW6WJ1tnzmpWKtRZkQQ/o.jpg", "is_closed": false, "url": "https://www.yelp.com/biz/wingstop-frisco?adjust_creative=a2JdNtFqB-C38ga_06BHvw&utm_campaign=yelp_api_v3&utm_medium=api_v3_business_search&utm_source=a2JdNtFqB-C38ga_06BHvw", "review_count": 117, "categories": [{"alias": "chicken_wings", "title": "Chicken Wings"}], "rating": 2.5, "coordinates": {"latitude": 33.1517677307129, "longitude": -96.8652496337891}, "transactions": [], "price": "$$", "location": {"address1": "8811 Teel Pkwy", "address2": "", "address3": "", "city": "Frisco", "zip_code": "75034", "country": "US", "state": "TX", "display_address": ["8811 Teel Pkwy", "Frisco, TX 75034"]}, "phone": "+19723709464", "display_phone": "(972) 370-9464", "distance": 2812.28835250008}, {"id": "9ivZM3H6alDVj7i8FR2_Vw", "alias": "dairy-queen-frisco", "name": "Dairy Queen", "image_url": "https://s3-media2.fl.yelpcdn.com/bphoto/SoUv4zANX-9CBkiNVnhWaQ/o.jpg", "is_closed": false, "url": "https://www.yelp.com/biz/dairy-queen-frisco?adjust_creative=a2JdNtFqB-C38ga_06BHvw&utm_campaign=yelp_api_v3&utm_medium=api_v3_business_search&utm_source=a2JdNtFqB-C38ga_06BHvw", "review_count": 42, "categories": [{"alias": "hotdogs", "title": "Fast Food"}, {"alias": "burgers", "title": "Burgers"}, {"alias": "icecream", "title": "Ice Cream & Frozen Yogurt"}], "rating": 2.5, "coordinates": {"latitude": 33.14935, "longitude": -96.80376}, "transactions": [], "price": "$", "location": {"address1": "8890 Preston", "address2": "", "address3": "", "city": "Frisco", "zip_code": "75034", "country": "US", "state": "TX", "display_address": ["8890 Preston", "Frisco, TX 75034"]}, "phone": "+12144365757", "display_phone": "(214) 436-5757", "distance": 2990.0961352241043}, {"id": "1sr6bCaICwbQLGy8k-zFCA", "alias": "panera-bread-frisco", "name": "Panera Bread", "image_url": "https://s3-media2.fl.yelpcdn.com/bphoto/2_TN2TLB4aTZ8DoNR9477Q/o.jpg", "is_closed": false, "url": "https://www.yelp.com/biz/panera-bread-frisco?adjust_creative=a2JdNtFqB-C38ga_06BHvw&utm_campaign=yelp_api_v3&utm_medium=api_v3_business_search&utm_source=a2JdNtFqB-C38ga_06BHvw", "review_count": 205, "categories": [{"alias": "sandwiches", "title": "Sandwiches"}, {"alias": "salad", "title": "Salad"}, {"alias": "soup", "title": "Soup"}], "rating": 2.0, "coordinates": {"latitude": 33.153425, "longitude": -96.843526}, "transactions": ["pickup", "delivery"], "price": "$", "location": {"address1": "5062 Main St", "address2": "", "address3": "", "city": "Frisco", "zip_code": "75034", "country": "US", "state": "TX", "display_address": ["5062 Main St", "Frisco, TX 75034"]}, "phone": "+12147051468", "display_phone": "(214) 705-1468", "distance": 776.1444201738142}, {"id": "n7O4vrA0Pyoo2Es4lksdrg", "alias": "which-wich-frisco", "name": "Which Wich", "image_url": "https://s3-media4.fl.yelpcdn.com/bphoto/VBxurRARldC8CPgCikpEmg/o.jpg", "is_closed": false, "url": "https://www.yelp.com/biz/which-wich-frisco?adjust_creative=a2JdNtFqB-C38ga_06BHvw&utm_campaign=yelp_api_v3&utm_medium=api_v3_business_search&utm_source=a2JdNtFqB-C38ga_06BHvw", "review_count": 47, "categories": [{"alias": "sandwiches", "title": "Sandwiches"}], "rating": 2.5, "coordinates": {"latitude": 33.1743470631238, "longitude": -96.8416592129704}, "transactions": ["pickup", "delivery"], "price": "$", "location": {"address1": "5105 Eldorado Pkwy", "address2": "", "address3": "", "city": "Frisco", "zip_code": "75034", "country": "US", "state": "TX", "display_address": ["5105 Eldorado Pkwy", "Frisco, TX 75034"]}, "phone": "+12148723864", "display_phone": "(214) 872-3864", "distance": 2291.438998137285}, {"id": "aJJNlseeJcz74jsKi4ToJw", "alias": "mcdonalds-frisco-7", "name": "McDonald's", "image_url": "https://s3-media4.fl.yelpcdn.com/bphoto/D6jVGbJvMtWkW2TCvZxRnw/o.jpg", "is_closed": false, "url": "https://www.yelp.com/biz/mcdonalds-frisco-7?adjust_creative=a2JdNtFqB-C38ga_06BHvw&utm_campaign=yelp_api_v3&utm_medium=api_v3_business_search&utm_source=a2JdNtFqB-C38ga_06BHvw", "review_count": 41, "categories": [{"alias": "hotdogs", "title": "Fast Food"}, {"alias": "burgers", "title": "Burgers"}, {"alias": "coffee", "title": "Coffee & Tea"}], "rating": 2.5, "coordinates": {"latitude": 33.1509583, "longitude": -96.8033324}, "transactions": ["delivery"], "price": "$", "location": {"address1": "8970 Preston Rd", "address2": "", "address3": "", "city": "Frisco", "zip_code": "75034", "country": "US", "state": "TX", "display_address": ["8970 Preston Rd", "Frisco, TX 75034"]}, "phone": "+19723359479", "display_phone": "(972) 335-9479", "distance": 2999.0969388924177}, {"id": "1ybF8eowFlhMM-CnSal-2A", "alias": "yiayias-coffee-house-frisco-2", "name": "Yiayia's Coffee House", "image_url": "https://s3-media3.fl.yelpcdn.com/bphoto/POkJtcuUOrWK9JgTSZSamA/o.jpg", "is_closed": false, "url": "https://www.yelp.com/biz/yiayias-coffee-house-frisco-2?adjust_creative=a2JdNtFqB-C38ga_06BHvw&utm_campaign=yelp_api_v3&utm_medium=api_v3_business_search&utm_source=a2JdNtFqB-C38ga_06BHvw", "review_count": 3, "categories": [{"alias": "coffee", "title": "Coffee & Tea"}, {"alias": "foodstands", "title": "Food Stands"}, {"alias": "juicebars", "title": "Juice Bars & Smoothies"}], "rating": 5.0, "coordinates": {"latitude": 33.15446, "longitude": -96.83064}, "transactions": [], "location": {"address1": "9215 John W Elliot Dr", "address2": null, "address3": "Dan's Fresh and Local store", "city": "Frisco", "zip_code": "75034", "country": "US", "state": "TX", "display_address": ["9215 John W Elliot Dr", "Dan's Fresh and Local store", "Frisco, TX 75034"]}, "phone": "+14692672095", "display_phone": "(469) 267-2095", "distance": 454.1715634769311}, {"id": "NqlXqmFDK6nY1LXNvzdl0g", "alias": "pei-wei-frisco", "name": "Pei Wei", "image_url": "https://s3-media1.fl.yelpcdn.com/bphoto/3XH_Xj1WB2C4XlS0eruZBw/o.jpg", "is_closed": false, "url": "https://www.yelp.com/biz/pei-wei-frisco?adjust_creative=a2JdNtFqB-C38ga_06BHvw&utm_campaign=yelp_api_v3&utm_medium=api_v3_business_search&utm_source=a2JdNtFqB-C38ga_06BHvw", "review_count": 182, "categories": [{"alias": "asianfusion", "title": "Asian Fusion"}, {"alias": "chinese", "title": "Chinese"}, {"alias": "gluten_free", "title": "Gluten-Free"}], "rating": 2.0, "coordinates": {"latitude": 33.1534214, "longitude": -96.84235198}, "transactions": [], "price": "$$", "location": {"address1": "5110 Main St", "address2": "Ste 100", "address3": "", "city": "Frisco", "zip_code": "75034", "country": "US", "state": "TX", "display_address": ["5110 Main St", "Ste 100", "Frisco, TX 75034"]}, "phone": "+12147050341", "display_phone": "(214) 705-0341", "distance": 668.2810938912249}, {"id": "KyMqxVfeBNCnSLZEkr4y0g", "alias": "whataburger-frisco", "name": "Whataburger", "image_url": "https://s3-media2.fl.yelpcdn.com/bphoto/CDVdGc3ehFfxGr1JQNIbIg/o.jpg", "is_closed": false, "url": "https://www.yelp.com/biz/whataburger-frisco?adjust_creative=a2JdNtFqB-C38ga_06BHvw&utm_campaign=yelp_api_v3&utm_medium=api_v3_business_search&utm_source=a2JdNtFqB-C38ga_06BHvw", "review_count": 106, "categories": [{"alias": "hotdogs", "title": "Fast Food"}, {"alias": "burgers", "title": "Burgers"}], "rating": 2.0, "coordinates": {"latitude": 33.1744123524537, "longitude": -96.8385178633843}, "transactions": ["delivery"], "price": "$", "location": {"address1": "11650 N Dallas Pkwy", "address2": "", "address3": "", "city": "Frisco", "zip_code": "75034", "country": "US", "state": "TX", "display_address": ["11650 N Dallas Pkwy", "Frisco, TX 75034"]}, "phone": "+12148723855", "display_phone": "(214) 872-3855", "distance": 2240.7631840804615}, {"id": "ENPhfwodl_g1ey02eGY6tg", "alias": "888-cookhouse-frisco", "name": "888 Cookhouse", "image_url": "https://s3-media1.fl.yelpcdn.com/bphoto/jafgxTwf1sFrYijemjgYGg/o.jpg", "is_closed": false, "url": "https://www.yelp.com/biz/888-cookhouse-frisco?adjust_creative=a2JdNtFqB-C38ga_06BHvw&utm_campaign=yelp_api_v3&utm_medium=api_v3_business_search&utm_source=a2JdNtFqB-C38ga_06BHvw", "review_count": 5, "categories": [{"alias": "chinese", "title": "Chinese"}, {"alias": "desserts", "title": "Desserts"}, {"alias": "seafood", "title": "Seafood"}], "rating": 4.5, "coordinates": {"latitude": 33.15378, "longitude": -96.86122}, "transactions": [], "location": {"address1": "3290 Main St", "address2": "Ste 202", "address3": null, "city": "Frisco", "zip_code": "75034", "country": "US", "state": "TX", "display_address": ["3290 Main St", "Ste 202", "Frisco, TX 75034"]}, "phone": "+14698884109", "display_phone": "(469) 888-4109", "distance": 2468.423613489783}, {"id": "ggum6770Bhf_DUsbuvnPyg", "alias": "chicken-express-frisco-2", "name": "Chicken Express", "image_url": "https://s3-media4.fl.yelpcdn.com/bphoto/gvG644L4lkPC6xQNJFmedQ/o.jpg", "is_closed": false, "url": "https://www.yelp.com/biz/chicken-express-frisco-2?adjust_creative=a2JdNtFqB-C38ga_06BHvw&utm_campaign=yelp_api_v3&utm_medium=api_v3_business_search&utm_source=a2JdNtFqB-C38ga_06BHvw", "review_count": 61, "categories": [{"alias": "tradamerican", "title": "American (Traditional)"}], "rating": 2.0, "coordinates": {"latitude": 33.1537891065807, "longitude": -96.8665477968061}, "transactions": ["pickup", "delivery"], "price": "$", "location": {"address1": "2720 W Main St", "address2": "", "address3": "", "city": "Frisco", "zip_code": "75034", "country": "US", "state": "TX", "display_address": ["2720 W Main St", "Frisco, TX 75034"]}, "phone": "+14698884391", "display_phone": "(469) 888-4391", "distance": 2911.896497100245}, {"id": "Do4OPvA_2ogF-adBTuwe5Q", "alias": "ihop-frisco-3", "name": "IHOP", "image_url": "https://s3-media1.fl.yelpcdn.com/bphoto/VWfh8M5u6cF8V0cDuGlnZw/o.jpg", "is_closed": false, "url": "https://www.yelp.com/biz/ihop-frisco-3?adjust_creative=a2JdNtFqB-C38ga_06BHvw&utm_campaign=yelp_api_v3&utm_medium=api_v3_business_search&utm_source=a2JdNtFqB-C38ga_06BHvw", "review_count": 198, "categories": [{"alias": "breakfast_brunch", "title": "Breakfast & Brunch"}, {"alias": "tradamerican", "title": "American (Traditional)"}, {"alias": "burgers", "title": "Burgers"}], "rating": 1.5, "coordinates": {"latitude": 33.15685, "longitude": -96.84108}, "transactions": ["pickup", "delivery"], "price": "$", "location": {"address1": "9509 Dallas Pkwy", "address2": null, "address3": null, "city": "Frisco", "zip_code": "75034", "country": "US", "state": "TX", "display_address": ["9509 Dallas Pkwy", "Frisco, TX 75034"]}, "phone": "+12148723189", "display_phone": "(214) 872-3189", "distance": 602.7417355400429}, {"id": "4Q-avUTinF4ahNuc_UDxYA", "alias": "mcdonalds-frisco-3", "name": "McDonald's", "image_url": "https://s3-media3.fl.yelpcdn.com/bphoto/Mg0tWqOmpKTosYDoNoRm2Q/o.jpg", "is_closed": false, "url": "https://www.yelp.com/biz/mcdonalds-frisco-3?adjust_creative=a2JdNtFqB-C38ga_06BHvw&utm_campaign=yelp_api_v3&utm_medium=api_v3_business_search&utm_source=a2JdNtFqB-C38ga_06BHvw", "review_count": 23, "categories": [{"alias": "hotdogs", "title": "Fast Food"}, {"alias": "burgers", "title": "Burgers"}, {"alias": "coffee", "title": "Coffee & Tea"}], "rating": 2.5, "coordinates": {"latitude": 33.152, "longitude": -96.8635}, "transactions": ["delivery"], "price": "$", "location": {"address1": "8888 Teel Pkwy", "address2": "", "address3": "", "city": "Frisco", "zip_code": "75034", "country": "US", "state": "TX", "display_address": ["8888 Teel Pkwy", "Frisco, TX 75034"]}, "phone": "+12147051512", "display_phone": "(214) 705-1512", "distance": 2635.9270675398834}, {"id": "pgCVN3jDsDZ3CF1NtiNzgw", "alias": "dairy-queen-frisco-3", "name": "Dairy Queen", "image_url": "https://s3-media1.fl.yelpcdn.com/bphoto/68yCU5IRHTZCoe3QkxWJ0A/o.jpg", "is_closed": false, "url": "https://www.yelp.com/biz/dairy-queen-frisco-3?adjust_creative=a2JdNtFqB-C38ga_06BHvw&utm_campaign=yelp_api_v3&utm_medium=api_v3_business_search&utm_source=a2JdNtFqB-C38ga_06BHvw", "review_count": 50, "categories": [{"alias": "hotdogs", "title": "Fast Food"}, {"alias": "icecream", "title": "Ice Cream & Frozen Yogurt"}, {"alias": "burgers", "title": "Burgers"}], "rating": 2.0, "coordinates": {"latitude": 33.152072, "longitude": -96.864752}, "transactions": [], "price": "$", "location": {"address1": "8855 Teel Parkway", "address2": "", "address3": "", "city": "Frisco", "zip_code": "75034", "country": "US", "state": "TX", "display_address": ["8855 Teel Parkway", "Frisco, TX 75034"]}, "phone": "+12148721737", "display_phone": "(214) 872-1737", "distance": 2756.4849796793997}, {"id": "de7yjE4hCubxhGJ2etyjhQ", "alias": "racetrac-frisco-3", "name": "RaceTrac", "image_url": "https://s3-media3.fl.yelpcdn.com/bphoto/zAu5WsVgUJyvwHswOcnk8g/o.jpg", "is_closed": false, "url": "https://www.yelp.com/biz/racetrac-frisco-3?adjust_creative=a2JdNtFqB-C38ga_06BHvw&utm_campaign=yelp_api_v3&utm_medium=api_v3_business_search&utm_source=a2JdNtFqB-C38ga_06BHvw", "review_count": 7, "categories": [{"alias": "cafes", "title": "Cafes"}, {"alias": "convenience", "title": "Convenience Stores"}], "rating": 3.5, "coordinates": {"latitude": 33.15036, "longitude": -96.821346}, "transactions": [], "price": "$", "location": {"address1": "4740 W Main St", "address2": "", "address3": "", "city": "Frisco", "zip_code": "75034", "country": "US", "state": "TX", "display_address": ["4740 W Main St", "Frisco, TX 75034"]}, "phone": "+12147051030", "display_phone": "(214) 705-1030", "distance": 1374.1944601481746}, {"id": "HcMaNZ_vhF61Fz2lROn91w", "alias": "wendys-frisco-5", "name": "Wendy's", "image_url": "https://s3-media3.fl.yelpcdn.com/bphoto/H5EvcRM5fO0FXc-rTup8JA/o.jpg", "is_closed": false, "url": "https://www.yelp.com/biz/wendys-frisco-5?adjust_creative=a2JdNtFqB-C38ga_06BHvw&utm_campaign=yelp_api_v3&utm_medium=api_v3_business_search&utm_source=a2JdNtFqB-C38ga_06BHvw", "review_count": 33, "categories": [{"alias": "hotdogs", "title": "Fast Food"}, {"alias": "burgers", "title": "Burgers"}], "rating": 2.0, "coordinates": {"latitude": 33.138095, "longitude": -96.804993}, "transactions": ["delivery"], "price": "$", "location": {"address1": "7201 Preston Road", "address2": "", "address3": "", "city": "Frisco", "zip_code": "75034", "country": "US", "state": "TX", "display_address": ["7201 Preston Road", "Frisco, TX 75034"]}, "phone": "+19723773177", "display_phone": "(972) 377-3177", "distance": 3352.651804927559}, {"id": "XIrYN0qGn5CrCsMlqCoQDA", "alias": "mrbeast-burger-frisco", "name": "MrBeast Burger", "image_url": "https://s3-media2.fl.yelpcdn.com/bphoto/5Quf0Db6bH4L3p4jQdzFbw/o.jpg", "is_closed": false, "url": "https://www.yelp.com/biz/mrbeast-burger-frisco?adjust_creative=a2JdNtFqB-C38ga_06BHvw&utm_campaign=yelp_api_v3&utm_medium=api_v3_business_search&utm_source=a2JdNtFqB-C38ga_06BHvw", "review_count": 13, "categories": [{"alias": "fooddeliveryservices", "title": "Food Delivery Services"}, {"alias": "burgers", "title": "Burgers"}], "rating": 2.5, "coordinates": {"latitude": 33.125850677490234, "longitude": -96.83163452148438}, "transactions": [], "location": {"address1": "", "address2": null, "address3": null, "city": "Frisco", "zip_code": "75034", "country": "US", "state": "TX", "display_address": ["Frisco, TX 75034"]}, "phone": "+18772327898", "display_phone": "(877) 232-7898", "distance": 2721.3086421537396}, {"id": "SxxFkcwfNxIbIBQ2JiwBgw", "alias": "raising-canes-frisco-3", "name": "Raising Cane's", "image_url": "https://s3-media2.fl.yelpcdn.com/bphoto/taCiCTFAsdy1Q62-Dblddg/o.jpg", "is_closed": false, "url": "https://www.yelp.com/biz/raising-canes-frisco-3?adjust_creative=a2JdNtFqB-C38ga_06BHvw&utm_campaign=yelp_api_v3&utm_medium=api_v3_business_search&utm_source=a2JdNtFqB-C38ga_06BHvw", "review_count": 10, "categories": [{"alias": "chicken_wings", "title": "Chicken Wings"}, {"alias": "hotdogs", "title": "Fast Food"}, {"alias": "tradamerican", "title": "American (Traditional)"}], "rating": 3.0, "coordinates": {"latitude": 33.1754593414684, "longitude": -96.8412567728081}, "transactions": ["delivery"], "price": "$$", "location": {"address1": "5220 Eldorado Pkwy", "address2": "", "address3": "", "city": "Frisco", "zip_code": "75033", "country": "US", "state": "TX", "display_address": ["5220 Eldorado Pkwy", "Frisco, TX 75033"]}, "phone": "+12144944560", "display_phone": "(214) 494-4560", "distance": 2402.1496858501387}, {"id": "E3je_lQpn3Y4v704GM2xFg", "alias": "sonic-drive-in-frisco", "name": "Sonic Drive-In", "image_url": "https://s3-media1.fl.yelpcdn.com/bphoto/II63DtGZAjjnF3k-cTfThQ/o.jpg", "is_closed": false, "url": "https://www.yelp.com/biz/sonic-drive-in-frisco?adjust_creative=a2JdNtFqB-C38ga_06BHvw&utm_campaign=yelp_api_v3&utm_medium=api_v3_business_search&utm_source=a2JdNtFqB-C38ga_06BHvw", "review_count": 31, "categories": [{"alias": "hotdogs", "title": "Fast Food"}, {"alias": "burgers", "title": "Burgers"}, {"alias": "icecream", "title": "Ice Cream & Frozen Yogurt"}], "rating": 2.0, "coordinates": {"latitude": 33.1415395, "longitude": -96.8039953}, "transactions": [], "price": "$", "location": {"address1": "7630 Preston Rd", "address2": "", "address3": "", "city": "Frisco", "zip_code": "75034", "country": "US", "state": "TX", "display_address": ["7630 Preston Rd", "Frisco, TX 75034"]}, "phone": "+14696330046", "display_phone": "(469) 633-0046", "distance": 3246.6896495174665}, {"id": "_UW1f_GiJomw1OUwXt_u9Q", "alias": "kfc-frisco-2", "name": "KFC", "image_url": "https://s3-media2.fl.yelpcdn.com/bphoto/fnhX36xrHGA0d7MnBy3msw/o.jpg", "is_closed": false, "url": "https://www.yelp.com/biz/kfc-frisco-2?adjust_creative=a2JdNtFqB-C38ga_06BHvw&utm_campaign=yelp_api_v3&utm_medium=api_v3_business_search&utm_source=a2JdNtFqB-C38ga_06BHvw", "review_count": 40, "categories": [{"alias": "hotdogs", "title": "Fast Food"}, {"alias": "chicken_wings", "title": "Chicken Wings"}, {"alias": "chickenshop", "title": "Chicken Shop"}], "rating": 2.0, "coordinates": {"latitude": 33.1410915, "longitude": -96.8042461}, "transactions": ["pickup", "delivery"], "price": "$", "location": {"address1": "7560 Preston Rd", "address2": "", "address3": "", "city": "Frisco", "zip_code": "75034", "country": "US", "state": "TX", "display_address": ["7560 Preston Rd", "Frisco, TX 75034"]}, "phone": "+19727122550", "display_phone": "(972) 712-2550", "distance": 3248.23336595682}, {"id": "38BtkjnAB0otMbV0iaU4Ow", "alias": "quiktrip-frisco-3", "name": "QuikTrip", "image_url": "https://s3-media3.fl.yelpcdn.com/bphoto/WjEH6cHKcRs2CHMCtnEs_w/o.jpg", "is_closed": false, "url": "https://www.yelp.com/biz/quiktrip-frisco-3?adjust_creative=a2JdNtFqB-C38ga_06BHvw&utm_campaign=yelp_api_v3&utm_medium=api_v3_business_search&utm_source=a2JdNtFqB-C38ga_06BHvw", "review_count": 3, "categories": [{"alias": "servicestations", "title": "Gas Stations"}, {"alias": "convenience", "title": "Convenience Stores"}, {"alias": "hotdogs", "title": "Fast Food"}], "rating": 4.0, "coordinates": {"latitude": 33.1522365, "longitude": -96.8486438}, "transactions": [], "price": "$$", "location": {"address1": "4645 Main St", "address2": "", "address3": "", "city": "Frisco", "zip_code": "75034", "country": "US", "state": "TX", "display_address": ["4645 Main St", "Frisco, TX 75034"]}, "phone": "+12148721656", "display_phone": "(214) 872-1656", "distance": 1268.2483951813447}, {"id": "AiTCz58xj4U5RbSkePlV-g", "alias": "jack-in-the-box-frisco-4", "name": "Jack in the Box", "image_url": "https://s3-media1.fl.yelpcdn.com/bphoto/PxOPMGAlIebN1aQbAI85jw/o.jpg", "is_closed": false, "url": "https://www.yelp.com/biz/jack-in-the-box-frisco-4?adjust_creative=a2JdNtFqB-C38ga_06BHvw&utm_campaign=yelp_api_v3&utm_medium=api_v3_business_search&utm_source=a2JdNtFqB-C38ga_06BHvw", "review_count": 25, "categories": [{"alias": "burgers", "title": "Burgers"}, {"alias": "hotdogs", "title": "Fast Food"}, {"alias": "tacos", "title": "Tacos"}], "rating": 2.0, "coordinates": {"latitude": 33.1543776, "longitude": -96.8485419}, "transactions": ["delivery"], "price": "$", "location": {"address1": "9133 Legacy Dr", "address2": "", "address3": "", "city": "Frisco", "zip_code": "75034", "country": "US", "state": "TX", "display_address": ["9133 Legacy Dr", "Frisco, TX 75034"]}, "phone": "+12144365415", "display_phone": "(214) 436-5415", "distance": 1234.7884984748964}, {"id": "ls16f4kuadN-5pohYZJgiA", "alias": "ms-betties-gumbo-frisco-2", "name": "Ms Betties Gumbo", "image_url": "https://s3-media4.fl.yelpcdn.com/bphoto/ZS4AxWIA4d56kOKxrLtZiA/o.jpg", "is_closed": false, "url": "https://www.yelp.com/biz/ms-betties-gumbo-frisco-2?adjust_creative=a2JdNtFqB-C38ga_06BHvw&utm_campaign=yelp_api_v3&utm_medium=api_v3_business_search&utm_source=a2JdNtFqB-C38ga_06BHvw", "review_count": 2, "categories": [{"alias": "cajun", "title": "Cajun/Creole"}], "rating": 4.5, "coordinates": {"latitude": 33.15446, "longitude": -96.83064}, "transactions": [], "location": {"address1": "9215 John W Elliot Dr", "address2": null, "address3": "", "city": "Frisco", "zip_code": "75034", "country": "US", "state": "TX", "display_address": ["9215 John W Elliot Dr", "Frisco, TX 75034"]}, "phone": "", "display_phone": "", "distance": 454.1715634769311}, {"id": "dLJ0NeQ4UG6mWyNAncJp7Q", "alias": "popeyes-louisiana-kitchen-frisco", "name": "Popeyes Louisiana Kitchen", "image_url": "https://s3-media1.fl.yelpcdn.com/bphoto/oldbuvWNfD8z63v1dvqKFQ/o.jpg", "is_closed": false, "url": "https://www.yelp.com/biz/popeyes-louisiana-kitchen-frisco?adjust_creative=a2JdNtFqB-C38ga_06BHvw&utm_campaign=yelp_api_v3&utm_medium=api_v3_business_search&utm_source=a2JdNtFqB-C38ga_06BHvw", "review_count": 88, "categories": [{"alias": "chicken_wings", "title": "Chicken Wings"}, {"alias": "hotdogs", "title": "Fast Food"}], "rating": 1.5, "coordinates": {"latitude": 33.154339, "longitude": -96.803787}, "transactions": ["delivery"], "price": "$", "location": {"address1": "9185 Preston Rd", "address2": "", "address3": "", "city": "Frisco", "zip_code": "75033", "country": "US", "state": "TX", "display_address": ["9185 Preston Rd", "Frisco, TX 75033"]}, "phone": "+12144364693", "display_phone": "(214) 436-4693", "distance": 2931.592237642825}, {"id": "-KQ-YXlgq9-dlIwbVbRW-A", "alias": "mcdonalds-frisco-11", "name": "McDonald's", "image_url": "https://s3-media3.fl.yelpcdn.com/bphoto/O2KTCMBVqNIlXVUnTlk-eQ/o.jpg", "is_closed": false, "url": "https://www.yelp.com/biz/mcdonalds-frisco-11?adjust_creative=a2JdNtFqB-C38ga_06BHvw&utm_campaign=yelp_api_v3&utm_medium=api_v3_business_search&utm_source=a2JdNtFqB-C38ga_06BHvw", "review_count": 31, "categories": [{"alias": "coffee", "title": "Coffee & Tea"}, {"alias": "burgers", "title": "Burgers"}, {"alias": "hotdogs", "title": "Fast Food"}], "rating": 2.0, "coordinates": {"latitude": 33.17439, "longitude": -96.837403}, "transactions": ["delivery"], "price": "$", "location": {"address1": "5615 Eldorado Prkwy", "address2": null, "address3": null, "city": "Frisco", "zip_code": "75034", "country": "US", "state": "TX", "display_address": ["5615 Eldorado Prkwy", "Frisco, TX 75034"]}, "phone": "+12147050935", "display_phone": "(214) 705-0935", "distance": 2226.6942206682347}, {"id": "JY1CpLWXdTils6iJ6kT7Xw", "alias": "dickeys-barbecue-pit-frisco-3", "name": "Dickey's Barbecue Pit", "image_url": "https://s3-media3.fl.yelpcdn.com/bphoto/wgUuR1RwAUXRHT5tX5GJlQ/o.jpg", "is_closed": false, "url": "https://www.yelp.com/biz/dickeys-barbecue-pit-frisco-3?adjust_creative=a2JdNtFqB-C38ga_06BHvw&utm_campaign=yelp_api_v3&utm_medium=api_v3_business_search&utm_source=a2JdNtFqB-C38ga_06BHvw", "review_count": 19, "categories": [{"alias": "bbq", "title": "Barbeque"}, {"alias": "tradamerican", "title": "American (Traditional)"}, {"alias": "chicken_wings", "title": "Chicken Wings"}], "rating": 2.0, "coordinates": {"latitude": 33.16146, "longitude": -96.83166}, "transactions": ["pickup", "delivery"], "price": "$$", "location": {"address1": "6065 Sports Village Rd", "address2": null, "address3": null, "city": "Frisco", "zip_code": "75034", "country": "US", "state": "TX", "display_address": ["6065 Sports Village Rd", "Frisco, TX 75034"]}, "phone": "+19722929821", "display_phone": "(972) 292-9821", "distance": 833.9488339229093}, {"id": "oXuxRsNrLXx7QmH2MRbBRg", "alias": "wendys-frisco-4", "name": "Wendy's", "image_url": "https://s3-media2.fl.yelpcdn.com/bphoto/x_cIkG_uV7GuHSt8t76QRQ/o.jpg", "is_closed": false, "url": "https://www.yelp.com/biz/wendys-frisco-4?adjust_creative=a2JdNtFqB-C38ga_06BHvw&utm_campaign=yelp_api_v3&utm_medium=api_v3_business_search&utm_source=a2JdNtFqB-C38ga_06BHvw", "review_count": 32, "categories": [{"alias": "hotdogs", "title": "Fast Food"}, {"alias": "burgers", "title": "Burgers"}], "rating": 2.0, "coordinates": {"latitude": 33.174393, "longitude": -96.837981}, "transactions": ["delivery"], "price": "$", "location": {"address1": "5555 El Dorado Parkway", "address2": "", "address3": "", "city": "Frisco", "zip_code": "75033", "country": "US", "state": "TX", "display_address": ["5555 El Dorado Parkway", "Frisco, TX 75033"]}, "phone": "+12147058392", "display_phone": "(214) 705-8392", "distance": 2234.304197460553}, {"id": "APcCju8-e4Pi8wqIM2txIg", "alias": "subway-frisco-25", "name": "Subway", "image_url": "https://s3-media3.fl.yelpcdn.com/bphoto/tH6Cmc23y_2pYg14ESHe1g/o.jpg", "is_closed": false, "url": "https://www.yelp.com/biz/subway-frisco-25?adjust_creative=a2JdNtFqB-C38ga_06BHvw&utm_campaign=yelp_api_v3&utm_medium=api_v3_business_search&utm_source=a2JdNtFqB-C38ga_06BHvw", "review_count": 6, "categories": [{"alias": "sandwiches", "title": "Sandwiches"}], "rating": 3.0, "coordinates": {"latitude": 33.1525315977271, "longitude": -96.8653622975359}, "transactions": ["pickup", "delivery"], "price": "$", "location": {"address1": "2875 Main St", "address2": "Ste 106", "address3": "", "city": "Frisco", "zip_code": "75034", "country": "US", "state": "TX", "display_address": ["2875 Main St", "Ste 106", "Frisco, TX 75034"]}, "phone": "+12148724962", "display_phone": "(214) 872-4962", "distance": 2808.706186208292}, {"id": "wUPD1IWHdyh3nB4cH6e9KQ", "alias": "pizza-hut-frisco-8", "name": "Pizza Hut", "image_url": "https://s3-media2.fl.yelpcdn.com/bphoto/2m5wiTNHHu99sreccaRmlw/o.jpg", "is_closed": false, "url": "https://www.yelp.com/biz/pizza-hut-frisco-8?adjust_creative=a2JdNtFqB-C38ga_06BHvw&utm_campaign=yelp_api_v3&utm_medium=api_v3_business_search&utm_source=a2JdNtFqB-C38ga_06BHvw", "review_count": 12, "categories": [{"alias": "italian", "title": "Italian"}, {"alias": "chicken_wings", "title": "Chicken Wings"}, {"alias": "pizza", "title": "Pizza"}], "rating": 2.5, "coordinates": {"latitude": 33.172995, "longitude": -96.8409714102745}, "transactions": ["delivery"], "price": "$", "location": {"address1": "11445 Dallas Pkwy.", "address2": "Ste 285", "address3": null, "city": "Frisco", "zip_code": "75034", "country": "US", "state": "TX", "display_address": ["11445 Dallas Pkwy.", "Ste 285", "Frisco, TX 75034"]}, "phone": "+12146188770", "display_phone": "(214) 618-8770", "distance": 2129.763695264403}, {"id": "AMrvcVbz1IfBfr6FmqEOtg", "alias": "the-taste-of-mardi-gras-foods-frisco", "name": "The Taste of Mardi Gras Foods", "image_url": "https://s3-media4.fl.yelpcdn.com/bphoto/GVLEd4hnSneeJqW1roo2Rg/o.jpg", "is_closed": false, "url": "https://www.yelp.com/biz/the-taste-of-mardi-gras-foods-frisco?adjust_creative=a2JdNtFqB-C38ga_06BHvw&utm_campaign=yelp_api_v3&utm_medium=api_v3_business_search&utm_source=a2JdNtFqB-C38ga_06BHvw", "review_count": 5, "categories": [{"alias": "cajun", "title": "Cajun/Creole"}, {"alias": "foodstands", "title": "Food Stands"}], "rating": 3.0, "coordinates": {"latitude": 33.15446, "longitude": -96.83064}, "transactions": ["pickup", "delivery"], "location": {"address1": "9215 John W Elliot Dr", "address2": null, "address3": "Frisco Fresh Market", "city": "Frisco", "zip_code": "75034", "country": "US", "state": "TX", "display_address": ["9215 John W Elliot Dr", "Frisco Fresh Market", "Frisco, TX 75034"]}, "phone": "+14695003446", "display_phone": "(469) 500-3446", "distance": 454.1715634769311}, {"id": "q6ML8MCgbh7hZmRxVNCKIA", "alias": "chipotle-mexican-grill-frisco-5", "name": "Chipotle Mexican Grill", "image_url": "https://s3-media2.fl.yelpcdn.com/bphoto/4bjkHjx_1YgTlhvCg6-KZA/o.jpg", "is_closed": false, "url": "https://www.yelp.com/biz/chipotle-mexican-grill-frisco-5?adjust_creative=a2JdNtFqB-C38ga_06BHvw&utm_campaign=yelp_api_v3&utm_medium=api_v3_business_search&utm_source=a2JdNtFqB-C38ga_06BHvw", "review_count": 77, "categories": [{"alias": "hotdogs", "title": "Fast Food"}, {"alias": "mexican", "title": "Mexican"}], "rating": 1.5, "coordinates": {"latitude": 33.1756885, "longitude": -96.8449869}, "transactions": ["delivery"], "location": {"address1": "4770 Eldorado Pkwy", "address2": "Ste 400", "address3": "", "city": "Frisco", "zip_code": "75034", "country": "US", "state": "TX", "display_address": ["4770 Eldorado Pkwy", "Ste 400", "Frisco, TX 75034"]}, "phone": "+14692879052", "display_phone": "(469) 287-9052", "distance": 2529.2401303895626}, {"id": "RURDenJmFqJO__G9Xg8cYw", "alias": "burger-king-frisco", "name": "Burger King", "image_url": "https://s3-media2.fl.yelpcdn.com/bphoto/9BIQKM6YI_eDitBuYiiKcg/o.jpg", "is_closed": false, "url": "https://www.yelp.com/biz/burger-king-frisco?adjust_creative=a2JdNtFqB-C38ga_06BHvw&utm_campaign=yelp_api_v3&utm_medium=api_v3_business_search&utm_source=a2JdNtFqB-C38ga_06BHvw", "review_count": 36, "categories": [{"alias": "hotdogs", "title": "Fast Food"}, {"alias": "burgers", "title": "Burgers"}], "rating": 1.5, "coordinates": {"latitude": 33.1477085565438, "longitude": -96.805204620752}, "transactions": ["delivery"], "price": "$", "location": {"address1": "8725 Preston Rd", "address2": "", "address3": "", "city": "Frisco", "zip_code": "75034", "country": "US", "state": "TX", "display_address": ["8725 Preston Rd", "Frisco, TX 75034"]}, "phone": "+19723351911", "display_phone": "(972) 335-1911", "distance": 2898.149421634995}, {"id": "ir9v6bKKxOjDp718PA5G5Q", "alias": "burgerim-frisco-3", "name": "BurgerIM", "image_url": "https://s3-media2.fl.yelpcdn.com/bphoto/epcKAfG9g3QbqkUv1VwL2A/o.jpg", "is_closed": false, "url": "https://www.yelp.com/biz/burgerim-frisco-3?adjust_creative=a2JdNtFqB-C38ga_06BHvw&utm_campaign=yelp_api_v3&utm_medium=api_v3_business_search&utm_source=a2JdNtFqB-C38ga_06BHvw", "review_count": 11, "categories": [{"alias": "burgers", "title": "Burgers"}, {"alias": "chicken_wings", "title": "Chicken Wings"}, {"alias": "juicebars", "title": "Juice Bars & Smoothies"}], "rating": 2.0, "coordinates": {"latitude": 33.1296106, "longitude": -96.82542847272569}, "transactions": ["pickup", "delivery"], "location": {"address1": "6363 Dallas Pkwy", "address2": "Ste 107", "address3": "", "city": "Frisco", "zip_code": "75034", "country": "US", "state": "TX", "display_address": ["6363 Dallas Pkwy", "Ste 107", "Frisco, TX 75034"]}, "phone": "+14698884363", "display_phone": "(469) 888-4363", "distance": 2909.6385307640094}, {"id": "cX4Zv5vEtsmIgHm6r90LgA", "alias": "pizza-hut-frisco-15", "name": "Pizza Hut", "image_url": "https://s3-media2.fl.yelpcdn.com/bphoto/bDMnmrThU6703Eyk6AyATA/o.jpg", "is_closed": false, "url": "https://www.yelp.com/biz/pizza-hut-frisco-15?adjust_creative=a2JdNtFqB-C38ga_06BHvw&utm_campaign=yelp_api_v3&utm_medium=api_v3_business_search&utm_source=a2JdNtFqB-C38ga_06BHvw", "review_count": 8, "categories": [{"alias": "chicken_wings", "title": "Chicken Wings"}, {"alias": "pizza", "title": "Pizza"}, {"alias": "italian", "title": "Italian"}], "rating": 2.5, "coordinates": {"latitude": 33.133451, "longitude": -96.86658}, "transactions": [], "location": {"address1": "2772 Stonebrook Pkwy", "address2": "Ste 300", "address3": "", "city": "Frisco", "zip_code": "75034", "country": "US", "state": "TX", "display_address": ["2772 Stonebrook Pkwy", "Ste 300", "Frisco, TX 75034"]}, "phone": "+19727122225", "display_phone": "(972) 712-2225", "distance": 3719.8240799019886}, {"id": "cnVsj6X0SCg7gzsm1G3D-Q", "alias": "elevate-cafe-frisco", "name": "Elevate Cafe", "image_url": "", "is_closed": false, "url": "https://www.yelp.com/biz/elevate-cafe-frisco?adjust_creative=a2JdNtFqB-C38ga_06BHvw&utm_campaign=yelp_api_v3&utm_medium=api_v3_business_search&utm_source=a2JdNtFqB-C38ga_06BHvw", "review_count": 1, "categories": [{"alias": "cafes", "title": "Cafes"}], "rating": 5.0, "coordinates": {"latitude": 33.1429391572013, "longitude": -96.855303737089}, "transactions": [], "location": {"address1": "8500 Teel Pkwy", "address2": "", "address3": "", "city": "Frisco", "zip_code": "75034", "country": "US", "state": "TX", "display_address": ["8500 Teel Pkwy", "Frisco, TX 75034"]}, "phone": "+12143879833", "display_phone": "(214) 387-9833", "distance": 2261.062185898087}, {"id": "X16alWsHoP34DBWC68bQWg", "alias": "mod-pizza-frisco", "name": "MOD Pizza", "image_url": "https://s3-media1.fl.yelpcdn.com/bphoto/x4pRFisu5UwgxNr8T2ROTg/o.jpg", "is_closed": false, "url": "https://www.yelp.com/biz/mod-pizza-frisco?adjust_creative=a2JdNtFqB-C38ga_06BHvw&utm_campaign=yelp_api_v3&utm_medium=api_v3_business_search&utm_source=a2JdNtFqB-C38ga_06BHvw", "review_count": 2, "categories": [{"alias": "pizza", "title": "Pizza"}, {"alias": "hotdogs", "title": "Fast Food"}], "rating": 3.0, "coordinates": {"latitude": 33.175743, "longitude": -96.842144}, "transactions": ["delivery"], "location": {"address1": "5110 Eldorado Pkwy", "address2": null, "address3": "", "city": "Frisco", "zip_code": "75033", "country": "US", "state": "TX", "display_address": ["5110 Eldorado Pkwy", "Frisco, TX 75033"]}, "phone": "+14697314318", "display_phone": "(469) 731-4318", "distance": 2455.0094127559037}, {"id": "zxu9YPbSm-2u5MXhGPxZcQ", "alias": "crunchies-eggrolls-and-more-frisco", "name": "Crunchies Eggrolls And More", "image_url": "https://s3-media3.fl.yelpcdn.com/bphoto/-wx0rWSqh1S2hjt9nzNIyQ/o.jpg", "is_closed": false, "url": "https://www.yelp.com/biz/crunchies-eggrolls-and-more-frisco?adjust_creative=a2JdNtFqB-C38ga_06BHvw&utm_campaign=yelp_api_v3&utm_medium=api_v3_business_search&utm_source=a2JdNtFqB-C38ga_06BHvw", "review_count": 1, "categories": [{"alias": "breakfast_brunch", "title": "Breakfast & Brunch"}, {"alias": "chicken_wings", "title": "Chicken Wings"}, {"alias": "pizza", "title": "Pizza"}], "rating": 4.0, "coordinates": {"latitude": 33.15446, "longitude": -96.83064}, "transactions": [], "location": {"address1": "9215 John W Elliott", "address2": null, "address3": "", "city": "Frisco", "zip_code": "75034", "country": "US", "state": "TX", "display_address": ["9215 John W Elliott", "Frisco, TX 75034"]}, "phone": "+17146244115", "display_phone": "(714) 624-4115", "distance": 454.1715634769311}, {"id": "pip9lYKzDTiY1v3eqm349g", "alias": "guy-fieris-flavortown-kitchen-frisco", "name": "Guy Fieri's Flavortown Kitchen", "image_url": "https://s3-media4.fl.yelpcdn.com/bphoto/kjV7zwRBQNvUDXeBz5lOEQ/o.jpg", "is_closed": false, "url": "https://www.yelp.com/biz/guy-fieris-flavortown-kitchen-frisco?adjust_creative=a2JdNtFqB-C38ga_06BHvw&utm_campaign=yelp_api_v3&utm_medium=api_v3_business_search&utm_source=a2JdNtFqB-C38ga_06BHvw", "review_count": 5, "categories": [{"alias": "fooddeliveryservices", "title": "Food Delivery Services"}, {"alias": "burgers", "title": "Burgers"}, {"alias": "chicken_wings", "title": "Chicken Wings"}], "rating": 2.0, "coordinates": {"latitude": 33.125850677490234, "longitude": -96.83163452148438}, "transactions": [], "location": {"address1": "", "address2": null, "address3": null, "city": "Frisco", "zip_code": "75034", "country": "US", "state": "TX", "display_address": ["Frisco, TX 75034"]}, "phone": "+18883953942", "display_phone": "(888) 395-3942", "distance": 2721.3086421537396}, {"id": "gu0isKhH9VBEgQp3YvaMfw", "alias": "sonic-drive-in-frisco-8", "name": "Sonic Drive-In", "image_url": "https://s3-media1.fl.yelpcdn.com/bphoto/47LNX9WbCRhtRqFdBNqvhg/o.jpg", "is_closed": false, "url": "https://www.yelp.com/biz/sonic-drive-in-frisco-8?adjust_creative=a2JdNtFqB-C38ga_06BHvw&utm_campaign=yelp_api_v3&utm_medium=api_v3_business_search&utm_source=a2JdNtFqB-C38ga_06BHvw", "review_count": 20, "categories": [{"alias": "burgers", "title": "Burgers"}, {"alias": "hotdogs", "title": "Fast Food"}, {"alias": "icecream", "title": "Ice Cream & Frozen Yogurt"}], "rating": 1.0, "coordinates": {"latitude": 33.1743216, "longitude": -96.8327114}, "transactions": [], "location": {"address1": "11665 Frisco St", "address2": null, "address3": null, "city": "Frisco", "zip_code": "75033", "country": "US", "state": "TX", "display_address": ["11665 Frisco St", "Frisco, TX 75033"]}, "phone": "+14693626595", "display_phone": "(469) 362-6595", "distance": 2223.15952245796}, {"id": "AHLLMGWR9MObgzi8BwfmAw", "alias": "subway-frisco-34", "name": "Subway", "image_url": "https://s3-media3.fl.yelpcdn.com/bphoto/8wsGR_ThvY_niIRLEHJVIg/o.jpg", "is_closed": false, "url": "https://www.yelp.com/biz/subway-frisco-34?adjust_creative=a2JdNtFqB-C38ga_06BHvw&utm_campaign=yelp_api_v3&utm_medium=api_v3_business_search&utm_source=a2JdNtFqB-C38ga_06BHvw", "review_count": 6, "categories": [{"alias": "sandwiches", "title": "Sandwiches"}], "rating": 1.5, "coordinates": {"latitude": 33.131026, "longitude": -96.82727}, "transactions": ["pickup", "delivery"], "location": {"address1": "6700 Stonebrook Pkwy", "address2": "Ste 100", "address3": null, "city": "Frisco", "zip_code": "75034", "country": "US", "state": "TX", "display_address": ["6700 Stonebrook Pkwy", "Ste 100", "Frisco, TX 75034"]}, "phone": "+19727043198", "display_phone": "(972) 704-3198", "distance": 2708.597375304881}, {"id": "u1sW0RUhC0S5lJbb2lgRjA", "alias": "p-za-kitchen-frisco", "name": "P.Za Kitchen", "image_url": "https://s3-media2.fl.yelpcdn.com/bphoto/htRHXfVUPhR06oxIRMbPyg/o.jpg", "is_closed": false, "url": "https://www.yelp.com/biz/p-za-kitchen-frisco?adjust_creative=a2JdNtFqB-C38ga_06BHvw&utm_campaign=yelp_api_v3&utm_medium=api_v3_business_search&utm_source=a2JdNtFqB-C38ga_06BHvw", "review_count": 9, "categories": [{"alias": "fooddeliveryservices", "title": "Food Delivery Services"}, {"alias": "pizza", "title": "Pizza"}], "rating": 1.0, "coordinates": {"latitude": 33.10349, "longitude": -96.82322}, "transactions": [], "location": {"address1": "", "address2": null, "address3": null, "city": "Frisco", "zip_code": "75034", "country": "US", "state": "TX", "display_address": ["Frisco, TX 75034"]}, "phone": "+18887996601", "display_phone": "(888) 799-6601", "distance": 2721.308642154602}, {"id": "UpwKRczoQ3tFtsBussYmBg", "alias": "janis-cafe-frisco", "name": "Jani's Cafe", "image_url": "https://s3-media2.fl.yelpcdn.com/bphoto/HxziW-zTwbKrMfKs8OA-pQ/o.jpg", "is_closed": false, "url": "https://www.yelp.com/biz/janis-cafe-frisco?adjust_creative=a2JdNtFqB-C38ga_06BHvw&utm_campaign=yelp_api_v3&utm_medium=api_v3_business_search&utm_source=a2JdNtFqB-C38ga_06BHvw", "review_count": 1, "categories": [{"alias": "breakfast_brunch", "title": "Breakfast & Brunch"}], "rating": 2.0, "coordinates": {"latitude": 33.15714, "longitude": -96.80394}, "transactions": ["pickup", "delivery"], "location": {"address1": "9741 Preston Rd", "address2": "Ste 501", "address3": null, "city": "Frisco", "zip_code": "75033", "country": "US", "state": "TX", "display_address": ["9741 Preston Rd", "Ste 501", "Frisco, TX 75033"]}, "phone": "+14698884012", "display_phone": "(469) 888-4012", "distance": 2918.3463380350736}, {"id": "TkXqAEK6DsbuMM32YtUQDA", "alias": "its-just-sliders-and-pies-frisco", "name": "It's Just Sliders & Pies", "image_url": "", "is_closed": false, "url": "https://www.yelp.com/biz/its-just-sliders-and-pies-frisco?adjust_creative=a2JdNtFqB-C38ga_06BHvw&utm_campaign=yelp_api_v3&utm_medium=api_v3_business_search&utm_source=a2JdNtFqB-C38ga_06BHvw", "review_count": 2, "categories": [{"alias": "burgers", "title": "Burgers"}], "rating": 1.0, "coordinates": {"latitude": 33.173752, "longitude": -96.840621}, "transactions": [], "location": {"address1": "11555 Dallas Pkwy", "address2": "", "address3": null, "city": "Frisco", "zip_code": "75034", "country": "US", "state": "TX", "display_address": ["11555 Dallas Pkwy", "Frisco, TX 75034"]}, "phone": "", "display_phone": "", "distance": 2198.1685971083175}], "absolute total": 145, "total": 145}