{"league": "MLS", "team": "LA Galaxy", "stadium": "Dignity Health Sports Park", "stadium latitude": 33.864000000000004, "stadium longitude": -118.26100000000001, "radius": "3000 meters", "city": "Carson", "state": "California", "businesses": [{"id": "26qU1-u0hSYOjYDaqIcGPw", "alias": "yo-way-eatery-gardena-2", "name": "Yo-Way Eatery", "image_url": "https://s3-media3.fl.yelpcdn.com/bphoto/gofAbcU3fa_cWE5gIxvOcw/o.jpg", "is_closed": false, "url": "https://www.yelp.com/biz/yo-way-eatery-gardena-2?adjust_creative=a2JdNtFqB-C38ga_06BHvw&utm_campaign=yelp_api_v3&utm_medium=api_v3_business_search&utm_source=a2JdNtFqB-C38ga_06BHvw", "review_count": 883, "categories": [{"alias": "juicebars", "title": "Juice Bars & Smoothies"}, {"alias": "icecream", "title": "Ice Cream & Frozen Yogurt"}, {"alias": "sandwiches", "title": "Sandwiches"}], "rating": 5.0, "coordinates": {"latitude": 33.8678648, "longitude": -118.2911208}, "transactions": ["pickup", "delivery"], "price": "$", "location": {"address1": "17901 S Vermont", "address2": "Ste D", "address3": "", "city": "Gardena", "zip_code": "90248", "country": "US", "state": "CA", "display_address": ["17901 S Vermont", "Ste D", "Gardena, CA 90248"]}, "phone": "+14242281101", "display_phone": "(424) 228-1101", "distance": 2814.0584436066592}, {"id": "Um-cQV4q8xF7Ue4KULWRxA", "alias": "chinollo-carson", "name": "Chinollo", "image_url": "https://s3-media1.fl.yelpcdn.com/bphoto/4tkpSXpk3wljfP5lzRbJnw/o.jpg", "is_closed": false, "url": "https://www.yelp.com/biz/chinollo-carson?adjust_creative=a2JdNtFqB-C38ga_06BHvw&utm_campaign=yelp_api_v3&utm_medium=api_v3_business_search&utm_source=a2JdNtFqB-C38ga_06BHvw", "review_count": 420, "categories": [{"alias": "newamerican", "title": "American (New)"}, {"alias": "juicebars", "title": "Juice Bars & Smoothies"}], "rating": 4.5, "coordinates": {"latitude": 33.86234, "longitude": -118.26684}, "transactions": ["delivery"], "price": "$$", "location": {"address1": "18415 S Avalon Blvd", "address2": null, "address3": "", "city": "Carson", "zip_code": "90746", "country": "US", "state": "CA", "display_address": ["18415 S Avalon Blvd", "Carson, CA 90746"]}, "phone": "+14245282110", "display_phone": "(424) 528-2110", "distance": 595.6353240161025}, {"id": "wqDtaV6wB5EZ0OUKFMxWLw", "alias": "beach-city-tacos-carson", "name": "Beach City Tacos", "image_url": "https://s3-media2.fl.yelpcdn.com/bphoto/rz4xfLI-pl_NjQhagie4Bg/o.jpg", "is_closed": false, "url": "https://www.yelp.com/biz/beach-city-tacos-carson?adjust_creative=a2JdNtFqB-C38ga_06BHvw&utm_campaign=yelp_api_v3&utm_medium=api_v3_business_search&utm_source=a2JdNtFqB-C38ga_06BHvw", "review_count": 51, "categories": [{"alias": "foodstands", "title": "Food Stands"}, {"alias": "mexican", "title": "Mexican"}], "rating": 5.0, "coordinates": {"latitude": 33.88446, "longitude": -118.22315}, "transactions": [], "price": "$$", "location": {"address1": "", "address2": "", "address3": null, "city": "Carson", "zip_code": "90220", "country": "US", "state": "CA", "display_address": ["Carson, CA 90220"]}, "phone": "+13106131687", "display_phone": "(310) 613-1687", "distance": 3002.653146912827}, {"id": "zcTsUa_ER96JXO75nUcDOw", "alias": "restaurant-917-carson", "name": "Restaurant 917", "image_url": "https://s3-media1.fl.yelpcdn.com/bphoto/0Jv5VYP0tawA0l2rWG3PLQ/o.jpg", "is_closed": false, "url": "https://www.yelp.com/biz/restaurant-917-carson?adjust_creative=a2JdNtFqB-C38ga_06BHvw&utm_campaign=yelp_api_v3&utm_medium=api_v3_business_search&utm_source=a2JdNtFqB-C38ga_06BHvw", "review_count": 205, "categories": [{"alias": "newamerican", "title": "American (New)"}, {"alias": "cocktailbars", "title": "Cocktail Bars"}], "rating": 4.5, "coordinates": {"latitude": 33.8510213, "longitude": -118.2801942}, "transactions": [], "price": "$$$", "location": {"address1": "19800 S Main St", "address2": null, "address3": null, "city": "Carson", "zip_code": "90745", "country": "US", "state": "CA", "display_address": ["19800 S Main St", "Carson, CA 90745"]}, "phone": "+17702907917", "display_phone": "(770) 290-7917", "distance": 2249.0957737690605}, {"id": "qzCi42NBBnGtyubcRARKcg", "alias": "eatalian-gardena-2", "name": "Eatalian ", "image_url": "https://s3-media2.fl.yelpcdn.com/bphoto/Pr2xF53oEaz7nnDZVGnPTA/o.jpg", "is_closed": false, "url": "https://www.yelp.com/biz/eatalian-gardena-2?adjust_creative=a2JdNtFqB-C38ga_06BHvw&utm_campaign=yelp_api_v3&utm_medium=api_v3_business_search&utm_source=a2JdNtFqB-C38ga_06BHvw", "review_count": 2745, "categories": [{"alias": "italian", "title": "Italian"}, {"alias": "pizza", "title": "Pizza"}], "rating": 4.0, "coordinates": {"latitude": 33.890937, "longitude": -118.278395906746}, "transactions": ["pickup", "delivery"], "price": "$$", "location": {"address1": "15500 S Broadway", "address2": "", "address3": "", "city": "Gardena", "zip_code": "90248", "country": "US", "state": "CA", "display_address": ["15500 S Broadway", "Gardena, CA 90248"]}, "phone": "+13105328880", "display_phone": "(310) 532-8880", "distance": 3398.618805258481}, {"id": "Zsdk9Hmb3JGl5k0SJbP6Zg", "alias": "n-café-gardena", "name": "N Café", "image_url": "https://s3-media1.fl.yelpcdn.com/bphoto/AdFaOlaNt7hIynV23bm7mg/o.jpg", "is_closed": false, "url": "https://www.yelp.com/biz/n-caf%C3%A9-gardena?adjust_creative=a2JdNtFqB-C38ga_06BHvw&utm_campaign=yelp_api_v3&utm_medium=api_v3_business_search&utm_source=a2JdNtFqB-C38ga_06BHvw", "review_count": 77, "categories": [{"alias": "japanese", "title": "Japanese"}, {"alias": "cafes", "title": "Cafes"}, {"alias": "sandwiches", "title": "Sandwiches"}], "rating": 4.5, "coordinates": {"latitude": 33.87861, "longitude": -118.29096}, "transactions": ["pickup", "delivery"], "location": {"address1": "16814 South Vermont Ave", "address2": null, "address3": "", "city": "Gardena", "zip_code": "90247", "country": "US", "state": "CA", "display_address": ["16814 South Vermont Ave", "Gardena, CA 90247"]}, "phone": "+13109650804", "display_phone": "(310) 965-0804", "distance": 3191.151029655043}, {"id": "mCGl8QDVTNWjpH0s3FnCVg", "alias": "gardena-bowl-coffee-shop-gardena", "name": "Gardena Bowl Coffee Shop", "image_url": "https://s3-media3.fl.yelpcdn.com/bphoto/2gu_2Gi-p2QBmfBWqlSDPQ/o.jpg", "is_closed": false, "url": "https://www.yelp.com/biz/gardena-bowl-coffee-shop-gardena?adjust_creative=a2JdNtFqB-C38ga_06BHvw&utm_campaign=yelp_api_v3&utm_medium=api_v3_business_search&utm_source=a2JdNtFqB-C38ga_06BHvw", "review_count": 739, "categories": [{"alias": "hawaiian", "title": "Hawaiian"}, {"alias": "japanese", "title": "Japanese"}, {"alias": "tradamerican", "title": "American (Traditional)"}], "rating": 4.0, "coordinates": {"latitude": 33.8881299, "longitude": -118.29223}, "transactions": ["pickup", "delivery"], "price": "$$", "location": {"address1": "15707 S Vermont Ave", "address2": "", "address3": "", "city": "Gardena", "zip_code": "90247", "country": "US", "state": "CA", "display_address": ["15707 S Vermont Ave", "Gardena, CA 90247"]}, "phone": "+13105320820", "display_phone": "(310) 532-0820", "distance": 3930.5866951406606}, {"id": "dJSSxldb0F4JMAdA-_tD2g", "alias": "the-green-olive-compton-2", "name": "The Green Olive", "image_url": "https://s3-media3.fl.yelpcdn.com/bphoto/MCEhmDKulr-IM2VbYsAXbA/o.jpg", "is_closed": false, "url": "https://www.yelp.com/biz/the-green-olive-compton-2?adjust_creative=a2JdNtFqB-C38ga_06BHvw&utm_campaign=yelp_api_v3&utm_medium=api_v3_business_search&utm_source=a2JdNtFqB-C38ga_06BHvw", "review_count": 460, "categories": [{"alias": "mediterranean", "title": "Mediterranean"}, {"alias": "salad", "title": "Salad"}, {"alias": "wraps", "title": "Wraps"}], "rating": 4.5, "coordinates": {"latitude": 33.8682022094727, "longitude": -118.237014770508}, "transactions": ["pickup", "delivery"], "price": "$$", "location": {"address1": "855 W Victoria St", "address2": "", "address3": "", "city": "Compton", "zip_code": "90220", "country": "US", "state": "CA", "display_address": ["855 W Victoria St", "Compton, CA 90220"]}, "phone": "+13106032203", "display_phone": "(310) 603-2203", "distance": 2263.308661527793}, {"id": "ArYbZ9C3ZkDAThVaTiOU2A", "alias": "the-green-olive-gardena-2", "name": "The Green Olive", "image_url": "https://s3-media4.fl.yelpcdn.com/bphoto/YX6q-1a1tX44zI1tEFZARA/o.jpg", "is_closed": false, "url": "https://www.yelp.com/biz/the-green-olive-gardena-2?adjust_creative=a2JdNtFqB-C38ga_06BHvw&utm_campaign=yelp_api_v3&utm_medium=api_v3_business_search&utm_source=a2JdNtFqB-C38ga_06BHvw", "review_count": 392, "categories": [{"alias": "mediterranean", "title": "Mediterranean"}, {"alias": "mideastern", "title": "Middle Eastern"}], "rating": 4.5, "coordinates": {"latitude": 33.8574361720605, "longitude": -118.289903085983}, "transactions": ["pickup", "delivery"], "price": "$$", "location": {"address1": "19032 S Vermont Ave", "address2": "", "address3": "", "city": "Gardena", "zip_code": "90248", "country": "US", "state": "CA", "display_address": ["19032 S Vermont Ave", "Gardena, CA 90248"]}, "phone": "+13108080050", "display_phone": "(310) 808-0050", "distance": 2766.785147771318}, {"id": "TXkYxxCBbRBvK5-CdD7lcw", "alias": "otop-thai-gardena", "name": "OTOP Thai", "image_url": "https://s3-media1.fl.yelpcdn.com/bphoto/Atq9XXHuIphM6FZNymD1Hg/o.jpg", "is_closed": false, "url": "https://www.yelp.com/biz/otop-thai-gardena?adjust_creative=a2JdNtFqB-C38ga_06BHvw&utm_campaign=yelp_api_v3&utm_medium=api_v3_business_search&utm_source=a2JdNtFqB-C38ga_06BHvw", "review_count": 277, "categories": [{"alias": "thai", "title": "Thai"}], "rating": 4.5, "coordinates": {"latitude": 33.8784242, "longitude": -118.2907288}, "transactions": ["pickup", "delivery"], "price": "$", "location": {"address1": "16822 S Vermont Ave", "address2": "", "address3": "", "city": "Gardena", "zip_code": "90247", "country": "US", "state": "CA", "display_address": ["16822 S Vermont Ave", "Gardena, CA 90247"]}, "phone": "+13107151012", "display_phone": "(310) 715-1012", "distance": 3178.961032362556}, {"id": "BstZ9cz7P7fgdn-LbOUcHw", "alias": "apple-spice-junction-rancho-dominguez", "name": "Apple Spice Junction", "image_url": "https://s3-media1.fl.yelpcdn.com/bphoto/fTV13xwtc5eFjgpwkko2AQ/o.jpg", "is_closed": false, "url": "https://www.yelp.com/biz/apple-spice-junction-rancho-dominguez?adjust_creative=a2JdNtFqB-C38ga_06BHvw&utm_campaign=yelp_api_v3&utm_medium=api_v3_business_search&utm_source=a2JdNtFqB-C38ga_06BHvw", "review_count": 143, "categories": [{"alias": "sandwiches", "title": "Sandwiches"}, {"alias": "catering", "title": "Caterers"}], "rating": 4.5, "coordinates": {"latitude": 33.868463, "longitude": -118.236184}, "transactions": ["pickup", "delivery"], "price": "$$", "location": {"address1": "801 W Victoria St", "address2": "Ste E", "address3": "", "city": "Rancho Dominguez", "zip_code": "90220", "country": "US", "state": "CA", "display_address": ["801 W Victoria St", "Ste E", "Rancho Dominguez, CA 90220"]}, "phone": "+13108855222", "display_phone": "(310) 885-5222", "distance": 2344.377916571008}, {"id": "EnlrlXrK5nNG1J3WjxIEHQ", "alias": "pollo-ala-brasa-gardena", "name": "Pollo Ala Brasa", "image_url": "https://s3-media2.fl.yelpcdn.com/bphoto/kLeTGPWaQwTFJWrpC9uDZQ/o.jpg", "is_closed": false, "url": "https://www.yelp.com/biz/pollo-ala-brasa-gardena?adjust_creative=a2JdNtFqB-C38ga_06BHvw&utm_campaign=yelp_api_v3&utm_medium=api_v3_business_search&utm_source=a2JdNtFqB-C38ga_06BHvw", "review_count": 443, "categories": [{"alias": "peruvian", "title": "Peruvian"}], "rating": 4.0, "coordinates": {"latitude": 33.88083, "longitude": -118.29147}, "transactions": ["delivery"], "price": "$", "location": {"address1": "16527 S Vermont Ave", "address2": "", "address3": "", "city": "Gardena", "zip_code": "90247", "country": "US", "state": "CA", "display_address": ["16527 S Vermont Ave", "Gardena, CA 90247"]}, "phone": "+13107152494", "display_phone": "(310) 715-2494", "distance": 3377.7110005986124}, {"id": "1HSQlqV8Vn60VBikjwHE0A", "alias": "gardena-bowl-gardena", "name": "Gardena Bowl", "image_url": "https://s3-media4.fl.yelpcdn.com/bphoto/3AM8GjhtYDQ1xHipQHLyCg/o.jpg", "is_closed": false, "url": "https://www.yelp.com/biz/gardena-bowl-gardena?adjust_creative=a2JdNtFqB-C38ga_06BHvw&utm_campaign=yelp_api_v3&utm_medium=api_v3_business_search&utm_source=a2JdNtFqB-C38ga_06BHvw", "review_count": 166, "categories": [{"alias": "poolhalls", "title": "Pool Halls"}, {"alias": "bowling", "title": "Bowling"}, {"alias": "hawaiian", "title": "Hawaiian"}], "rating": 4.5, "coordinates": {"latitude": 33.888126373291, "longitude": -118.29222869873}, "transactions": [], "price": "$", "location": {"address1": "15707 S Vermont Ave", "address2": "", "address3": "", "city": "Gardena", "zip_code": "90247", "country": "US", "state": "CA", "display_address": ["15707 S Vermont Ave", "Gardena, CA 90247"]}, "phone": "+13103241244", "display_phone": "(310) 324-1244", "distance": 3930.5866951406606}, {"id": "chcRndLhXuuRo3t-aQObtg", "alias": "socal-vibes-carson-10", "name": "Socal Vibes", "image_url": "https://s3-media3.fl.yelpcdn.com/bphoto/lbdvuIzmVRqYae8DLGshqQ/o.jpg", "is_closed": false, "url": "https://www.yelp.com/biz/socal-vibes-carson-10?adjust_creative=a2JdNtFqB-C38ga_06BHvw&utm_campaign=yelp_api_v3&utm_medium=api_v3_business_search&utm_source=a2JdNtFqB-C38ga_06BHvw", "review_count": 109, "categories": [{"alias": "breweries", "title": "Breweries"}, {"alias": "cideries", "title": "Cideries"}, {"alias": "newamerican", "title": "American (New)"}], "rating": 4.5, "coordinates": {"latitude": 33.868892, "longitude": -118.275095}, "transactions": ["pickup", "delivery"], "price": "$$", "location": {"address1": "17812 S Main St", "address2": null, "address3": "", "city": "Carson", "zip_code": "90248", "country": "US", "state": "CA", "display_address": ["17812 S Main St", "Carson, CA 90248"]}, "phone": "+14243402385", "display_phone": "(424) 340-2385", "distance": 1405.737462858116}, {"id": "3rRj7GFz4u8rwIxb7wTGdQ", "alias": "orleans-and-york-deli-carson-carson", "name": "Orleans & York Deli Carson", "image_url": "https://s3-media3.fl.yelpcdn.com/bphoto/zHu-OCG--rmScYDufHf-xw/o.jpg", "is_closed": false, "url": "https://www.yelp.com/biz/orleans-and-york-deli-carson-carson?adjust_creative=a2JdNtFqB-C38ga_06BHvw&utm_campaign=yelp_api_v3&utm_medium=api_v3_business_search&utm_source=a2JdNtFqB-C38ga_06BHvw", "review_count": 379, "categories": [{"alias": "delis", "title": "Delis"}, {"alias": "cajun", "title": "Cajun/Creole"}], "rating": 4.0, "coordinates": {"latitude": 33.858621, "longitude": -118.264408}, "transactions": ["pickup", "delivery"], "price": "$$", "location": {"address1": "673 E University Dr", "address2": null, "address3": "", "city": "Carson", "zip_code": "90746", "country": "US", "state": "CA", "display_address": ["673 E University Dr", "Carson, CA 90746"]}, "phone": "+13103243100", "display_phone": "(310) 324-3100", "distance": 675.844369845804}, {"id": "Xrr43w7OFe7NxREt3KWBLQ", "alias": "bellys-sliders-and-wings-carson", "name": "Belly's Sliders & Wings", "image_url": "https://s3-media3.fl.yelpcdn.com/bphoto/Ba4AakZOOZ46ZrJzDUi3-w/o.jpg", "is_closed": false, "url": "https://www.yelp.com/biz/bellys-sliders-and-wings-carson?adjust_creative=a2JdNtFqB-C38ga_06BHvw&utm_campaign=yelp_api_v3&utm_medium=api_v3_business_search&utm_source=a2JdNtFqB-C38ga_06BHvw", "review_count": 39, "categories": [{"alias": "catering", "title": "Caterers"}, {"alias": "foodtrucks", "title": "Food Trucks"}, {"alias": "waffles", "title": "Waffles"}], "rating": 4.5, "coordinates": {"latitude": 33.8953, "longitude": -118.22728}, "transactions": [], "price": "$$", "location": {"address1": null, "address2": null, "address3": "", "city": "Carson", "zip_code": "90220", "country": "US", "state": "CA", "display_address": ["Carson, CA 90220"]}, "phone": "+14242425554", "display_phone": "(424) 242-5554", "distance": 3002.653146912827}, {"id": "VqKRf_buh4P2sagiafQ5wA", "alias": "cherrystones-grill-and-grotto-gardena-2", "name": "Cherrystones Grill & Grotto", "image_url": "https://s3-media2.fl.yelpcdn.com/bphoto/z1CZNfMq0bQOkCKzxT89sg/o.jpg", "is_closed": false, "url": "https://www.yelp.com/biz/cherrystones-grill-and-grotto-gardena-2?adjust_creative=a2JdNtFqB-C38ga_06BHvw&utm_campaign=yelp_api_v3&utm_medium=api_v3_business_search&utm_source=a2JdNtFqB-C38ga_06BHvw", "review_count": 125, "categories": [{"alias": "japanese", "title": "Japanese"}, {"alias": "hawaiian", "title": "Hawaiian"}, {"alias": "korean", "title": "Korean"}], "rating": 4.5, "coordinates": {"latitude": 33.8904511735931, "longitude": -118.292380447346}, "transactions": ["delivery"], "price": "$$", "location": {"address1": "15501 S Vermont Ave", "address2": "", "address3": "", "city": "Gardena", "zip_code": "90247", "country": "US", "state": "CA", "display_address": ["15501 S Vermont Ave", "Gardena, CA 90247"]}, "phone": "+13103298200", "display_phone": "(310) 329-8200", "distance": 4128.352002422074}, {"id": "MJgnMKwNBvlitpazOXfGIw", "alias": "el-taco-charro-carson", "name": "El Taco Charro", "image_url": "https://s3-media3.fl.yelpcdn.com/bphoto/bjE6e5wPsfQBidvG76lqdA/o.jpg", "is_closed": false, "url": "https://www.yelp.com/biz/el-taco-charro-carson?adjust_creative=a2JdNtFqB-C38ga_06BHvw&utm_campaign=yelp_api_v3&utm_medium=api_v3_business_search&utm_source=a2JdNtFqB-C38ga_06BHvw", "review_count": 306, "categories": [{"alias": "mexican", "title": "Mexican"}, {"alias": "breakfast_brunch", "title": "Breakfast & Brunch"}], "rating": 4.0, "coordinates": {"latitude": 33.83975, "longitude": -118.25817}, "transactions": [], "price": "$", "location": {"address1": "940 E Dominguez St", "address2": "Ste P", "address3": "", "city": "Carson", "zip_code": "90746", "country": "US", "state": "CA", "display_address": ["940 E Dominguez St", "Ste P", "Carson, CA 90746"]}, "phone": "+13105384096", "display_phone": "(310) 538-4096", "distance": 2699.3688025728607}, {"id": "MrKdZYIub_6dIDNFAjQ0jQ", "alias": "el-antojito-gardena", "name": "El Antojito", "image_url": "https://s3-media1.fl.yelpcdn.com/bphoto/eerbUfBz_4POt_RWqj_-jw/o.jpg", "is_closed": false, "url": "https://www.yelp.com/biz/el-antojito-gardena?adjust_creative=a2JdNtFqB-C38ga_06BHvw&utm_campaign=yelp_api_v3&utm_medium=api_v3_business_search&utm_source=a2JdNtFqB-C38ga_06BHvw", "review_count": 549, "categories": [{"alias": "mexican", "title": "Mexican"}, {"alias": "foodtrucks", "title": "Food Trucks"}], "rating": 4.0, "coordinates": {"latitude": 33.879617, "longitude": -118.28286}, "transactions": ["pickup", "delivery"], "price": "$", "location": {"address1": "16717 S Figueroa St", "address2": "", "address3": "", "city": "Gardena", "zip_code": "90248", "country": "US", "state": "CA", "display_address": ["16717 S Figueroa St", "Gardena, CA 90248"]}, "phone": "+13107696951", "display_phone": "(310) 769-6951", "distance": 2662.449347477663}, {"id": "VqKCqrOhia4Cy-CJ32OTJg", "alias": "ferraros-on-the-hill-compton", "name": "Ferraro's On The Hill", "image_url": "https://s3-media1.fl.yelpcdn.com/bphoto/DXYG_8Uqcs76WVRdATTwYg/o.jpg", "is_closed": false, "url": "https://www.yelp.com/biz/ferraros-on-the-hill-compton?adjust_creative=a2JdNtFqB-C38ga_06BHvw&utm_campaign=yelp_api_v3&utm_medium=api_v3_business_search&utm_source=a2JdNtFqB-C38ga_06BHvw", "review_count": 179, "categories": [{"alias": "italian", "title": "Italian"}, {"alias": "pizza", "title": "Pizza"}, {"alias": "sandwiches", "title": "Sandwiches"}], "rating": 4.0, "coordinates": {"latitude": 33.8679338, "longitude": -118.2374363}, "transactions": ["pickup", "delivery"], "price": "$$", "location": {"address1": "901 W Victoria St", "address2": "", "address3": "", "city": "Compton", "zip_code": "90220", "country": "US", "state": "CA", "display_address": ["901 W Victoria St", "Compton, CA 90220"]}, "phone": "+13108853465", "display_phone": "(310) 885-3465", "distance": 2230.775002288036}, {"id": "sEu7xnh9_g8pOJmlCbA1sA", "alias": "tak-e-sushi-and-rolls-carson", "name": "Tak-e sushi & rolls", "image_url": "https://s3-media1.fl.yelpcdn.com/bphoto/3cpXC00i_4l-5fQm_F6Yjw/o.jpg", "is_closed": false, "url": "https://www.yelp.com/biz/tak-e-sushi-and-rolls-carson?adjust_creative=a2JdNtFqB-C38ga_06BHvw&utm_campaign=yelp_api_v3&utm_medium=api_v3_business_search&utm_source=a2JdNtFqB-C38ga_06BHvw", "review_count": 104, "categories": [{"alias": "sushi", "title": "Sushi Bars"}, {"alias": "japanese", "title": "Japanese"}], "rating": 4.0, "coordinates": {"latitude": 33.8417298168169, "longitude": -118.285004496574}, "transactions": ["pickup", "delivery"], "price": "$$", "location": {"address1": "20804 Figueroa St", "address2": "", "address3": null, "city": "Carson", "zip_code": "90745", "country": "US", "state": "CA", "display_address": ["20804 Figueroa St", "Carson, CA 90745"]}, "phone": "+13103473201", "display_phone": "(310) 347-3201", "distance": 3323.528117962741}, {"id": "MLs5rmHQGYvDVjjfSCgi6g", "alias": "rockin-cajun-seafood-and-grill-carson-2", "name": "Rockin' Cajun Seafood And Grill", "image_url": "https://s3-media3.fl.yelpcdn.com/bphoto/nEoDujsxRMZa7YAFupS5XA/o.jpg", "is_closed": false, "url": "https://www.yelp.com/biz/rockin-cajun-seafood-and-grill-carson-2?adjust_creative=a2JdNtFqB-C38ga_06BHvw&utm_campaign=yelp_api_v3&utm_medium=api_v3_business_search&utm_source=a2JdNtFqB-C38ga_06BHvw", "review_count": 228, "categories": [{"alias": "cajun", "title": "Cajun/Creole"}, {"alias": "seafood", "title": "Seafood"}], "rating": 4.0, "coordinates": {"latitude": 33.839726, "longitude": -118.258168}, "transactions": ["pickup", "delivery"], "price": "$$", "location": {"address1": "940 E Dominguez St", "address2": "Ste C", "address3": "", "city": "Carson", "zip_code": "90746", "country": "US", "state": "CA", "display_address": ["940 E Dominguez St", "Ste C", "Carson, CA 90746"]}, "phone": "+13109659799", "display_phone": "(310) 965-9799", "distance": 2699.3688025728607}, {"id": "IX2uEy55gm_JFvgIc4wyUA", "alias": "knox-deli-torrance-2", "name": "Knox Deli", "image_url": "https://s3-media2.fl.yelpcdn.com/bphoto/_6IPRJBPKJT7ufrKHzBjlQ/o.jpg", "is_closed": false, "url": "https://www.yelp.com/biz/knox-deli-torrance-2?adjust_creative=a2JdNtFqB-C38ga_06BHvw&utm_campaign=yelp_api_v3&utm_medium=api_v3_business_search&utm_source=a2JdNtFqB-C38ga_06BHvw", "review_count": 57, "categories": [{"alias": "delis", "title": "Delis"}, {"alias": "coffee", "title": "Coffee & Tea"}, {"alias": "sandwiches", "title": "Sandwiches"}], "rating": 4.5, "coordinates": {"latitude": 33.8548375566216, "longitude": -118.291619449418}, "transactions": ["pickup", "delivery"], "price": "$", "location": {"address1": "19401 S Vermont Ave", "address2": "Ste I-100", "address3": "", "city": "Torrance", "zip_code": "90502", "country": "US", "state": "CA", "display_address": ["19401 S Vermont Ave", "Ste I-100", "Torrance, CA 90502"]}, "phone": "+13105329985", "display_phone": "(310) 532-9985", "distance": 3005.2702974573276}, {"id": "DF8gChy9b1KYZx1SzaaAOQ", "alias": "the-big-burger-carson", "name": "The Big Burger", "image_url": "https://s3-media3.fl.yelpcdn.com/bphoto/bGGaWUmiJTUjqeCFR91pFw/o.jpg", "is_closed": false, "url": "https://www.yelp.com/biz/the-big-burger-carson?adjust_creative=a2JdNtFqB-C38ga_06BHvw&utm_campaign=yelp_api_v3&utm_medium=api_v3_business_search&utm_source=a2JdNtFqB-C38ga_06BHvw", "review_count": 229, "categories": [{"alias": "burgers", "title": "Burgers"}], "rating": 4.0, "coordinates": {"latitude": 33.8679224, "longitude": -118.2658751}, "transactions": ["delivery"], "price": "$", "location": {"address1": "17940 Avalon Blvd", "address2": "", "address3": "", "city": "Carson", "zip_code": "90746", "country": "US", "state": "CA", "display_address": ["17940 Avalon Blvd", "Carson, CA 90746"]}, "phone": "+13105323715", "display_phone": "(310) 532-3715", "distance": 560.6263587602608}, {"id": "IPMb6Hkvi5DEyghsvPK1OQ", "alias": "los-3-pollos-gardena", "name": "Los 3 Pollos", "image_url": "https://s3-media1.fl.yelpcdn.com/bphoto/WHpIQKjQINFostXSXJYR8A/o.jpg", "is_closed": false, "url": "https://www.yelp.com/biz/los-3-pollos-gardena?adjust_creative=a2JdNtFqB-C38ga_06BHvw&utm_campaign=yelp_api_v3&utm_medium=api_v3_business_search&utm_source=a2JdNtFqB-C38ga_06BHvw", "review_count": 81, "categories": [{"alias": "mexican", "title": "Mexican"}, {"alias": "chickenshop", "title": "Chicken Shop"}], "rating": 4.0, "coordinates": {"latitude": 33.889357, "longitude": -118.278069}, "transactions": ["pickup", "delivery"], "price": "$", "location": {"address1": "15628 S Broadway St", "address2": "", "address3": "", "city": "Gardena", "zip_code": "90248", "country": "US", "state": "CA", "display_address": ["15628 S Broadway St", "Gardena, CA 90248"]}, "phone": "+13105388846", "display_phone": "(310) 538-8846", "distance": 3230.021861880741}, {"id": "5ZtEfap7NqDDUAc81HEDdw", "alias": "the-green-chili-compton-2", "name": "The Green Chili", "image_url": "https://s3-media2.fl.yelpcdn.com/bphoto/TOZtP5ZCJANOs-eBvYsBJg/o.jpg", "is_closed": false, "url": "https://www.yelp.com/biz/the-green-chili-compton-2?adjust_creative=a2JdNtFqB-C38ga_06BHvw&utm_campaign=yelp_api_v3&utm_medium=api_v3_business_search&utm_source=a2JdNtFqB-C38ga_06BHvw", "review_count": 72, "categories": [{"alias": "mexican", "title": "Mexican"}], "rating": 4.0, "coordinates": {"latitude": 33.86804, "longitude": -118.23683}, "transactions": ["pickup", "delivery"], "price": "$", "location": {"address1": "855 W Victoria St", "address2": "", "address3": "", "city": "Compton", "zip_code": "90220", "country": "US", "state": "CA", "display_address": ["855 W Victoria St", "Compton, CA 90220"]}, "phone": "+13106321230", "display_phone": "(310) 632-1230", "distance": 2276.3777341069517}, {"id": "fT4e-aTJSbhWB4-WX01iBg", "alias": "salads-2000-compton", "name": "Salads 2000", "image_url": "https://s3-media3.fl.yelpcdn.com/bphoto/XL6XlxMt0QC68M2kCAo9wA/o.jpg", "is_closed": false, "url": "https://www.yelp.com/biz/salads-2000-compton?adjust_creative=a2JdNtFqB-C38ga_06BHvw&utm_campaign=yelp_api_v3&utm_medium=api_v3_business_search&utm_source=a2JdNtFqB-C38ga_06BHvw", "review_count": 82, "categories": [{"alias": "newamerican", "title": "American (New)"}, {"alias": "salad", "title": "Salad"}], "rating": 4.0, "coordinates": {"latitude": 33.868405, "longitude": -118.237453}, "transactions": ["pickup", "delivery"], "price": "$", "location": {"address1": "901 W Victoria St", "address2": "Ste A2", "address3": "", "city": "Compton", "zip_code": "90220", "country": "US", "state": "CA", "display_address": ["901 W Victoria St", "Ste A2", "Compton, CA 90220"]}, "phone": "+13106355738", "display_phone": "(310) 635-5738", "distance": 2230.8921022264008}, {"id": "n3u9nDl8uqlWLgRUBYjf4g", "alias": "pacific-noodle-house-compton", "name": "Pacific Noodle House", "image_url": "https://s3-media1.fl.yelpcdn.com/bphoto/VasWnp7KUrv_BPlLxpEEQA/o.jpg", "is_closed": false, "url": "https://www.yelp.com/biz/pacific-noodle-house-compton?adjust_creative=a2JdNtFqB-C38ga_06BHvw&utm_campaign=yelp_api_v3&utm_medium=api_v3_business_search&utm_source=a2JdNtFqB-C38ga_06BHvw", "review_count": 158, "categories": [{"alias": "vietnamese", "title": "Vietnamese"}, {"alias": "noodles", "title": "Noodles"}], "rating": 4.0, "coordinates": {"latitude": 33.8679338, "longitude": -118.2374363}, "transactions": ["pickup"], "price": "$", "location": {"address1": "901 W Victoria St", "address2": null, "address3": "", "city": "Compton", "zip_code": "90220", "country": "US", "state": "CA", "display_address": ["901 W Victoria St", "Compton, CA 90220"]}, "phone": "+13106698221", "display_phone": "(310) 669-8221", "distance": 2230.8921022264008}, {"id": "bzNwIQNeuYalo3Nu1LtVzQ", "alias": "dh-sports-lounge-carson", "name": "DH Sports Lounge", "image_url": "https://s3-media3.fl.yelpcdn.com/bphoto/XURxe6K-BZ1YHT7aTmonVg/o.jpg", "is_closed": false, "url": "https://www.yelp.com/biz/dh-sports-lounge-carson?adjust_creative=a2JdNtFqB-C38ga_06BHvw&utm_campaign=yelp_api_v3&utm_medium=api_v3_business_search&utm_source=a2JdNtFqB-C38ga_06BHvw", "review_count": 41, "categories": [{"alias": "tradamerican", "title": "American (Traditional)"}, {"alias": "salad", "title": "Salad"}, {"alias": "breakfast_brunch", "title": "Breakfast & Brunch"}], "rating": 4.0, "coordinates": {"latitude": 33.865127, "longitude": -118.255919}, "transactions": ["delivery"], "price": "$", "location": {"address1": "1000 E Victoria St", "address2": "", "address3": "CSUDH Loker Student Union", "city": "Carson", "zip_code": "90747", "country": "US", "state": "CA", "display_address": ["1000 E Victoria St", "CSUDH Loker Student Union", "Carson, CA 90747"]}, "phone": "+13102432716", "display_phone": "(310) 243-2716", "distance": 485.5848429110588}, {"id": "chaA9Q3wcDczyWl-DanGvQ", "alias": "my-fathers-bbq-carson-2", "name": "My Father's BBQ", "image_url": "https://s3-media2.fl.yelpcdn.com/bphoto/hOepZz9ouFaLhyv3_c_tjQ/o.jpg", "is_closed": false, "url": "https://www.yelp.com/biz/my-fathers-bbq-carson-2?adjust_creative=a2JdNtFqB-C38ga_06BHvw&utm_campaign=yelp_api_v3&utm_medium=api_v3_business_search&utm_source=a2JdNtFqB-C38ga_06BHvw", "review_count": 478, "categories": [{"alias": "southern", "title": "Southern"}, {"alias": "bbq", "title": "Barbeque"}, {"alias": "soulfood", "title": "Soul Food"}], "rating": 3.5, "coordinates": {"latitude": 33.859115, "longitude": -118.264333}, "transactions": ["pickup"], "price": "$$", "location": {"address1": "637 University Dr", "address2": "", "address3": "", "city": "Carson", "zip_code": "90746", "country": "US", "state": "CA", "display_address": ["637 University Dr", "Carson, CA 90746"]}, "phone": "+13108174166", "display_phone": "(310) 817-4166", "distance": 624.309699342701}, {"id": "eWj-L8wD9JfQbGKJoqHoIQ", "alias": "hamilton-place-cafe-torrance", "name": "Hamilton Place Cafe", "image_url": "https://s3-media1.fl.yelpcdn.com/bphoto/vzV7XdiSXCnU_WPUEnoFbw/o.jpg", "is_closed": false, "url": "https://www.yelp.com/biz/hamilton-place-cafe-torrance?adjust_creative=a2JdNtFqB-C38ga_06BHvw&utm_campaign=yelp_api_v3&utm_medium=api_v3_business_search&utm_source=a2JdNtFqB-C38ga_06BHvw", "review_count": 20, "categories": [{"alias": "cafes", "title": "Cafes"}], "rating": 4.5, "coordinates": {"latitude": 33.8485097, "longitude": -118.2871023}, "transactions": ["delivery"], "price": "$", "location": {"address1": "20101 Hamilton Ave", "address2": "Ste 180", "address3": null, "city": "Torrance", "zip_code": "90502", "country": "US", "state": "CA", "display_address": ["20101 Hamilton Ave", "Ste 180", "Torrance, CA 90502"]}, "phone": "+13105322353", "display_phone": "(310) 532-2353", "distance": 2962.4871733835453}, {"id": "wSYzno3yYQYjgXgjhidNGQ", "alias": "boston-cream-donut-carson", "name": "Boston Cream Donut", "image_url": "https://s3-media2.fl.yelpcdn.com/bphoto/M8JDVDcGdUE0ReiT8CFnXg/o.jpg", "is_closed": false, "url": "https://www.yelp.com/biz/boston-cream-donut-carson?adjust_creative=a2JdNtFqB-C38ga_06BHvw&utm_campaign=yelp_api_v3&utm_medium=api_v3_business_search&utm_source=a2JdNtFqB-C38ga_06BHvw", "review_count": 84, "categories": [{"alias": "donuts", "title": "Donuts"}, {"alias": "sandwiches", "title": "Sandwiches"}], "rating": 4.0, "coordinates": {"latitude": 33.8628359, "longitude": -118.2663949}, "transactions": ["pickup", "delivery"], "price": "$", "location": {"address1": "18425 Avalon Blvd", "address2": "", "address3": "", "city": "Carson", "zip_code": "90746", "country": "US", "state": "CA", "display_address": ["18425 Avalon Blvd", "Carson, CA 90746"]}, "phone": "+13105325065", "display_phone": "(310) 532-5065", "distance": 553.1694006901572}, {"id": "5QFw5FW4ov7av4kofxHEbQ", "alias": "five-guys-carson", "name": "Five Guys", "image_url": "https://s3-media3.fl.yelpcdn.com/bphoto/Gdgv0S9jzGyP0_OIByf5MA/o.jpg", "is_closed": false, "url": "https://www.yelp.com/biz/five-guys-carson?adjust_creative=a2JdNtFqB-C38ga_06BHvw&utm_campaign=yelp_api_v3&utm_medium=api_v3_business_search&utm_source=a2JdNtFqB-C38ga_06BHvw", "review_count": 685, "categories": [{"alias": "burgers", "title": "Burgers"}, {"alias": "hotdogs", "title": "Fast Food"}], "rating": 3.5, "coordinates": {"latitude": 33.8450497556923, "longitude": -118.262668252166}, "transactions": ["delivery"], "price": "$$", "location": {"address1": "20700 Avalon Blvd", "address2": "", "address3": "", "city": "Carson", "zip_code": "90746", "country": "US", "state": "CA", "display_address": ["20700 Avalon Blvd", "Carson, CA 90746"]}, "phone": "+13105157700", "display_phone": "(310) 515-7700", "distance": 2112.7923068044715}, {"id": "Qb9JwWgDFUMAwc4qoTI3kg", "alias": "pieology-pizzeria-carson-2", "name": "Pieology Pizzeria", "image_url": "https://s3-media3.fl.yelpcdn.com/bphoto/XVtvnO9YcYS8NpROHlEZwQ/o.jpg", "is_closed": false, "url": "https://www.yelp.com/biz/pieology-pizzeria-carson-2?adjust_creative=a2JdNtFqB-C38ga_06BHvw&utm_campaign=yelp_api_v3&utm_medium=api_v3_business_search&utm_source=a2JdNtFqB-C38ga_06BHvw", "review_count": 349, "categories": [{"alias": "pizza", "title": "Pizza"}, {"alias": "vegan", "title": "Vegan"}, {"alias": "hotdogs", "title": "Fast Food"}], "rating": 3.5, "coordinates": {"latitude": 33.8446872, "longitude": -118.2622605}, "transactions": ["pickup", "delivery"], "price": "$$", "location": {"address1": "20700 S Avalon Blvd", "address2": "Unit B31-32", "address3": "", "city": "Carson", "zip_code": "90746", "country": "US", "state": "CA", "display_address": ["20700 S Avalon Blvd", "Unit B31-32", "Carson, CA 90746"]}, "phone": "+13103616608", "display_phone": "(310) 361-6608", "distance": 2150.6351706339387}, {"id": "acAdrm8IOakPiBVeAYtx4A", "alias": "el-burro-tacos-and-beer-carson", "name": "El Burro - Tacos & Beer", "image_url": "https://s3-media1.fl.yelpcdn.com/bphoto/-F05CcyRR5keJQXzqWWCrg/o.jpg", "is_closed": false, "url": "https://www.yelp.com/biz/el-burro-tacos-and-beer-carson?adjust_creative=a2JdNtFqB-C38ga_06BHvw&utm_campaign=yelp_api_v3&utm_medium=api_v3_business_search&utm_source=a2JdNtFqB-C38ga_06BHvw", "review_count": 228, "categories": [{"alias": "mexican", "title": "Mexican"}, {"alias": "tapasmallplates", "title": "Tapas/Small Plates"}], "rating": 3.5, "coordinates": {"latitude": 33.872281788873, "longitude": -118.266572356224}, "transactions": ["pickup", "delivery"], "price": "$", "location": {"address1": "17401 Avalon Blvd", "address2": "", "address3": "", "city": "Carson", "zip_code": "90746", "country": "US", "state": "CA", "display_address": ["17401 Avalon Blvd", "Carson, CA 90746"]}, "phone": "+13102170007", "display_phone": "(310) 217-0007", "distance": 1054.861809541476}, {"id": "jmuHtdZGmytkvO6R5s7z4Q", "alias": "r-and-r-soul-food-restaurant-carson", "name": "R & R Soul Food Restaurant", "image_url": "https://s3-media1.fl.yelpcdn.com/bphoto/KH5dWlyyZp-MjDSy4m1GNQ/o.jpg", "is_closed": false, "url": "https://www.yelp.com/biz/r-and-r-soul-food-restaurant-carson?adjust_creative=a2JdNtFqB-C38ga_06BHvw&utm_campaign=yelp_api_v3&utm_medium=api_v3_business_search&utm_source=a2JdNtFqB-C38ga_06BHvw", "review_count": 543, "categories": [{"alias": "soulfood", "title": "Soul Food"}, {"alias": "southern", "title": "Southern"}], "rating": 3.5, "coordinates": {"latitude": 33.8622575560292, "longitude": -118.266549114156}, "transactions": ["delivery"], "price": "$$", "location": {"address1": "18427 Avalon Blvd", "address2": "", "address3": "", "city": "Carson", "zip_code": "90746", "country": "US", "state": "CA", "display_address": ["18427 Avalon Blvd", "Carson, CA 90746"]}, "phone": "+13107156716", "display_phone": "(310) 715-6716", "distance": 547.775779860148}, {"id": "O63i27S2c0kqm_E_bT7M7w", "alias": "casa-mayoral-restaurant-carson", "name": "Casa Mayoral Restaurant", "image_url": "https://s3-media2.fl.yelpcdn.com/bphoto/Q3i8hQUyYoUKiCH1wXfvJA/o.jpg", "is_closed": false, "url": "https://www.yelp.com/biz/casa-mayoral-restaurant-carson?adjust_creative=a2JdNtFqB-C38ga_06BHvw&utm_campaign=yelp_api_v3&utm_medium=api_v3_business_search&utm_source=a2JdNtFqB-C38ga_06BHvw", "review_count": 19, "categories": [{"alias": "mexican", "title": "Mexican"}, {"alias": "breakfast_brunch", "title": "Breakfast & Brunch"}, {"alias": "tradamerican", "title": "American (Traditional)"}], "rating": 4.5, "coordinates": {"latitude": 33.859319, "longitude": -118.26554317}, "transactions": ["delivery"], "location": {"address1": "18902 S Avalon Blvd", "address2": null, "address3": "", "city": "Carson", "zip_code": "90746", "country": "US", "state": "CA", "display_address": ["18902 S Avalon Blvd", "Carson, CA 90746"]}, "phone": "+13103279150", "display_phone": "(310) 327-9150", "distance": 647.9133955677154}, {"id": "lFNpGWb7iDD4s0PtUL6JWA", "alias": "poki-yaki-rancho-dominguez-3", "name": "Poki Yaki", "image_url": "https://s3-media2.fl.yelpcdn.com/bphoto/GJo632VirlWOQF-OmRb62g/o.jpg", "is_closed": false, "url": "https://www.yelp.com/biz/poki-yaki-rancho-dominguez-3?adjust_creative=a2JdNtFqB-C38ga_06BHvw&utm_campaign=yelp_api_v3&utm_medium=api_v3_business_search&utm_source=a2JdNtFqB-C38ga_06BHvw", "review_count": 93, "categories": [{"alias": "japanese", "title": "Japanese"}, {"alias": "seafood", "title": "Seafood"}, {"alias": "asianfusion", "title": "Asian Fusion"}], "rating": 3.5, "coordinates": {"latitude": 33.867944, "longitude": -118.2367977}, "transactions": ["delivery"], "price": "$$", "location": {"address1": "855 W Victoria St", "address2": "Ste A2", "address3": "", "city": "Rancho Dominguez", "zip_code": "90220", "country": "US", "state": "CA", "display_address": ["855 W Victoria St", "Ste A2", "Rancho Dominguez, CA 90220"]}, "phone": "+13106393888", "display_phone": "(310) 639-3888", "distance": 2279.783330746495}, {"id": "NLQG68ZEoA33_gC0lk8pVA", "alias": "anas-la-gran-fonda-mexican-restaurant-gardena", "name": "Ana's La Gran Fonda Mexican Restaurant", "image_url": "https://s3-media2.fl.yelpcdn.com/bphoto/3Qb9vW8rnrXbfcrV0V3okg/o.jpg", "is_closed": false, "url": "https://www.yelp.com/biz/anas-la-gran-fonda-mexican-restaurant-gardena?adjust_creative=a2JdNtFqB-C38ga_06BHvw&utm_campaign=yelp_api_v3&utm_medium=api_v3_business_search&utm_source=a2JdNtFqB-C38ga_06BHvw", "review_count": 69, "categories": [{"alias": "mexican", "title": "Mexican"}], "rating": 4.0, "coordinates": {"latitude": 33.881411, "longitude": -118.2929086}, "transactions": ["pickup", "delivery"], "price": "$$", "location": {"address1": "1060 W Gardena Blvd", "address2": "", "address3": "", "city": "Gardena", "zip_code": "90247", "country": "US", "state": "CA", "display_address": ["1060 W Gardena Blvd", "Gardena, CA 90247"]}, "phone": "+13103295266", "display_phone": "(310) 329-5266", "distance": 3547.3848328444574}, {"id": "1UcwWNXluP3L0nMQZyO6cw", "alias": "los-chero-gardena-3", "name": "Los Chero", "image_url": "https://s3-media3.fl.yelpcdn.com/bphoto/uGyrmzgiX6NrsOUbf3oE2w/o.jpg", "is_closed": false, "url": "https://www.yelp.com/biz/los-chero-gardena-3?adjust_creative=a2JdNtFqB-C38ga_06BHvw&utm_campaign=yelp_api_v3&utm_medium=api_v3_business_search&utm_source=a2JdNtFqB-C38ga_06BHvw", "review_count": 74, "categories": [{"alias": "salvadoran", "title": "Salvadoran"}], "rating": 4.0, "coordinates": {"latitude": 33.88174, "longitude": -118.27541}, "transactions": ["pickup", "delivery"], "price": "$", "location": {"address1": "16502 S Main St", "address2": "Ste 6", "address3": "", "city": "Gardena", "zip_code": "90248", "country": "US", "state": "CA", "display_address": ["16502 S Main St", "Ste 6", "Gardena, CA 90248"]}, "phone": "+13105150107", "display_phone": "(310) 515-0107", "distance": 2364.8074495308438}, {"id": "TxKXYBIUg834L20sSrcb-g", "alias": "shakeys-pizza-parlor-carson-2", "name": "Shakey's Pizza Parlor", "image_url": "https://s3-media1.fl.yelpcdn.com/bphoto/d1Q7S_lEtBKgTysRIl4dOQ/o.jpg", "is_closed": false, "url": "https://www.yelp.com/biz/shakeys-pizza-parlor-carson-2?adjust_creative=a2JdNtFqB-C38ga_06BHvw&utm_campaign=yelp_api_v3&utm_medium=api_v3_business_search&utm_source=a2JdNtFqB-C38ga_06BHvw", "review_count": 211, "categories": [{"alias": "pizza", "title": "Pizza"}, {"alias": "buffets", "title": "Buffets"}], "rating": 3.5, "coordinates": {"latitude": 33.8477585132566, "longitude": -118.263465980999}, "transactions": ["delivery", "pickup"], "price": "$$", "location": {"address1": "665 E Del Amo Blvd", "address2": "", "address3": "", "city": "Carson", "zip_code": "90746", "country": "US", "state": "CA", "display_address": ["665 E Del Amo Blvd", "Carson, CA 90746"]}, "phone": "+13103272570", "display_phone": "(310) 327-2570", "distance": 1820.268078688581}, {"id": "Grc73Z51ag4m0i7_dsw_QA", "alias": "jay-bees-bar-b-q-gardena-3", "name": "Jay Bee's Bar-B-Q", "image_url": "https://s3-media3.fl.yelpcdn.com/bphoto/rJ_nqW1I1OdCRswvRC6Nnw/o.jpg", "is_closed": false, "url": "https://www.yelp.com/biz/jay-bees-bar-b-q-gardena-3?adjust_creative=a2JdNtFqB-C38ga_06BHvw&utm_campaign=yelp_api_v3&utm_medium=api_v3_business_search&utm_source=a2JdNtFqB-C38ga_06BHvw", "review_count": 540, "categories": [{"alias": "bbq", "title": "Barbeque"}, {"alias": "desserts", "title": "Desserts"}, {"alias": "sandwiches", "title": "Sandwiches"}], "rating": 3.5, "coordinates": {"latitude": 33.8870289124518, "longitude": -118.265508306876}, "transactions": ["delivery"], "price": "$$", "location": {"address1": "15911 S Avalon Blvd", "address2": "", "address3": "", "city": "Gardena", "zip_code": "90247", "country": "US", "state": "CA", "display_address": ["15911 S Avalon Blvd", "Gardena, CA 90247"]}, "phone": "+13105321064", "display_phone": "(310) 532-1064", "distance": 2646.120188573181}, {"id": "CCEhljl4A8yV0_N2uujluA", "alias": "sansai-japanese-grill-carson", "name": "SanSai Japanese Grill", "image_url": "https://s3-media3.fl.yelpcdn.com/bphoto/3pGX8P-BXu9BYevaXOYVIQ/o.jpg", "is_closed": false, "url": "https://www.yelp.com/biz/sansai-japanese-grill-carson?adjust_creative=a2JdNtFqB-C38ga_06BHvw&utm_campaign=yelp_api_v3&utm_medium=api_v3_business_search&utm_source=a2JdNtFqB-C38ga_06BHvw", "review_count": 156, "categories": [{"alias": "japanese", "title": "Japanese"}, {"alias": "sushi", "title": "Sushi Bars"}], "rating": 3.5, "coordinates": {"latitude": 33.8444562857222, "longitude": -118.262426055434}, "transactions": ["delivery", "pickup"], "price": "$", "location": {"address1": "20700 Avalon Blvd", "address2": "", "address3": "", "city": "Carson", "zip_code": "90746", "country": "US", "state": "CA", "display_address": ["20700 Avalon Blvd", "Carson, CA 90746"]}, "phone": "+13105270115", "display_phone": "(310) 527-0115", "distance": 2177.1456459391416}, {"id": "qp3tCGBt_TDH67-YfFezhQ", "alias": "pho-crystal-3-carson", "name": "Pho Crystal 3", "image_url": "https://s3-media2.fl.yelpcdn.com/bphoto/lXsBbEebsLcBvek0Pm069A/o.jpg", "is_closed": false, "url": "https://www.yelp.com/biz/pho-crystal-3-carson?adjust_creative=a2JdNtFqB-C38ga_06BHvw&utm_campaign=yelp_api_v3&utm_medium=api_v3_business_search&utm_source=a2JdNtFqB-C38ga_06BHvw", "review_count": 43, "categories": [{"alias": "vietnamese", "title": "Vietnamese"}], "rating": 4.0, "coordinates": {"latitude": 33.840243, "longitude": -118.258166983724}, "transactions": ["delivery", "pickup"], "location": {"address1": "940 E Dominguez St", "address2": "Ste A & B", "address3": null, "city": "Carson", "zip_code": "90746", "country": "US", "state": "CA", "display_address": ["940 E Dominguez St", "Ste A & B", "Carson, CA 90746"]}, "phone": "+14243442074", "display_phone": "(424) 344-2074", "distance": 2654.577735359595}, {"id": "N-8zhlsFm4n3FHJXaGrUqw", "alias": "maka-grill-compton", "name": "Maka Grill", "image_url": "https://s3-media2.fl.yelpcdn.com/bphoto/OllAA4POSOGJjFmUgb_iwA/o.jpg", "is_closed": false, "url": "https://www.yelp.com/biz/maka-grill-compton?adjust_creative=a2JdNtFqB-C38ga_06BHvw&utm_campaign=yelp_api_v3&utm_medium=api_v3_business_search&utm_source=a2JdNtFqB-C38ga_06BHvw", "review_count": 26, "categories": [{"alias": "asianfusion", "title": "Asian Fusion"}, {"alias": "chickenshop", "title": "Chicken Shop"}, {"alias": "korean", "title": "Korean"}], "rating": 4.0, "coordinates": {"latitude": 33.874326, "longitude": -118.2475914}, "transactions": ["delivery", "pickup"], "location": {"address1": "1929 W Artesia Blvd", "address2": null, "address3": "", "city": "Compton", "zip_code": "90220", "country": "US", "state": "CA", "display_address": ["1929 W Artesia Blvd", "Compton, CA 90220"]}, "phone": "+13105544212", "display_phone": "(310) 554-4212", "distance": 1688.4674623954504}, {"id": "4A28w4dj09Mmf3sKOQXdLw", "alias": "tokyo-grill-carson", "name": "Tokyo Grill", "image_url": "https://s3-media2.fl.yelpcdn.com/bphoto/Ao89Vv3oK36T2tg1V5pBgw/o.jpg", "is_closed": false, "url": "https://www.yelp.com/biz/tokyo-grill-carson?adjust_creative=a2JdNtFqB-C38ga_06BHvw&utm_campaign=yelp_api_v3&utm_medium=api_v3_business_search&utm_source=a2JdNtFqB-C38ga_06BHvw", "review_count": 121, "categories": [{"alias": "japanese", "title": "Japanese"}], "rating": 3.5, "coordinates": {"latitude": 33.8409652709961, "longitude": -118.262214660645}, "transactions": ["delivery"], "price": "$", "location": {"address1": "20820 Avalon Blvd", "address2": "", "address3": "", "city": "Carson", "zip_code": "90746", "country": "US", "state": "CA", "display_address": ["20820 Avalon Blvd", "Carson, CA 90746"]}, "phone": "+13105160111", "display_phone": "(310) 516-0111", "distance": 2545.8371775156897}, {"id": "YwrZHcpvsypiYTPkjaC6iA", "alias": "ann-s-fish-market-carson", "name": "Ann’s Fish Market", "image_url": "https://s3-media3.fl.yelpcdn.com/bphoto/-ieUJDV_i98zc3oyxZ9cQQ/o.jpg", "is_closed": false, "url": "https://www.yelp.com/biz/ann-s-fish-market-carson?adjust_creative=a2JdNtFqB-C38ga_06BHvw&utm_campaign=yelp_api_v3&utm_medium=api_v3_business_search&utm_source=a2JdNtFqB-C38ga_06BHvw", "review_count": 75, "categories": [{"alias": "seafoodmarkets", "title": "Seafood Markets"}, {"alias": "seafood", "title": "Seafood"}], "rating": 3.5, "coordinates": {"latitude": 33.848577, "longitude": -118.264062}, "transactions": ["delivery"], "price": "$", "location": {"address1": "20220 S Avalon Blvd", "address2": "Ste E", "address3": "", "city": "Carson", "zip_code": "90746", "country": "US", "state": "CA", "display_address": ["20220 S Avalon Blvd", "Ste E", "Carson, CA 90746"]}, "phone": "+13107198737", "display_phone": "(310) 719-8737", "distance": 1738.109441070499}, {"id": "7Gxl202HCa5eDfvL8mdFkw", "alias": "sizzler-carson-2", "name": "Sizzler", "image_url": "https://s3-media2.fl.yelpcdn.com/bphoto/5LET8fKApoRmyX_Dn8UEEQ/o.jpg", "is_closed": false, "url": "https://www.yelp.com/biz/sizzler-carson-2?adjust_creative=a2JdNtFqB-C38ga_06BHvw&utm_campaign=yelp_api_v3&utm_medium=api_v3_business_search&utm_source=a2JdNtFqB-C38ga_06BHvw", "review_count": 153, "categories": [{"alias": "seafood", "title": "Seafood"}, {"alias": "steak", "title": "Steakhouses"}, {"alias": "burgers", "title": "Burgers"}], "rating": 3.5, "coordinates": {"latitude": 33.842391, "longitude": -118.263145}, "transactions": ["delivery", "pickup"], "price": "$$", "location": {"address1": "20755 S Avalon Blvd", "address2": "", "address3": "", "city": "Carson", "zip_code": "90746", "country": "US", "state": "CA", "display_address": ["20755 S Avalon Blvd", "Carson, CA 90746"]}, "phone": "+13105322400", "display_phone": "(310) 532-2400", "distance": 2410.817359170211}, {"id": "5H4i9eJcsEoMY-X1dQaN-Q", "alias": "avalon-donuts-and-deli-gardena", "name": "Avalon Donuts & Deli", "image_url": "https://s3-media1.fl.yelpcdn.com/bphoto/ByE23umdISukw2BxNty8PA/o.jpg", "is_closed": false, "url": "https://www.yelp.com/biz/avalon-donuts-and-deli-gardena?adjust_creative=a2JdNtFqB-C38ga_06BHvw&utm_campaign=yelp_api_v3&utm_medium=api_v3_business_search&utm_source=a2JdNtFqB-C38ga_06BHvw", "review_count": 15, "categories": [{"alias": "donuts", "title": "Donuts"}, {"alias": "delis", "title": "Delis"}], "rating": 4.5, "coordinates": {"latitude": 33.8883814854452, "longitude": -118.265630993848}, "transactions": [], "price": "$", "location": {"address1": "15801 S Avalon Blvd", "address2": "", "address3": "", "city": "Gardena", "zip_code": "90248", "country": "US", "state": "CA", "display_address": ["15801 S Avalon Blvd", "Gardena, CA 90248"]}, "phone": "+13105380830", "display_phone": "(310) 538-0830", "distance": 2744.5971192017555}, {"id": "jhwn5FbKalkmapmep1PmtA", "alias": "olive-garden-italian-restaurant-carson-2", "name": "Olive Garden Italian Restaurant", "image_url": "https://s3-media2.fl.yelpcdn.com/bphoto/ClWCXUQTKjaT3InW1_Kwcg/o.jpg", "is_closed": false, "url": "https://www.yelp.com/biz/olive-garden-italian-restaurant-carson-2?adjust_creative=a2JdNtFqB-C38ga_06BHvw&utm_campaign=yelp_api_v3&utm_medium=api_v3_business_search&utm_source=a2JdNtFqB-C38ga_06BHvw", "review_count": 594, "categories": [{"alias": "italian", "title": "Italian"}, {"alias": "salad", "title": "Salad"}, {"alias": "soup", "title": "Soup"}], "rating": 3.0, "coordinates": {"latitude": 33.8457832, "longitude": -118.2642212}, "transactions": [], "price": "$$", "location": {"address1": "20532 Avalon Blvd", "address2": "", "address3": "", "city": "Carson", "zip_code": "90746", "country": "US", "state": "CA", "display_address": ["20532 Avalon Blvd", "Carson, CA 90746"]}, "phone": "+13102170409", "display_phone": "(310) 217-0409", "distance": 2106.7451766992053}, {"id": "tn50EInu8giF-b0wqtFBTA", "alias": "paradise-restaurant-gardena", "name": "Paradise Restaurant", "image_url": "https://s3-media2.fl.yelpcdn.com/bphoto/mn_iLkXLN8JQtvNu5y-7QQ/o.jpg", "is_closed": false, "url": "https://www.yelp.com/biz/paradise-restaurant-gardena?adjust_creative=a2JdNtFqB-C38ga_06BHvw&utm_campaign=yelp_api_v3&utm_medium=api_v3_business_search&utm_source=a2JdNtFqB-C38ga_06BHvw", "review_count": 204, "categories": [{"alias": "venues", "title": "Venues & Event Spaces"}, {"alias": "lounges", "title": "Lounges"}, {"alias": "newamerican", "title": "American (New)"}], "rating": 3.0, "coordinates": {"latitude": 33.8591145688394, "longitude": -118.290040722561}, "transactions": ["delivery"], "price": "$$", "location": {"address1": "889 W 190th St", "address2": "", "address3": "", "city": "Gardena", "zip_code": "90248", "country": "US", "state": "CA", "display_address": ["889 W 190th St", "Gardena, CA 90248"]}, "phone": "+13103244800", "display_phone": "(310) 324-4800", "distance": 2704.240207385232}, {"id": "6JWfQ2n1fDEcqVDjdXHDtA", "alias": "m-and-m-soul-food-carson-2", "name": "M & M Soul Food", "image_url": "https://s3-media1.fl.yelpcdn.com/bphoto/JPBf9ehhzvTZi9m0m2AC3w/o.jpg", "is_closed": false, "url": "https://www.yelp.com/biz/m-and-m-soul-food-carson-2?adjust_creative=a2JdNtFqB-C38ga_06BHvw&utm_campaign=yelp_api_v3&utm_medium=api_v3_business_search&utm_source=a2JdNtFqB-C38ga_06BHvw", "review_count": 462, "categories": [{"alias": "soulfood", "title": "Soul Food"}], "rating": 3.0, "coordinates": {"latitude": 33.871826171875, "longitude": -118.270210266113}, "transactions": ["delivery"], "price": "$$", "location": {"address1": "335 E Albertoni", "address2": "", "address3": "", "city": "Carson", "zip_code": "90746", "country": "US", "state": "CA", "display_address": ["335 E Albertoni", "Carson, CA 90746"]}, "phone": "+13103245317", "display_phone": "(310) 324-5317", "distance": 1229.251278146993}, {"id": "UWoOMcWjHsBAgJHw__h8-Q", "alias": "fatburger-carson", "name": "Fatburger", "image_url": "https://s3-media1.fl.yelpcdn.com/bphoto/esBtDveg48UjZrFBvchBUQ/o.jpg", "is_closed": false, "url": "https://www.yelp.com/biz/fatburger-carson?adjust_creative=a2JdNtFqB-C38ga_06BHvw&utm_campaign=yelp_api_v3&utm_medium=api_v3_business_search&utm_source=a2JdNtFqB-C38ga_06BHvw", "review_count": 187, "categories": [{"alias": "burgers", "title": "Burgers"}, {"alias": "hotdogs", "title": "Fast Food"}], "rating": 3.0, "coordinates": {"latitude": 33.87227, "longitude": -118.26723}, "transactions": ["pickup", "delivery"], "price": "$$", "location": {"address1": "501 Albertoni St", "address2": "Ste B3", "address3": "", "city": "Carson", "zip_code": "90746", "country": "US", "state": "CA", "display_address": ["501 Albertoni St", "Ste B3", "Carson, CA 90746"]}, "phone": "+13102255535", "display_phone": "(310) 225-5535", "distance": 1065.267691104313}, {"id": "4A4yvimcvt7lo4RxzDuL4Q", "alias": "no-1-chef-gardena-5", "name": "No 1 Chef", "image_url": "https://s3-media1.fl.yelpcdn.com/bphoto/RAGDsezJJjHoBz05TfRsZA/o.jpg", "is_closed": false, "url": "https://www.yelp.com/biz/no-1-chef-gardena-5?adjust_creative=a2JdNtFqB-C38ga_06BHvw&utm_campaign=yelp_api_v3&utm_medium=api_v3_business_search&utm_source=a2JdNtFqB-C38ga_06BHvw", "review_count": 65, "categories": [{"alias": "chinese", "title": "Chinese"}, {"alias": "sushi", "title": "Sushi Bars"}, {"alias": "soup", "title": "Soup"}], "rating": 3.5, "coordinates": {"latitude": 33.8817669843962, "longitude": -118.290685625701}, "transactions": ["delivery", "pickup"], "price": "$", "location": {"address1": "843 W Gardena Blvd", "address2": "", "address3": null, "city": "Gardena", "zip_code": "90247", "country": "US", "state": "CA", "display_address": ["843 W Gardena Blvd", "Gardena, CA 90247"]}, "phone": "+13103291888", "display_phone": "(310) 329-1888", "distance": 3378.480772129883}, {"id": "O_trywKNTZe3L2UnbqZXxg", "alias": "green-olive-truck-rancho-dominguez-3", "name": "Green Olive Truck", "image_url": "https://s3-media1.fl.yelpcdn.com/bphoto/CWOUjwbP2VWygC9Kb6nIHA/o.jpg", "is_closed": false, "url": "https://www.yelp.com/biz/green-olive-truck-rancho-dominguez-3?adjust_creative=a2JdNtFqB-C38ga_06BHvw&utm_campaign=yelp_api_v3&utm_medium=api_v3_business_search&utm_source=a2JdNtFqB-C38ga_06BHvw", "review_count": 29, "categories": [{"alias": "foodtrucks", "title": "Food Trucks"}, {"alias": "falafel", "title": "Falafel"}], "rating": 4.0, "coordinates": {"latitude": 33.8683632868948, "longitude": -118.236840043507}, "transactions": ["delivery", "pickup"], "price": "$$", "location": {"address1": "855 W Victoria St", "address2": "", "address3": "", "city": "Rancho Dominguez", "zip_code": "90220", "country": "US", "state": "CA", "display_address": ["855 W Victoria St", "Rancho Dominguez, CA 90220"]}, "phone": "+13109464622", "display_phone": "(310) 946-4622", "distance": 2282.8334371465658}, {"id": "lK9UKbsozEAUyj2ICM3c3w", "alias": "tacos-el-tito-gardena", "name": "Tacos El Tito", "image_url": "https://s3-media1.fl.yelpcdn.com/bphoto/uTXacpTcConNsSxxQCvNPw/o.jpg", "is_closed": false, "url": "https://www.yelp.com/biz/tacos-el-tito-gardena?adjust_creative=a2JdNtFqB-C38ga_06BHvw&utm_campaign=yelp_api_v3&utm_medium=api_v3_business_search&utm_source=a2JdNtFqB-C38ga_06BHvw", "review_count": 17, "categories": [{"alias": "mexican", "title": "Mexican"}, {"alias": "foodtrucks", "title": "Food Trucks"}], "rating": 4.0, "coordinates": {"latitude": 33.87947, "longitude": -118.2908}, "transactions": [], "price": "$", "location": {"address1": "16702 S Vermont Ave", "address2": "", "address3": "", "city": "Gardena", "zip_code": "90247", "country": "US", "state": "CA", "display_address": ["16702 S Vermont Ave", "Gardena, CA 90247"]}, "phone": "", "display_phone": "", "distance": 3273.0772004547916}, {"id": "0XawyyTM7NuTnWUwAq4AYg", "alias": "dc-3-gourmet-compton", "name": "DC-3 Gourmet", "image_url": "https://s3-media2.fl.yelpcdn.com/bphoto/02nFVsLG65k5kC84tDWsIg/o.jpg", "is_closed": false, "url": "https://www.yelp.com/biz/dc-3-gourmet-compton?adjust_creative=a2JdNtFqB-C38ga_06BHvw&utm_campaign=yelp_api_v3&utm_medium=api_v3_business_search&utm_source=a2JdNtFqB-C38ga_06BHvw", "review_count": 22, "categories": [{"alias": "breakfast_brunch", "title": "Breakfast & Brunch"}], "rating": 4.0, "coordinates": {"latitude": 33.888887875591, "longitude": -118.241030079743}, "transactions": ["delivery", "pickup"], "location": {"address1": "961 W Alondra Blvd", "address2": "", "address3": null, "city": "Compton", "zip_code": "90220", "country": "US", "state": "CA", "display_address": ["961 W Alondra Blvd", "Compton, CA 90220"]}, "phone": "+13106181155", "display_phone": "(310) 618-1155", "distance": 3325.260091755251}, {"id": "e3LEpEU_0ulfk3VdfMta5Q", "alias": "smashburger-carson", "name": "Smashburger", "image_url": "https://s3-media3.fl.yelpcdn.com/bphoto/rDVwjWyLcYyzfoEmHCBdzg/o.jpg", "is_closed": false, "url": "https://www.yelp.com/biz/smashburger-carson?adjust_creative=a2JdNtFqB-C38ga_06BHvw&utm_campaign=yelp_api_v3&utm_medium=api_v3_business_search&utm_source=a2JdNtFqB-C38ga_06BHvw", "review_count": 141, "categories": [{"alias": "burgers", "title": "Burgers"}], "rating": 3.0, "coordinates": {"latitude": 33.84650224249706, "longitude": -118.26344178895492}, "transactions": ["delivery", "pickup"], "price": "$$", "location": {"address1": "20420 S Avalon Blvd", "address2": "Ste B", "address3": null, "city": "Carson", "zip_code": "90746", "country": "US", "state": "CA", "display_address": ["20420 S Avalon Blvd", "Ste B", "Carson, CA 90746"]}, "phone": "+13107422298", "display_phone": "(310) 742-2298", "distance": 1958.6812335539842}, {"id": "TH6gY6RDufJqflwzb2cdTQ", "alias": "alpine-village-restaurant-torrance-2", "name": "Alpine Village Restaurant", "image_url": "https://s3-media1.fl.yelpcdn.com/bphoto/3x3obNdo69mTlf1gI5YvIg/o.jpg", "is_closed": false, "url": "https://www.yelp.com/biz/alpine-village-restaurant-torrance-2?adjust_creative=a2JdNtFqB-C38ga_06BHvw&utm_campaign=yelp_api_v3&utm_medium=api_v3_business_search&utm_source=a2JdNtFqB-C38ga_06BHvw", "review_count": 380, "categories": [{"alias": "tradamerican", "title": "American (Traditional)"}, {"alias": "german", "title": "German"}, {"alias": "venues", "title": "Venues & Event Spaces"}], "rating": 3.0, "coordinates": {"latitude": 33.8423163747032, "longitude": -118.288343223209}, "transactions": ["pickup", "delivery"], "price": "$$", "location": {"address1": "833 W Torrance Blvd", "address2": "", "address3": "", "city": "Torrance", "zip_code": "90502", "country": "US", "state": "CA", "display_address": ["833 W Torrance Blvd", "Torrance, CA 90502"]}, "phone": "+13103236520", "display_phone": "(310) 323-6520", "distance": 3491.26527636585}, {"id": "OCv4SVne0A0-5pT7x1hqVg", "alias": "hoops-deli-gardena", "name": "Hoops Deli", "image_url": "https://s3-media1.fl.yelpcdn.com/bphoto/2sxWRwJS4thBal0J0nKKmw/o.jpg", "is_closed": false, "url": "https://www.yelp.com/biz/hoops-deli-gardena?adjust_creative=a2JdNtFqB-C38ga_06BHvw&utm_campaign=yelp_api_v3&utm_medium=api_v3_business_search&utm_source=a2JdNtFqB-C38ga_06BHvw", "review_count": 32, "categories": [{"alias": "delis", "title": "Delis"}, {"alias": "tradamerican", "title": "American (Traditional)"}], "rating": 4.0, "coordinates": {"latitude": 33.8743517294437, "longitude": -118.276055769312}, "transactions": [], "price": "$", "location": {"address1": "17243 S Main St", "address2": "", "address3": "", "city": "Gardena", "zip_code": "90248", "country": "US", "state": "CA", "display_address": ["17243 S Main St", "Gardena, CA 90248"]}, "phone": "+13107691017", "display_phone": "(310) 769-1017", "distance": 1804.760627524121}, {"id": "ZhxbkkaFdGclreRo6hsGVQ", "alias": "norms-restaurant-carson", "name": "NORMS Restaurant", "image_url": "https://s3-media1.fl.yelpcdn.com/bphoto/ovKO9RiLxMGHOnPM8EkVCg/o.jpg", "is_closed": false, "url": "https://www.yelp.com/biz/norms-restaurant-carson?adjust_creative=a2JdNtFqB-C38ga_06BHvw&utm_campaign=yelp_api_v3&utm_medium=api_v3_business_search&utm_source=a2JdNtFqB-C38ga_06BHvw", "review_count": 329, "categories": [{"alias": "tradamerican", "title": "American (Traditional)"}, {"alias": "breakfast_brunch", "title": "Breakfast & Brunch"}, {"alias": "diners", "title": "Diners"}], "rating": 3.0, "coordinates": {"latitude": 33.84651, "longitude": -118.26438}, "transactions": ["delivery", "pickup"], "location": {"address1": "20420 S Avalon Blvd", "address2": "", "address3": null, "city": "Carson", "zip_code": "90746", "country": "US", "state": "CA", "display_address": ["20420 S Avalon Blvd", "Carson, CA 90746"]}, "phone": "+13236792319", "display_phone": "(323) 679-2319", "distance": 1950.1037739313613}, {"id": "CoV60dr0CWH-g5_Y2TLoOQ", "alias": "shads-new-cali-catering-gardena", "name": "Shads New Cali Catering", "image_url": "https://s3-media3.fl.yelpcdn.com/bphoto/3H_DqbH3P0nlH8lj1DwMFA/o.jpg", "is_closed": false, "url": "https://www.yelp.com/biz/shads-new-cali-catering-gardena?adjust_creative=a2JdNtFqB-C38ga_06BHvw&utm_campaign=yelp_api_v3&utm_medium=api_v3_business_search&utm_source=a2JdNtFqB-C38ga_06BHvw", "review_count": 24, "categories": [{"alias": "cajun", "title": "Cajun/Creole"}, {"alias": "seafood", "title": "Seafood"}], "rating": 4.0, "coordinates": {"latitude": 33.8733459, "longitude": -118.2914699}, "transactions": [], "location": {"address1": "1001 W Artesia Blvd", "address2": null, "address3": "", "city": "Gardena", "zip_code": "90247", "country": "US", "state": "CA", "display_address": ["1001 W Artesia Blvd", "Gardena, CA 90247"]}, "phone": "+13102914810", "display_phone": "(310) 291-4810", "distance": 2999.003659523323}, {"id": "FE13XxhbWTVnX8y81ghlzg", "alias": "cafe-city-torrance", "name": "Cafe City", "image_url": "https://s3-media2.fl.yelpcdn.com/bphoto/jwzkjHpCVJJ1YxflvJDBGA/o.jpg", "is_closed": false, "url": "https://www.yelp.com/biz/cafe-city-torrance?adjust_creative=a2JdNtFqB-C38ga_06BHvw&utm_campaign=yelp_api_v3&utm_medium=api_v3_business_search&utm_source=a2JdNtFqB-C38ga_06BHvw", "review_count": 18, "categories": [{"alias": "delis", "title": "Delis"}], "rating": 4.0, "coordinates": {"latitude": 33.85722, "longitude": -118.29311}, "transactions": ["delivery"], "price": "$", "location": {"address1": "970 W 190th St", "address2": "", "address3": "", "city": "Torrance", "zip_code": "90502", "country": "US", "state": "CA", "display_address": ["970 W 190th St", "Torrance, CA 90502"]}, "phone": "+13105168659", "display_phone": "(310) 516-8659", "distance": 3044.1160299870567}, {"id": "jxnBrnRdhqleJTMjMuc5Bw", "alias": "waba-grill-compton", "name": "WaBa Grill", "image_url": "https://s3-media2.fl.yelpcdn.com/bphoto/1ysZAn7zqd2s1FWb8pDECQ/o.jpg", "is_closed": false, "url": "https://www.yelp.com/biz/waba-grill-compton?adjust_creative=a2JdNtFqB-C38ga_06BHvw&utm_campaign=yelp_api_v3&utm_medium=api_v3_business_search&utm_source=a2JdNtFqB-C38ga_06BHvw", "review_count": 26, "categories": [{"alias": "asianfusion", "title": "Asian Fusion"}, {"alias": "hotdogs", "title": "Fast Food"}], "rating": 4.0, "coordinates": {"latitude": 33.871951, "longitude": -118.247721}, "transactions": ["delivery", "pickup"], "price": "$", "location": {"address1": "2234 S Central Ave", "address2": "", "address3": null, "city": "Compton", "zip_code": "90220", "country": "US", "state": "CA", "display_address": ["2234 S Central Ave", "Compton, CA 90220"]}, "phone": "+13106031055", "display_phone": "(310) 603-1055", "distance": 1511.546968754618}, {"id": "Z60KNFTot_mw5J5LG7zsBg", "alias": "queens-tofu-long-beach-2", "name": "Queens Tofu", "image_url": "https://s3-media1.fl.yelpcdn.com/bphoto/v8Xx7n8Hf_MU7Cyc106DvQ/o.jpg", "is_closed": false, "url": "https://www.yelp.com/biz/queens-tofu-long-beach-2?adjust_creative=a2JdNtFqB-C38ga_06BHvw&utm_campaign=yelp_api_v3&utm_medium=api_v3_business_search&utm_source=a2JdNtFqB-C38ga_06BHvw", "review_count": 11, "categories": [{"alias": "korean", "title": "Korean"}], "rating": 4.5, "coordinates": {"latitude": 33.8707, "longitude": -118.24909}, "transactions": ["delivery", "pickup"], "location": {"address1": "17625 Central Ave", "address2": null, "address3": "", "city": "Long Beach", "zip_code": "90746", "country": "US", "state": "CA", "display_address": ["17625 Central Ave", "Long Beach, CA 90746"]}, "phone": "+13106392895", "display_phone": "(310) 639-2895", "distance": 1329.4491842635086}, {"id": "2Poy3KvV-Rz5_H3rJnzZ2g", "alias": "prontos-burgers-gardena", "name": "Pronto's Burgers", "image_url": "https://s3-media2.fl.yelpcdn.com/bphoto/v3Hi2uZhgCHm6AHj6H3gdQ/o.jpg", "is_closed": false, "url": "https://www.yelp.com/biz/prontos-burgers-gardena?adjust_creative=a2JdNtFqB-C38ga_06BHvw&utm_campaign=yelp_api_v3&utm_medium=api_v3_business_search&utm_source=a2JdNtFqB-C38ga_06BHvw", "review_count": 50, "categories": [{"alias": "tradamerican", "title": "American (Traditional)"}, {"alias": "mexican", "title": "Mexican"}, {"alias": "hotdogs", "title": "Fast Food"}], "rating": 3.5, "coordinates": {"latitude": 33.8643268887038, "longitude": -118.278401903808}, "transactions": ["delivery", "pickup"], "price": "$", "location": {"address1": "291 W Victoria St", "address2": "", "address3": "", "city": "Gardena", "zip_code": "90248", "country": "US", "state": "CA", "display_address": ["291 W Victoria St", "Gardena, CA 90248"]}, "phone": "+13105234400", "display_phone": "(310) 523-4400", "distance": 1607.1606252246063}, {"id": "QH99IuAUL-o_J6vys23jXg", "alias": "tacos-puebla-carson", "name": "Tacos Puebla", "image_url": "https://s3-media3.fl.yelpcdn.com/bphoto/u59iSvJyw70zNh1sG0ySWA/o.jpg", "is_closed": false, "url": "https://www.yelp.com/biz/tacos-puebla-carson?adjust_creative=a2JdNtFqB-C38ga_06BHvw&utm_campaign=yelp_api_v3&utm_medium=api_v3_business_search&utm_source=a2JdNtFqB-C38ga_06BHvw", "review_count": 33, "categories": [{"alias": "tacos", "title": "Tacos"}], "rating": 3.5, "coordinates": {"latitude": 33.87172, "longitude": -118.24911}, "transactions": ["delivery", "pickup"], "price": "$", "location": {"address1": "17531 S Central Ave", "address2": "Unit G", "address3": "", "city": "Carson", "zip_code": "90746", "country": "US", "state": "CA", "display_address": ["17531 S Central Ave", "Unit G", "Carson, CA 90746"]}, "phone": "+13105377848", "display_phone": "(310) 537-7848", "distance": 1404.9098711393526}, {"id": "L13H76eHKFVPgX229DN4iQ", "alias": "johns-incredible-pizza-carson-carson", "name": "John's Incredible Pizza - Carson", "image_url": "https://s3-media3.fl.yelpcdn.com/bphoto/dI2oYvIBB2YS1qgMqoWY3A/o.jpg", "is_closed": false, "url": "https://www.yelp.com/biz/johns-incredible-pizza-carson-carson?adjust_creative=a2JdNtFqB-C38ga_06BHvw&utm_campaign=yelp_api_v3&utm_medium=api_v3_business_search&utm_source=a2JdNtFqB-C38ga_06BHvw", "review_count": 175, "categories": [{"alias": "pizza", "title": "Pizza"}, {"alias": "amusementparks", "title": "Amusement Parks"}, {"alias": "arcades", "title": "Arcades"}], "rating": 3.0, "coordinates": {"latitude": 33.83998, "longitude": -118.2835169}, "transactions": ["delivery"], "price": "$$", "location": {"address1": "506 Carson Town Ctr N", "address2": "", "address3": null, "city": "Carson", "zip_code": "90745", "country": "US", "state": "CA", "display_address": ["506 Carson Town Ctr N", "Carson, CA 90745"]}, "phone": "+14243601111", "display_phone": "(424) 360-1111", "distance": 3384.8612614812073}, {"id": "DqcGtUlHAyJh_RGy2sQHOQ", "alias": "ninos-place-gardena", "name": "Nino's Place", "image_url": "https://s3-media4.fl.yelpcdn.com/bphoto/SNBWbcj68xM1v8WXWz1Fbw/o.jpg", "is_closed": false, "url": "https://www.yelp.com/biz/ninos-place-gardena?adjust_creative=a2JdNtFqB-C38ga_06BHvw&utm_campaign=yelp_api_v3&utm_medium=api_v3_business_search&utm_source=a2JdNtFqB-C38ga_06BHvw", "review_count": 70, "categories": [{"alias": "latin", "title": "Latin American"}, {"alias": "peruvian", "title": "Peruvian"}, {"alias": "delis", "title": "Delis"}], "rating": 3.5, "coordinates": {"latitude": 33.88498, "longitude": -118.29106}, "transactions": ["delivery"], "price": "$", "location": {"address1": "16104 S Vermont Ave", "address2": "", "address3": "", "city": "Gardena", "zip_code": "90247", "country": "US", "state": "CA", "display_address": ["16104 S Vermont Ave", "Gardena, CA 90247"]}, "phone": "+13103545925", "display_phone": "(310) 354-5925", "distance": 3637.7774796393974}, {"id": "J_DqsHFFT4LyRDJthme2xw", "alias": "el-pescador-carson-carson", "name": "El Pescador - Carson", "image_url": "https://s3-media3.fl.yelpcdn.com/bphoto/PEhTDRfgJXTVIsA9uYcxsA/o.jpg", "is_closed": false, "url": "https://www.yelp.com/biz/el-pescador-carson-carson?adjust_creative=a2JdNtFqB-C38ga_06BHvw&utm_campaign=yelp_api_v3&utm_medium=api_v3_business_search&utm_source=a2JdNtFqB-C38ga_06BHvw", "review_count": 595, "categories": [{"alias": "seafood", "title": "Seafood"}, {"alias": "mexican", "title": "Mexican"}], "rating": 2.5, "coordinates": {"latitude": 33.8729487, "longitude": -118.2662676}, "transactions": ["delivery", "pickup"], "price": "$$", "location": {"address1": "17421 S Avalon Blvd", "address2": "Ste A", "address3": "", "city": "Carson", "zip_code": "90746", "country": "US", "state": "CA", "display_address": ["17421 S Avalon Blvd", "Ste A", "Carson, CA 90746"]}, "phone": "+13103273774", "display_phone": "(310) 327-3774", "distance": 1044.9630849071016}, {"id": "9k59MZQL32IhPr54AGAesw", "alias": "lucky-star-cafe-mexican-grill-carson-2", "name": "Lucky star cafe Mexican grill", "image_url": "https://s3-media2.fl.yelpcdn.com/bphoto/vdvnPHPMSg1QtZI8NwrnMQ/o.jpg", "is_closed": false, "url": "https://www.yelp.com/biz/lucky-star-cafe-mexican-grill-carson-2?adjust_creative=a2JdNtFqB-C38ga_06BHvw&utm_campaign=yelp_api_v3&utm_medium=api_v3_business_search&utm_source=a2JdNtFqB-C38ga_06BHvw", "review_count": 113, "categories": [{"alias": "mexican", "title": "Mexican"}, {"alias": "tradamerican", "title": "American (Traditional)"}, {"alias": "breakfast_brunch", "title": "Breakfast & Brunch"}], "rating": 3.0, "coordinates": {"latitude": 33.875195, "longitude": -118.249141}, "transactions": ["delivery", "pickup"], "price": "$$", "location": {"address1": "17209 Central Ave", "address2": "", "address3": "", "city": "Carson", "zip_code": "90746", "country": "US", "state": "CA", "display_address": ["17209 Central Ave", "Carson, CA 90746"]}, "phone": "+13107644511", "display_phone": "(310) 764-4511", "distance": 1657.82475565489}, {"id": "S7kds4Sml8xc4NXByVgdMQ", "alias": "louisiana-fried-chicken-carson-2", "name": "Louisiana Fried Chicken", "image_url": "https://s3-media2.fl.yelpcdn.com/bphoto/sXPlX4gi3UQuozWQ4i053Q/o.jpg", "is_closed": false, "url": "https://www.yelp.com/biz/louisiana-fried-chicken-carson-2?adjust_creative=a2JdNtFqB-C38ga_06BHvw&utm_campaign=yelp_api_v3&utm_medium=api_v3_business_search&utm_source=a2JdNtFqB-C38ga_06BHvw", "review_count": 72, "categories": [{"alias": "fishnchips", "title": "Fish & Chips"}, {"alias": "chicken_wings", "title": "Chicken Wings"}], "rating": 3.0, "coordinates": {"latitude": 33.858515, "longitude": -118.264012}, "transactions": ["delivery", "pickup"], "price": "$", "location": {"address1": "677 E University Dr", "address2": "", "address3": "", "city": "Carson", "zip_code": "90746", "country": "US", "state": "CA", "display_address": ["677 E University Dr", "Carson, CA 90746"]}, "phone": "+13105325394", "display_phone": "(310) 532-5394", "distance": 670.3201265178899}, {"id": "PW2uA1ZUYZ2cL1KJ3BnwVg", "alias": "golden-eagle-burger-place-gardena", "name": "Golden Eagle Burger Place", "image_url": "https://s3-media4.fl.yelpcdn.com/bphoto/6OKjDrLxF0fpAHlVZ5tSKg/o.jpg", "is_closed": false, "url": "https://www.yelp.com/biz/golden-eagle-burger-place-gardena?adjust_creative=a2JdNtFqB-C38ga_06BHvw&utm_campaign=yelp_api_v3&utm_medium=api_v3_business_search&utm_source=a2JdNtFqB-C38ga_06BHvw", "review_count": 41, "categories": [{"alias": "hotdogs", "title": "Fast Food"}], "rating": 3.5, "coordinates": {"latitude": 33.87957, "longitude": -118.29158}, "transactions": ["delivery"], "price": "$", "location": {"address1": "16701 S Vermont Ave", "address2": "", "address3": "", "city": "Gardena", "zip_code": "90247", "country": "US", "state": "CA", "display_address": ["16701 S Vermont Ave", "Gardena, CA 90247"]}, "phone": "+13103236862", "display_phone": "(310) 323-6862", "distance": 3297.866751031199}, {"id": "RK1tY74aLqLffxNwOqKKzQ", "alias": "chef-cs-smhokin-pot-carson-4", "name": "Chef C's Smhokin Pot", "image_url": "https://s3-media3.fl.yelpcdn.com/bphoto/DXRru0xel-g7p1ns-H94gg/o.jpg", "is_closed": false, "url": "https://www.yelp.com/biz/chef-cs-smhokin-pot-carson-4?adjust_creative=a2JdNtFqB-C38ga_06BHvw&utm_campaign=yelp_api_v3&utm_medium=api_v3_business_search&utm_source=a2JdNtFqB-C38ga_06BHvw", "review_count": 9, "categories": [{"alias": "cajun", "title": "Cajun/Creole"}, {"alias": "southern", "title": "Southern"}], "rating": 4.5, "coordinates": {"latitude": 33.867339, "longitude": -118.265517}, "transactions": ["delivery", "pickup"], "location": {"address1": "17944 S Avalon Blvd", "address2": "", "address3": null, "city": "Carson", "zip_code": "90746", "country": "US", "state": "CA", "display_address": ["17944 S Avalon Blvd", "Carson, CA 90746"]}, "phone": "+13102832029", "display_phone": "(310) 283-2029", "distance": 555.0343472886386}, {"id": "nkUX4gxk0o6WOuPKnYOdaA", "alias": "jims-burgers-9-gardena", "name": "Jim's Burgers #9", "image_url": "https://s3-media1.fl.yelpcdn.com/bphoto/Cn8-ZZ6LmlPfnVURWQkIAg/o.jpg", "is_closed": false, "url": "https://www.yelp.com/biz/jims-burgers-9-gardena?adjust_creative=a2JdNtFqB-C38ga_06BHvw&utm_campaign=yelp_api_v3&utm_medium=api_v3_business_search&utm_source=a2JdNtFqB-C38ga_06BHvw", "review_count": 60, "categories": [{"alias": "hotdogs", "title": "Fast Food"}, {"alias": "burgers", "title": "Burgers"}], "rating": 3.0, "coordinates": {"latitude": 33.885799407959, "longitude": -118.28311920166}, "transactions": ["delivery"], "price": "$", "location": {"address1": "16025 S Figueroa St", "address2": "", "address3": "", "city": "Gardena", "zip_code": "90248", "country": "US", "state": "CA", "display_address": ["16025 S Figueroa St", "Gardena, CA 90248"]}, "phone": "+13103246483", "display_phone": "(310) 324-6483", "distance": 3154.7308276607664}, {"id": "OWrHDwHVsIyUn_WbjB0H3Q", "alias": "panera-bread-carson", "name": "Panera Bread", "image_url": "https://s3-media3.fl.yelpcdn.com/bphoto/lYdKKyUvfpDwdPQBZSkfmQ/o.jpg", "is_closed": false, "url": "https://www.yelp.com/biz/panera-bread-carson?adjust_creative=a2JdNtFqB-C38ga_06BHvw&utm_campaign=yelp_api_v3&utm_medium=api_v3_business_search&utm_source=a2JdNtFqB-C38ga_06BHvw", "review_count": 402, "categories": [{"alias": "sandwiches", "title": "Sandwiches"}, {"alias": "salad", "title": "Salad"}, {"alias": "soup", "title": "Soup"}], "rating": 2.5, "coordinates": {"latitude": 33.84419369989296, "longitude": -118.26209324491896}, "transactions": ["delivery", "pickup"], "price": "$$", "location": {"address1": "20700 Avalon Blvd", "address2": "Ste A-18", "address3": "", "city": "Carson", "zip_code": "90746", "country": "US", "state": "CA", "display_address": ["20700 Avalon Blvd", "Ste A-18", "Carson, CA 90746"]}, "phone": "+13104361545", "display_phone": "(310) 436-1545", "distance": 2204.6702120529844}, {"id": "KWkRSRvgaYIvFB48h3C1nQ", "alias": "jersey-mikes-sub-carson", "name": "Jersey Mike's Sub", "image_url": "https://s3-media1.fl.yelpcdn.com/bphoto/ORG_W8EeKeqzqI1LpTu9tg/o.jpg", "is_closed": false, "url": "https://www.yelp.com/biz/jersey-mikes-sub-carson?adjust_creative=a2JdNtFqB-C38ga_06BHvw&utm_campaign=yelp_api_v3&utm_medium=api_v3_business_search&utm_source=a2JdNtFqB-C38ga_06BHvw", "review_count": 125, "categories": [{"alias": "hotdogs", "title": "Fast Food"}, {"alias": "sandwiches", "title": "Sandwiches"}, {"alias": "desserts", "title": "Desserts"}], "rating": 3.0, "coordinates": {"latitude": 33.846527, "longitude": -118.26369}, "transactions": ["delivery", "pickup"], "price": "$$", "location": {"address1": "20420 S Avalon Blvd", "address2": "", "address3": null, "city": "Carson", "zip_code": "90746", "country": "US", "state": "CA", "display_address": ["20420 S Avalon Blvd", "Carson, CA 90746"]}, "phone": "+13105272000", "display_phone": "(310) 527-2000", "distance": 1958.721174430556}, {"id": "b40E9OmLy31cOYkKM7IlPQ", "alias": "fabulous-burger-gardena", "name": "Fabulous Burger", "image_url": "https://s3-media2.fl.yelpcdn.com/bphoto/8T-Pl0z50BYN_0jVt-hShA/o.jpg", "is_closed": false, "url": "https://www.yelp.com/biz/fabulous-burger-gardena?adjust_creative=a2JdNtFqB-C38ga_06BHvw&utm_campaign=yelp_api_v3&utm_medium=api_v3_business_search&utm_source=a2JdNtFqB-C38ga_06BHvw", "review_count": 78, "categories": [{"alias": "burgers", "title": "Burgers"}], "rating": 3.0, "coordinates": {"latitude": 33.881477355957, "longitude": -118.278495788574}, "transactions": ["delivery"], "price": "$", "location": {"address1": "302 W Gardena Blvd", "address2": "", "address3": "", "city": "Gardena", "zip_code": "90248", "country": "US", "state": "CA", "display_address": ["302 W Gardena Blvd", "Gardena, CA 90248"]}, "phone": "+13107156580", "display_phone": "(310) 715-6580", "distance": 2546.259584151069}, {"id": "NRQa0A7P8iIPMlAKEeHA-g", "alias": "miracle-market-compton", "name": "Miracle Market", "image_url": "https://s3-media2.fl.yelpcdn.com/bphoto/ZcQNlPwJyVixxUunByOiOQ/o.jpg", "is_closed": false, "url": "https://www.yelp.com/biz/miracle-market-compton?adjust_creative=a2JdNtFqB-C38ga_06BHvw&utm_campaign=yelp_api_v3&utm_medium=api_v3_business_search&utm_source=a2JdNtFqB-C38ga_06BHvw", "review_count": 32, "categories": [{"alias": "grocery", "title": "Grocery"}, {"alias": "delis", "title": "Delis"}], "rating": 3.5, "coordinates": {"latitude": 33.8881645202637, "longitude": -118.237411499023}, "transactions": [], "price": "$$", "location": {"address1": "800 W Alondra Blvd", "address2": "", "address3": "", "city": "Compton", "zip_code": "90220", "country": "US", "state": "CA", "display_address": ["800 W Alondra Blvd", "Compton, CA 90220"]}, "phone": "+13105378813", "display_phone": "(310) 537-8813", "distance": 3453.68818727916}, {"id": "N6zZ6AQGc-gXKaMpA6EwHA", "alias": "tony-romas-carson", "name": "Tony Roma's", "image_url": "https://s3-media2.fl.yelpcdn.com/bphoto/XY-7FzXmojWQtEdFISytGg/o.jpg", "is_closed": false, "url": "https://www.yelp.com/biz/tony-romas-carson?adjust_creative=a2JdNtFqB-C38ga_06BHvw&utm_campaign=yelp_api_v3&utm_medium=api_v3_business_search&utm_source=a2JdNtFqB-C38ga_06BHvw", "review_count": 294, "categories": [{"alias": "bbq", "title": "Barbeque"}, {"alias": "steak", "title": "Steakhouses"}, {"alias": "tradamerican", "title": "American (Traditional)"}], "rating": 2.5, "coordinates": {"latitude": 33.8439041089855, "longitude": -118.262979537249}, "transactions": ["pickup"], "price": "$$", "location": {"address1": "20720 Avalon Blvd", "address2": "", "address3": "", "city": "Carson", "zip_code": "90746", "country": "US", "state": "CA", "display_address": ["20720 Avalon Blvd", "Carson, CA 90746"]}, "phone": "+13103295723", "display_phone": "(310) 329-5723", "distance": 2242.022922399425}, {"id": "xa-u6XLNcFzjMtzreao7xQ", "alias": "jimmy-johns-compton", "name": "Jimmy John's", "image_url": "https://s3-media1.fl.yelpcdn.com/bphoto/OA_b9FXHOoyQBNevyWDadg/o.jpg", "is_closed": false, "url": "https://www.yelp.com/biz/jimmy-johns-compton?adjust_creative=a2JdNtFqB-C38ga_06BHvw&utm_campaign=yelp_api_v3&utm_medium=api_v3_business_search&utm_source=a2JdNtFqB-C38ga_06BHvw", "review_count": 24, "categories": [{"alias": "sandwiches", "title": "Sandwiches"}, {"alias": "hotdogs", "title": "Fast Food"}, {"alias": "delis", "title": "Delis"}], "rating": 3.5, "coordinates": {"latitude": 33.871566, "longitude": -118.248327}, "transactions": [], "price": "$", "location": {"address1": "2236 S Central Ave", "address2": "", "address3": "", "city": "Compton", "zip_code": "90220", "country": "US", "state": "CA", "display_address": ["2236 S Central Ave", "Compton, CA 90220"]}, "phone": "+13108846885", "display_phone": "(310) 884-6885", "distance": 1441.1290927516711}, {"id": "ljPcIITkIu3phavAcDjm5A", "alias": "flame-broiler-carson", "name": "Flame Broiler", "image_url": "https://s3-media3.fl.yelpcdn.com/bphoto/5loTqWGI2Cw9Pooe4TKKbw/o.jpg", "is_closed": false, "url": "https://www.yelp.com/biz/flame-broiler-carson?adjust_creative=a2JdNtFqB-C38ga_06BHvw&utm_campaign=yelp_api_v3&utm_medium=api_v3_business_search&utm_source=a2JdNtFqB-C38ga_06BHvw", "review_count": 52, "categories": [{"alias": "asianfusion", "title": "Asian Fusion"}], "rating": 3.0, "coordinates": {"latitude": 33.8716536015272, "longitude": -118.248810768127}, "transactions": ["delivery"], "price": "$", "location": {"address1": "17535 Central Ave", "address2": "", "address3": "", "city": "Carson", "zip_code": "90746", "country": "US", "state": "CA", "display_address": ["17535 Central Ave", "Carson, CA 90746"]}, "phone": "+13106352188", "display_phone": "(310) 635-2188", "distance": 1389.464972318866}, {"id": "shUrEZi-IBScwMqwune0qA", "alias": "louisiana-fried-chicken-compton", "name": "Louisiana Fried Chicken", "image_url": "https://s3-media1.fl.yelpcdn.com/bphoto/R-oqJdenSieJSDV9pFcW5g/o.jpg", "is_closed": false, "url": "https://www.yelp.com/biz/louisiana-fried-chicken-compton?adjust_creative=a2JdNtFqB-C38ga_06BHvw&utm_campaign=yelp_api_v3&utm_medium=api_v3_business_search&utm_source=a2JdNtFqB-C38ga_06BHvw", "review_count": 22, "categories": [{"alias": "chicken_wings", "title": "Chicken Wings"}], "rating": 3.5, "coordinates": {"latitude": 33.8881149291992, "longitude": -118.236724853516}, "transactions": ["delivery"], "price": "$", "location": {"address1": "734 W Alondra Blvd", "address2": "", "address3": "", "city": "Compton", "zip_code": "90220", "country": "US", "state": "CA", "display_address": ["734 W Alondra Blvd", "Compton, CA 90220"]}, "phone": "+13107642110", "display_phone": "(310) 764-2110", "distance": 3499.4547777831767}, {"id": "be1DQv4kxxLON2Sj_cnt8Q", "alias": "chile-verde-carson-3", "name": "Chile Verde", "image_url": "https://s3-media1.fl.yelpcdn.com/bphoto/xZBTcBxTpwrVHgkUWD9ZIw/o.jpg", "is_closed": false, "url": "https://www.yelp.com/biz/chile-verde-carson-3?adjust_creative=a2JdNtFqB-C38ga_06BHvw&utm_campaign=yelp_api_v3&utm_medium=api_v3_business_search&utm_source=a2JdNtFqB-C38ga_06BHvw", "review_count": 64, "categories": [{"alias": "mexican", "title": "Mexican"}], "rating": 3.0, "coordinates": {"latitude": 33.8411598625, "longitude": -118.285290969}, "transactions": ["delivery", "pickup"], "price": "$", "location": {"address1": "20806 Figueroa St", "address2": "", "address3": "", "city": "Carson", "zip_code": "90745", "country": "US", "state": "CA", "display_address": ["20806 Figueroa St", "Carson, CA 90745"]}, "phone": "+13107828103", "display_phone": "(310) 782-8103", "distance": 3388.472846426536}, {"id": "PmHO04UUnYTpA7Z78av_kg", "alias": "toms-super-burgers-gardena", "name": "Tom's Super Burgers", "image_url": "https://s3-media4.fl.yelpcdn.com/bphoto/2f11v034KiIqJJe55SaWyw/o.jpg", "is_closed": false, "url": "https://www.yelp.com/biz/toms-super-burgers-gardena?adjust_creative=a2JdNtFqB-C38ga_06BHvw&utm_campaign=yelp_api_v3&utm_medium=api_v3_business_search&utm_source=a2JdNtFqB-C38ga_06BHvw", "review_count": 53, "categories": [{"alias": "mexican", "title": "Mexican"}, {"alias": "hotdogs", "title": "Fast Food"}, {"alias": "burgers", "title": "Burgers"}], "rating": 3.0, "coordinates": {"latitude": 33.8863926029836, "longitude": -118.265721307944}, "transactions": ["delivery"], "price": "$", "location": {"address1": "555 E Alondra Blvd", "address2": "", "address3": "", "city": "Gardena", "zip_code": "90248", "country": "US", "state": "CA", "display_address": ["555 E Alondra Blvd", "Gardena, CA 90248"]}, "phone": "+13105155446", "display_phone": "(310) 515-5446", "distance": 2527.803357517679}, {"id": "GynUgrPdcVVJGjQ64_J1rA", "alias": "columbia-restaurant-carson", "name": "Columbia Restaurant", "image_url": "https://s3-media2.fl.yelpcdn.com/bphoto/W9stnzKc3UlsMvHTJ7EV5w/o.jpg", "is_closed": false, "url": "https://www.yelp.com/biz/columbia-restaurant-carson?adjust_creative=a2JdNtFqB-C38ga_06BHvw&utm_campaign=yelp_api_v3&utm_medium=api_v3_business_search&utm_source=a2JdNtFqB-C38ga_06BHvw", "review_count": 207, "categories": [{"alias": "mexican", "title": "Mexican"}, {"alias": "tradamerican", "title": "American (Traditional)"}, {"alias": "comfortfood", "title": "Comfort Food"}], "rating": 2.5, "coordinates": {"latitude": 33.871204, "longitude": -118.249018}, "transactions": ["delivery"], "price": "$", "location": {"address1": "17601 S Central Ave", "address2": null, "address3": "", "city": "Carson", "zip_code": "90746", "country": "US", "state": "CA", "display_address": ["17601 S Central Ave", "Carson, CA 90746"]}, "phone": "+13106327313", "display_phone": "(310) 632-7313", "distance": 1363.4203132170974}, {"id": "HJOOo_hUxZM7VLKh54-4jg", "alias": "in-n-out-burger-compton", "name": "In-N-Out Burger", "image_url": "https://s3-media1.fl.yelpcdn.com/bphoto/PruyiY_Rh-X10jQmjGCfFQ/o.jpg", "is_closed": false, "url": "https://www.yelp.com/biz/in-n-out-burger-compton?adjust_creative=a2JdNtFqB-C38ga_06BHvw&utm_campaign=yelp_api_v3&utm_medium=api_v3_business_search&utm_source=a2JdNtFqB-C38ga_06BHvw", "review_count": 32, "categories": [{"alias": "burgers", "title": "Burgers"}, {"alias": "hotdogs", "title": "Fast Food"}], "rating": 3.0, "coordinates": {"latitude": 33.87269, "longitude": -118.24841}, "transactions": [], "price": "$", "location": {"address1": "2200 S Central Ave", "address2": "", "address3": null, "city": "Compton", "zip_code": "90220", "country": "US", "state": "CA", "display_address": ["2200 S Central Ave", "Compton, CA 90220"]}, "phone": "+18007861000", "display_phone": "(800) 786-1000", "distance": 1511.5812938406964}, {"id": "P-uoCTe6oWaJ_FxcpaKUVQ", "alias": "hong-kong-express-carson-2", "name": "Hong Kong Express", "image_url": "https://s3-media2.fl.yelpcdn.com/bphoto/19VvdnPnXpTju4p6V8JXmQ/o.jpg", "is_closed": false, "url": "https://www.yelp.com/biz/hong-kong-express-carson-2?adjust_creative=a2JdNtFqB-C38ga_06BHvw&utm_campaign=yelp_api_v3&utm_medium=api_v3_business_search&utm_source=a2JdNtFqB-C38ga_06BHvw", "review_count": 36, "categories": [{"alias": "chinese", "title": "Chinese"}], "rating": 3.0, "coordinates": {"latitude": 33.8583116233349, "longitude": -118.264093324542}, "transactions": ["delivery"], "price": "$", "location": {"address1": "671 E University Dr", "address2": "", "address3": "", "city": "Carson", "zip_code": "90746", "country": "US", "state": "CA", "display_address": ["671 E University Dr", "Carson, CA 90746"]}, "phone": "+13107198832", "display_phone": "(310) 719-8832", "distance": 692.0954940737889}, {"id": "XNjVEicK4Z80Ua_fTidt7w", "alias": "tia-lauras-mexican-food-gardena", "name": "Tia Laura's Mexican Food", "image_url": "https://s3-media2.fl.yelpcdn.com/bphoto/iy6cwhXj-8renSLKQyyHSQ/o.jpg", "is_closed": false, "url": "https://www.yelp.com/biz/tia-lauras-mexican-food-gardena?adjust_creative=a2JdNtFqB-C38ga_06BHvw&utm_campaign=yelp_api_v3&utm_medium=api_v3_business_search&utm_source=a2JdNtFqB-C38ga_06BHvw", "review_count": 9, "categories": [{"alias": "mexican", "title": "Mexican"}], "rating": 4.0, "coordinates": {"latitude": 33.8813247680664, "longitude": -118.291061401367}, "transactions": ["delivery"], "price": "$$", "location": {"address1": "858 W Gardena Blvd", "address2": null, "address3": "", "city": "Gardena", "zip_code": "90247", "country": "US", "state": "CA", "display_address": ["858 W Gardena Blvd", "Gardena, CA 90247"]}, "phone": "+13105272707", "display_phone": "(310) 527-2707", "distance": 3384.4796213073632}, {"id": "DKb6gieQUdvT7ZVfjViU6Q", "alias": "pec-speedster-cafe-carson", "name": "PEC Speedster Cafe", "image_url": "https://s3-media1.fl.yelpcdn.com/bphoto/aEQN0A05oiOC58NIUFUzAw/o.jpg", "is_closed": false, "url": "https://www.yelp.com/biz/pec-speedster-cafe-carson?adjust_creative=a2JdNtFqB-C38ga_06BHvw&utm_campaign=yelp_api_v3&utm_medium=api_v3_business_search&utm_source=a2JdNtFqB-C38ga_06BHvw", "review_count": 5, "categories": [{"alias": "cafes", "title": "Cafes"}], "rating": 5.0, "coordinates": {"latitude": 33.8513037653076, "longitude": -118.279341254858}, "transactions": [], "price": "$$", "location": {"address1": "19800 South Main St", "address2": "", "address3": null, "city": "Carson", "zip_code": "90248", "country": "US", "state": "CA", "display_address": ["19800 South Main St", "Carson, CA 90248"]}, "phone": "+18882047474", "display_phone": "(888) 204-7474", "distance": 2204.8515092407592}, {"id": "SUGd4IKAJDH_tRg1yD-a4g", "alias": "dennys-carson", "name": "Denny's", "image_url": "https://s3-media1.fl.yelpcdn.com/bphoto/hGpXEM5QzUnygAVPWvQX0g/o.jpg", "is_closed": false, "url": "https://www.yelp.com/biz/dennys-carson?adjust_creative=a2JdNtFqB-C38ga_06BHvw&utm_campaign=yelp_api_v3&utm_medium=api_v3_business_search&utm_source=a2JdNtFqB-C38ga_06BHvw", "review_count": 219, "categories": [{"alias": "diners", "title": "Diners"}, {"alias": "breakfast_brunch", "title": "Breakfast & Brunch"}, {"alias": "tradamerican", "title": "American (Traditional)"}], "rating": 2.5, "coordinates": {"latitude": 33.8447662, "longitude": -118.2647219}, "transactions": ["delivery", "pickup"], "price": "$", "location": {"address1": "600 Carson Plaza Dr", "address2": "", "address3": "", "city": "Carson", "zip_code": "90746", "country": "US", "state": "CA", "display_address": ["600 Carson Plaza Dr", "Carson, CA 90746"]}, "phone": "+13105326106", "display_phone": "(310) 532-6106", "distance": 2166.1380348347734}, {"id": "lbl05ymCHdbf0QtoXLp3lw", "alias": "chilis-carson", "name": "Chili's", "image_url": "https://s3-media3.fl.yelpcdn.com/bphoto/XhDFgQb1w0O_pebKNgLMFw/o.jpg", "is_closed": false, "url": "https://www.yelp.com/biz/chilis-carson?adjust_creative=a2JdNtFqB-C38ga_06BHvw&utm_campaign=yelp_api_v3&utm_medium=api_v3_business_search&utm_source=a2JdNtFqB-C38ga_06BHvw", "review_count": 575, "categories": [{"alias": "tradamerican", "title": "American (Traditional)"}, {"alias": "tex-mex", "title": "Tex-Mex"}, {"alias": "bars", "title": "Bars"}], "rating": 2.5, "coordinates": {"latitude": 33.8423, "longitude": -118.26212}, "transactions": [], "price": "$$", "location": {"address1": "20760 S Avalon Blvd", "address2": "", "address3": "", "city": "Carson", "zip_code": "90746", "country": "US", "state": "CA", "display_address": ["20760 S Avalon Blvd", "Carson, CA 90746"]}, "phone": "+13105161180", "display_phone": "(310) 516-1180", "distance": 2421.846479011544}, {"id": "KdhOmCnRUOYJsNPEiNxvZg", "alias": "sncc-food-truck-torrance", "name": "SNCC Food Truck", "image_url": "https://s3-media4.fl.yelpcdn.com/bphoto/RSjHCjGipCqB_X8jZN-aQA/o.jpg", "is_closed": false, "url": "https://www.yelp.com/biz/sncc-food-truck-torrance?adjust_creative=a2JdNtFqB-C38ga_06BHvw&utm_campaign=yelp_api_v3&utm_medium=api_v3_business_search&utm_source=a2JdNtFqB-C38ga_06BHvw", "review_count": 16, "categories": [{"alias": "soulfood", "title": "Soul Food"}, {"alias": "foodtrucks", "title": "Food Trucks"}], "rating": 3.5, "coordinates": {"latitude": 33.849196196232, "longitude": -118.286031112075}, "transactions": [], "location": {"address1": "20100 Hamilton Ave", "address2": "", "address3": null, "city": "Torrance", "zip_code": "90502", "country": "US", "state": "CA", "display_address": ["20100 Hamilton Ave", "Torrance, CA 90502"]}, "phone": "", "display_phone": "", "distance": 2837.6240598954964}, {"id": "_tdTnNNAniWRAu55ISpAWQ", "alias": "waba-grill-carson", "name": "WaBa Grill", "image_url": "https://s3-media2.fl.yelpcdn.com/bphoto/v6tWav7OA1d6dLR1_L9n-Q/o.jpg", "is_closed": false, "url": "https://www.yelp.com/biz/waba-grill-carson?adjust_creative=a2JdNtFqB-C38ga_06BHvw&utm_campaign=yelp_api_v3&utm_medium=api_v3_business_search&utm_source=a2JdNtFqB-C38ga_06BHvw", "review_count": 71, "categories": [{"alias": "hotdogs", "title": "Fast Food"}, {"alias": "asianfusion", "title": "Asian Fusion"}], "rating": 2.5, "coordinates": {"latitude": 33.84175283, "longitude": -118.28496133}, "transactions": ["delivery", "pickup"], "price": "$", "location": {"address1": "514 Torrance Blvd", "address2": "", "address3": "", "city": "Carson", "zip_code": "90745", "country": "US", "state": "CA", "display_address": ["514 Torrance Blvd", "Carson, CA 90745"]}, "phone": "+13103209222", "display_phone": "(310) 320-9222", "distance": 3318.0157103822967}, {"id": "qiuDH1lXma_9Qsz-hK1toA", "alias": "las-islas-marias-gardena", "name": "Las Islas Marias", "image_url": "https://s3-media3.fl.yelpcdn.com/bphoto/F0lg3Dm0DAKiJcPgQljhXw/o.jpg", "is_closed": false, "url": "https://www.yelp.com/biz/las-islas-marias-gardena?adjust_creative=a2JdNtFqB-C38ga_06BHvw&utm_campaign=yelp_api_v3&utm_medium=api_v3_business_search&utm_source=a2JdNtFqB-C38ga_06BHvw", "review_count": 114, "categories": [{"alias": "seafood", "title": "Seafood"}, {"alias": "sportsbars", "title": "Sports Bars"}, {"alias": "mexican", "title": "Mexican"}], "rating": 2.5, "coordinates": {"latitude": 33.8816730452785, "longitude": -118.28205473721}, "transactions": ["delivery", "pickup"], "price": "$$", "location": {"address1": "444 W Gardena Blvd", "address2": "", "address3": null, "city": "Gardena", "zip_code": "90248", "country": "US", "state": "CA", "display_address": ["444 W Gardena Blvd", "Gardena, CA 90248"]}, "phone": "+13105320212", "display_phone": "(310) 532-0212", "distance": 2764.104279569367}, {"id": "LkYl8GnNWJ5H5iB8PJ_VZg", "alias": "tacos-de-canasta-la-probadita-gardena", "name": "Tacos De Canasta La Probadita", "image_url": "https://s3-media3.fl.yelpcdn.com/bphoto/2fg4cKDdTbozhWUWgkuxXg/o.jpg", "is_closed": false, "url": "https://www.yelp.com/biz/tacos-de-canasta-la-probadita-gardena?adjust_creative=a2JdNtFqB-C38ga_06BHvw&utm_campaign=yelp_api_v3&utm_medium=api_v3_business_search&utm_source=a2JdNtFqB-C38ga_06BHvw", "review_count": 4, "categories": [{"alias": "tacos", "title": "Tacos"}, {"alias": "foodstands", "title": "Food Stands"}], "rating": 5.0, "coordinates": {"latitude": 33.869286, "longitude": -118.290046}, "transactions": [], "location": {"address1": "17800 Vermont Ave", "address2": "", "address3": "", "city": "Gardena", "zip_code": "90248", "country": "US", "state": "CA", "display_address": ["17800 Vermont Ave", "Gardena, CA 90248"]}, "phone": "+17145834204", "display_phone": "(714) 583-4204", "distance": 2676.822546792214}, {"id": "6N8hxAGVs4u8rknvD_tZPQ", "alias": "wrap-and-roll-eatery-compton-2", "name": "Wrap and Roll Eatery", "image_url": "https://s3-media1.fl.yelpcdn.com/bphoto/uc37-p1kTVUuasCtFDKE0Q/o.jpg", "is_closed": false, "url": "https://www.yelp.com/biz/wrap-and-roll-eatery-compton-2?adjust_creative=a2JdNtFqB-C38ga_06BHvw&utm_campaign=yelp_api_v3&utm_medium=api_v3_business_search&utm_source=a2JdNtFqB-C38ga_06BHvw", "review_count": 4, "categories": [{"alias": "sandwiches", "title": "Sandwiches"}, {"alias": "salad", "title": "Salad"}, {"alias": "wraps", "title": "Wraps"}], "rating": 5.0, "coordinates": {"latitude": 33.868238, "longitude": -118.237362}, "transactions": ["delivery", "pickup"], "location": {"address1": "901 W Victoria St", "address2": "Unit B-1", "address3": "", "city": "Compton", "zip_code": "90220", "country": "US", "state": "CA", "display_address": ["901 W Victoria St", "Unit B-1", "Compton, CA 90220"]}, "phone": "+13109287976", "display_phone": "(310) 928-7976", "distance": 2232.785644936264}, {"id": "tz-fkIAJ4oTLraKVSRG4yA", "alias": "chile-verde-carson-2", "name": "Chile Verde", "image_url": "https://s3-media2.fl.yelpcdn.com/bphoto/yQnlWmvNgjj3D1F0Wmh2fg/o.jpg", "is_closed": false, "url": "https://www.yelp.com/biz/chile-verde-carson-2?adjust_creative=a2JdNtFqB-C38ga_06BHvw&utm_campaign=yelp_api_v3&utm_medium=api_v3_business_search&utm_source=a2JdNtFqB-C38ga_06BHvw", "review_count": 44, "categories": [{"alias": "mexican", "title": "Mexican"}, {"alias": "hotdogs", "title": "Fast Food"}], "rating": 3.0, "coordinates": {"latitude": 33.8434989732139, "longitude": -118.261485176187}, "transactions": ["delivery", "pickup"], "price": "$", "location": {"address1": "20700 Avalon Blvd", "address2": "", "address3": "", "city": "Carson", "zip_code": "90746", "country": "US", "state": "CA", "display_address": ["20700 Avalon Blvd", "Carson, CA 90746"]}, "phone": "+13106300080", "display_phone": "(310) 630-0080", "distance": 2280.047867288046}, {"id": "QEDyCF3hmFu5--OHq_Gplw", "alias": "chipotle-mexican-grill-carson", "name": "Chipotle Mexican Grill", "image_url": "https://s3-media3.fl.yelpcdn.com/bphoto/YKH94UYvbcbqR0w5wGa_Ag/o.jpg", "is_closed": false, "url": "https://www.yelp.com/biz/chipotle-mexican-grill-carson?adjust_creative=a2JdNtFqB-C38ga_06BHvw&utm_campaign=yelp_api_v3&utm_medium=api_v3_business_search&utm_source=a2JdNtFqB-C38ga_06BHvw", "review_count": 116, "categories": [{"alias": "mexican", "title": "Mexican"}, {"alias": "hotdogs", "title": "Fast Food"}], "rating": 2.5, "coordinates": {"latitude": 33.8465713031887, "longitude": -118.263455161325}, "transactions": ["delivery"], "price": "$", "location": {"address1": "20420 Avalon Blvd", "address2": "Ste A", "address3": null, "city": "Carson", "zip_code": "90746", "country": "US", "state": "CA", "display_address": ["20420 Avalon Blvd", "Ste A", "Carson, CA 90746"]}, "phone": "+13102170034", "display_phone": "(310) 217-0034", "distance": 1951.1963763182887}, {"id": "Ey9biXm8IUp_lGZMy_N0bA", "alias": "raising-canes-carson", "name": "Raising Cane's", "image_url": "https://s3-media1.fl.yelpcdn.com/bphoto/MqLZtgjl3b70huEoxFQBbQ/o.jpg", "is_closed": false, "url": "https://www.yelp.com/biz/raising-canes-carson?adjust_creative=a2JdNtFqB-C38ga_06BHvw&utm_campaign=yelp_api_v3&utm_medium=api_v3_business_search&utm_source=a2JdNtFqB-C38ga_06BHvw", "review_count": 11, "categories": [{"alias": "hotdogs", "title": "Fast Food"}], "rating": 3.5, "coordinates": {"latitude": 33.843506, "longitude": -118.263743}, "transactions": [], "location": {"address1": "20707 S Avalon Blvd", "address2": "", "address3": null, "city": "Carson", "zip_code": "90746", "country": "US", "state": "CA", "display_address": ["20707 S Avalon Blvd", "Carson, CA 90746"]}, "phone": "+13103230228", "display_phone": "(310) 323-0228", "distance": 2302.1529096193535}, {"id": "8UON6kjA_hbXfKvKKpueoQ", "alias": "l-and-l-hawaiian-barbecue-carson-3", "name": "L&L Hawaiian Barbecue", "image_url": "https://s3-media2.fl.yelpcdn.com/bphoto/JtgwWe-4Y4WyMCgo3J2jdA/o.jpg", "is_closed": false, "url": "https://www.yelp.com/biz/l-and-l-hawaiian-barbecue-carson-3?adjust_creative=a2JdNtFqB-C38ga_06BHvw&utm_campaign=yelp_api_v3&utm_medium=api_v3_business_search&utm_source=a2JdNtFqB-C38ga_06BHvw", "review_count": 24, "categories": [{"alias": "hawaiian", "title": "Hawaiian"}, {"alias": "bbq", "title": "Barbeque"}], "rating": 3.0, "coordinates": {"latitude": 33.872078, "longitude": -118.267099}, "transactions": ["pickup", "delivery"], "location": {"address1": "501 E Albertoni St", "address2": "Ste B2", "address3": "", "city": "Carson", "zip_code": "90746", "country": "US", "state": "CA", "display_address": ["501 E Albertoni St", "Ste B2", "Carson, CA 90746"]}, "phone": "+13107696988", "display_phone": "(310) 769-6988", "distance": 1065.267691104313}, {"id": "Sh05agZ2bIrpPOuZWidlBw", "alias": "wingstop-carson", "name": "Wingstop", "image_url": "https://s3-media3.fl.yelpcdn.com/bphoto/4NowHCVH0WBxqRjRm4ZoxQ/o.jpg", "is_closed": false, "url": "https://www.yelp.com/biz/wingstop-carson?adjust_creative=a2JdNtFqB-C38ga_06BHvw&utm_campaign=yelp_api_v3&utm_medium=api_v3_business_search&utm_source=a2JdNtFqB-C38ga_06BHvw", "review_count": 367, "categories": [{"alias": "chicken_wings", "title": "Chicken Wings"}], "rating": 2.0, "coordinates": {"latitude": 33.843937, "longitude": -118.260938}, "transactions": [], "price": "$$", "location": {"address1": "20700 S Avalon Blvd", "address2": "Ste 483", "address3": "Carson Mall", "city": "Carson", "zip_code": "90746", "country": "US", "state": "CA", "display_address": ["20700 S Avalon Blvd", "Ste 483", "Carson Mall", "Carson, CA 90746"]}, "phone": "+13105329464", "display_phone": "(310) 532-9464", "distance": 2230.908685446883}, {"id": "q3zeqQ6hXIHOVmMajAFxMg", "alias": "anytime-hawaiian-bbq-and-local-food-carson-5", "name": "Anytime Hawaiian BBQ & Local Food", "image_url": "https://s3-media1.fl.yelpcdn.com/bphoto/kU6A64IKlk0F-5AsXHLPfw/o.jpg", "is_closed": false, "url": "https://www.yelp.com/biz/anytime-hawaiian-bbq-and-local-food-carson-5?adjust_creative=a2JdNtFqB-C38ga_06BHvw&utm_campaign=yelp_api_v3&utm_medium=api_v3_business_search&utm_source=a2JdNtFqB-C38ga_06BHvw", "review_count": 17, "categories": [{"alias": "hawaiian", "title": "Hawaiian"}, {"alias": "bbq", "title": "Barbeque"}, {"alias": "seafood", "title": "Seafood"}], "rating": 3.0, "coordinates": {"latitude": 33.84836, "longitude": -118.26384}, "transactions": ["pickup", "delivery"], "location": {"address1": "20220 Avalon Blvd", "address2": "Ste B", "address3": "", "city": "Carson", "zip_code": "90746", "country": "US", "state": "CA", "display_address": ["20220 Avalon Blvd", "Ste B", "Carson, CA 90746"]}, "phone": "+13105156119", "display_phone": "(310) 515-6119", "distance": 1758.6580061479874}, {"id": "npXmJeyKOXYatFd3Cfn2jg", "alias": "california-fish-market-vending-and-catering-gardena-3", "name": "California Fish Market Vending & Catering", "image_url": "https://s3-media2.fl.yelpcdn.com/bphoto/gwGMlmaHJGawx8kSCWto8w/o.jpg", "is_closed": false, "url": "https://www.yelp.com/biz/california-fish-market-vending-and-catering-gardena-3?adjust_creative=a2JdNtFqB-C38ga_06BHvw&utm_campaign=yelp_api_v3&utm_medium=api_v3_business_search&utm_source=a2JdNtFqB-C38ga_06BHvw", "review_count": 3, "categories": [{"alias": "catering", "title": "Caterers"}, {"alias": "seafood", "title": "Seafood"}], "rating": 5.0, "coordinates": {"latitude": 33.8850586982697, "longitude": -118.291800230754}, "transactions": [], "location": {"address1": "", "address2": "", "address3": null, "city": "Gardena", "zip_code": "90247", "country": "US", "state": "CA", "display_address": ["Gardena, CA 90247"]}, "phone": "+13105039509", "display_phone": "(310) 503-9509", "distance": 3683.564086432868}, {"id": "YQsbLGkrf7oICbkOr8yMXw", "alias": "el-pollo-inka-carson", "name": "El Pollo Inka", "image_url": "https://s3-media3.fl.yelpcdn.com/bphoto/8awEUPtedcYvIvRhAi4Uww/o.jpg", "is_closed": false, "url": "https://www.yelp.com/biz/el-pollo-inka-carson?adjust_creative=a2JdNtFqB-C38ga_06BHvw&utm_campaign=yelp_api_v3&utm_medium=api_v3_business_search&utm_source=a2JdNtFqB-C38ga_06BHvw", "review_count": 3, "categories": [{"alias": "peruvian", "title": "Peruvian"}, {"alias": "latin", "title": "Latin American"}], "rating": 5.0, "coordinates": {"latitude": 33.841852, "longitude": -118.263308}, "transactions": ["pickup", "delivery"], "location": {"address1": "20765 S Avalon Blvd", "address2": null, "address3": "", "city": "Carson", "zip_code": "90746", "country": "US", "state": "CA", "display_address": ["20765 S Avalon Blvd", "Carson, CA 90746"]}, "phone": "", "display_phone": "", "distance": 2470.433604583287}, {"id": "h91ELps8zp8leGJ6-KPBLw", "alias": "carls-jr-compton", "name": "Carl's Jr", "image_url": "https://s3-media3.fl.yelpcdn.com/bphoto/zOk3IH0T9cwvKFLBYtrXOA/o.jpg", "is_closed": false, "url": "https://www.yelp.com/biz/carls-jr-compton?adjust_creative=a2JdNtFqB-C38ga_06BHvw&utm_campaign=yelp_api_v3&utm_medium=api_v3_business_search&utm_source=a2JdNtFqB-C38ga_06BHvw", "review_count": 51, "categories": [{"alias": "burgers", "title": "Burgers"}, {"alias": "hotdogs", "title": "Fast Food"}], "rating": 2.5, "coordinates": {"latitude": 33.8743065215319, "longitude": -118.24838528832}, "transactions": ["pickup", "delivery"], "price": "$", "location": {"address1": "1931 W Artesia Blvd", "address2": "", "address3": "", "city": "Compton", "zip_code": "90220", "country": "US", "state": "CA", "display_address": ["1931 W Artesia Blvd", "Compton, CA 90220"]}, "phone": "+13106325103", "display_phone": "(310) 632-5103", "distance": 1633.9668551538243}, {"id": "69-zO_3EXhMY0YYk0av9jg", "alias": "panda-express-carson", "name": "Panda Express", "image_url": "https://s3-media1.fl.yelpcdn.com/bphoto/1NRF5Gv4m1VXgXwvTx5Qtg/o.jpg", "is_closed": false, "url": "https://www.yelp.com/biz/panda-express-carson?adjust_creative=a2JdNtFqB-C38ga_06BHvw&utm_campaign=yelp_api_v3&utm_medium=api_v3_business_search&utm_source=a2JdNtFqB-C38ga_06BHvw", "review_count": 77, "categories": [{"alias": "chinese", "title": "Chinese"}, {"alias": "hotdogs", "title": "Fast Food"}], "rating": 2.0, "coordinates": {"latitude": 33.87227, "longitude": -118.26723}, "transactions": ["pickup", "delivery"], "price": "$", "location": {"address1": "501 E Albertoni St", "address2": "Ste A", "address3": "", "city": "Carson", "zip_code": "90746", "country": "US", "state": "CA", "display_address": ["501 E Albertoni St", "Ste A", "Carson, CA 90746"]}, "phone": "+13103299872", "display_phone": "(310) 329-9872", "distance": 1065.267691104313}, {"id": "xRJkWHwmZxfxSKuudplIGg", "alias": "chuck-e-cheese-los-angeles-6", "name": "Chuck E. Cheese", "image_url": "https://s3-media2.fl.yelpcdn.com/bphoto/-rr9ghlAWo05_QDI5KMBug/o.jpg", "is_closed": false, "url": "https://www.yelp.com/biz/chuck-e-cheese-los-angeles-6?adjust_creative=a2JdNtFqB-C38ga_06BHvw&utm_campaign=yelp_api_v3&utm_medium=api_v3_business_search&utm_source=a2JdNtFqB-C38ga_06BHvw", "review_count": 103, "categories": [{"alias": "pizza", "title": "Pizza"}, {"alias": "arcades", "title": "Arcades"}, {"alias": "kids_activities", "title": "Kids Activities"}], "rating": 2.0, "coordinates": {"latitude": 33.84413, "longitude": -118.26196}, "transactions": ["pickup", "delivery"], "price": "$$", "location": {"address1": "20700 S Avalon Blvd", "address2": "Ste 175", "address3": null, "city": "LOS ANGELES", "zip_code": "90746", "country": "US", "state": "CA", "display_address": ["20700 S Avalon Blvd", "Ste 175", "LOS ANGELES, CA 90746"]}, "phone": "+13105160432", "display_phone": "(310) 516-0432", "distance": 2234.378555368194}, {"id": "ILuXurLzw4N30I_RbPON2A", "alias": "buffalo-wild-wings-carson", "name": "Buffalo Wild Wings", "image_url": "https://s3-media3.fl.yelpcdn.com/bphoto/AiLWW0Yj21naCm1jVuwoGQ/o.jpg", "is_closed": false, "url": "https://www.yelp.com/biz/buffalo-wild-wings-carson?adjust_creative=a2JdNtFqB-C38ga_06BHvw&utm_campaign=yelp_api_v3&utm_medium=api_v3_business_search&utm_source=a2JdNtFqB-C38ga_06BHvw", "review_count": 1115, "categories": [{"alias": "chicken_wings", "title": "Chicken Wings"}, {"alias": "sportsbars", "title": "Sports Bars"}, {"alias": "tradamerican", "title": "American (Traditional)"}], "rating": 1.5, "coordinates": {"latitude": 33.8470072, "longitude": -118.2623011}, "transactions": ["delivery"], "price": "$$", "location": {"address1": "736 East Del Amo Blvd", "address2": "", "address3": "", "city": "Carson", "zip_code": "90746", "country": "US", "state": "CA", "display_address": ["736 East Del Amo Blvd", "Carson, CA 90746"]}, "phone": "+13104367793", "display_phone": "(310) 436-7793", "distance": 1893.3269322468216}, {"id": "xiMZNJAu_AJ9t5X1bSSGhg", "alias": "jack-in-the-box-carson-10", "name": "Jack in the Box", "image_url": "https://s3-media3.fl.yelpcdn.com/bphoto/hcYyGXNBQAH5PmcpKcf-IQ/o.jpg", "is_closed": false, "url": "https://www.yelp.com/biz/jack-in-the-box-carson-10?adjust_creative=a2JdNtFqB-C38ga_06BHvw&utm_campaign=yelp_api_v3&utm_medium=api_v3_business_search&utm_source=a2JdNtFqB-C38ga_06BHvw", "review_count": 25, "categories": [{"alias": "hotdogs", "title": "Fast Food"}, {"alias": "burgers", "title": "Burgers"}, {"alias": "tacos", "title": "Tacos"}], "rating": 2.5, "coordinates": {"latitude": 33.87187, "longitude": -118.271034}, "transactions": ["delivery"], "price": "$", "location": {"address1": "319 E Albertoni St", "address2": "", "address3": "", "city": "Carson", "zip_code": "90746", "country": "US", "state": "CA", "display_address": ["319 E Albertoni St", "Carson, CA 90746"]}, "phone": "+13102170882", "display_phone": "(310) 217-0882", "distance": 1274.3834445265888}, {"id": "fmWD_UI7XICewnjkFXs0SQ", "alias": "subway-carson-3", "name": "Subway", "image_url": "https://s3-media2.fl.yelpcdn.com/bphoto/UcqedBUFKMhtXWxGiHGO2Q/o.jpg", "is_closed": false, "url": "https://www.yelp.com/biz/subway-carson-3?adjust_creative=a2JdNtFqB-C38ga_06BHvw&utm_campaign=yelp_api_v3&utm_medium=api_v3_business_search&utm_source=a2JdNtFqB-C38ga_06BHvw", "review_count": 34, "categories": [{"alias": "sandwiches", "title": "Sandwiches"}, {"alias": "hotdogs", "title": "Fast Food"}], "rating": 2.5, "coordinates": {"latitude": 33.872518550772, "longitude": -118.2663666752}, "transactions": ["pickup", "delivery"], "price": "$", "location": {"address1": "17401 Avalon Blvd", "address2": "", "address3": "Ste D 2", "city": "Carson", "zip_code": "90746", "country": "US", "state": "CA", "display_address": ["17401 Avalon Blvd", "Ste D 2", "Carson, CA 90746"]}, "phone": "+13105169119", "display_phone": "(310) 516-9119", "distance": 1068.9876082433186}, {"id": "jHSH-ydGbTu9hXi9hoDyvw", "alias": "pizza-hut-carson", "name": "Pizza Hut", "image_url": "https://s3-media1.fl.yelpcdn.com/bphoto/_drO4UZdD1MN_-b4qm8orw/o.jpg", "is_closed": false, "url": "https://www.yelp.com/biz/pizza-hut-carson?adjust_creative=a2JdNtFqB-C38ga_06BHvw&utm_campaign=yelp_api_v3&utm_medium=api_v3_business_search&utm_source=a2JdNtFqB-C38ga_06BHvw", "review_count": 60, "categories": [{"alias": "pizza", "title": "Pizza"}, {"alias": "italian", "title": "Italian"}, {"alias": "chicken_wings", "title": "Chicken Wings"}], "rating": 2.0, "coordinates": {"latitude": 33.8466608804196, "longitude": -118.2651104}, "transactions": ["pickup", "delivery"], "price": "$", "location": {"address1": "20377 Avalon Blvd", "address2": "", "address3": "", "city": "Carson", "zip_code": "90746", "country": "US", "state": "CA", "display_address": ["20377 Avalon Blvd", "Carson, CA 90746"]}, "phone": "+13103241102", "display_phone": "(310) 324-1102", "distance": 1965.025921666438}, {"id": "BlEfH6Y3sQsPkLB4Jp6PeA", "alias": "hot-dog-on-a-stick-carson", "name": "Hot Dog On A Stick", "image_url": "https://s3-media4.fl.yelpcdn.com/bphoto/l-SpMCV95NAo0cheYtpq0w/o.jpg", "is_closed": false, "url": "https://www.yelp.com/biz/hot-dog-on-a-stick-carson?adjust_creative=a2JdNtFqB-C38ga_06BHvw&utm_campaign=yelp_api_v3&utm_medium=api_v3_business_search&utm_source=a2JdNtFqB-C38ga_06BHvw", "review_count": 24, "categories": [{"alias": "tradamerican", "title": "American (Traditional)"}, {"alias": "hotdog", "title": "Hot Dogs"}], "rating": 2.5, "coordinates": {"latitude": 33.8435621517408, "longitude": -118.261427879333}, "transactions": ["pickup", "delivery"], "price": "$", "location": {"address1": "20700 Avalon Blvd", "address2": "", "address3": "", "city": "Carson", "zip_code": "90746", "country": "US", "state": "CA", "display_address": ["20700 Avalon Blvd", "Carson, CA 90746"]}, "phone": "", "display_phone": "", "distance": 2272.925971429581}, {"id": "bvvB57sha0lCObAgPRSfbw", "alias": "jamies-deli-market-gardena-2", "name": "Jamie's Deli Market", "image_url": "https://s3-media4.fl.yelpcdn.com/bphoto/PD2kagIA9xm0GcUHC8mmLg/o.jpg", "is_closed": false, "url": "https://www.yelp.com/biz/jamies-deli-market-gardena-2?adjust_creative=a2JdNtFqB-C38ga_06BHvw&utm_campaign=yelp_api_v3&utm_medium=api_v3_business_search&utm_source=a2JdNtFqB-C38ga_06BHvw", "review_count": 5, "categories": [{"alias": "delis", "title": "Delis"}, {"alias": "sandwiches", "title": "Sandwiches"}, {"alias": "convenience", "title": "Convenience Stores"}], "rating": 4.0, "coordinates": {"latitude": 33.8854595, "longitude": -118.2756224}, "transactions": [], "price": "$", "location": {"address1": "104 E Alondra Blvd", "address2": "", "address3": "", "city": "Gardena", "zip_code": "90248", "country": "US", "state": "CA", "display_address": ["104 E Alondra Blvd", "Gardena, CA 90248"]}, "phone": "+13103275097", "display_phone": "(310) 327-5097", "distance": 2741.3391234581322}, {"id": "s_Ndo5_jNPyhnJjKASgoIA", "alias": "b-and-r-burgers-carson", "name": "B And R Burgers", "image_url": "https://s3-media1.fl.yelpcdn.com/bphoto/GJIZ5HiK73uYjJk1CHZp-w/o.jpg", "is_closed": false, "url": "https://www.yelp.com/biz/b-and-r-burgers-carson?adjust_creative=a2JdNtFqB-C38ga_06BHvw&utm_campaign=yelp_api_v3&utm_medium=api_v3_business_search&utm_source=a2JdNtFqB-C38ga_06BHvw", "review_count": 10, "categories": [{"alias": "burgers", "title": "Burgers"}, {"alias": "foodtrucks", "title": "Food Trucks"}], "rating": 3.0, "coordinates": {"latitude": 33.87366, "longitude": -118.2613}, "transactions": [], "location": {"address1": "Rudolph B Davila Memorial Fwy", "address2": "", "address3": "", "city": "Carson", "zip_code": "90746", "country": "US", "state": "CA", "display_address": ["Rudolph B Davila Memorial Fwy", "Carson, CA 90746"]}, "phone": "+13106794774", "display_phone": "(310) 679-4774", "distance": 1074.498854199462}, {"id": "wzssTYjJj_nzjYqP3oguAg", "alias": "china-express-compton-2", "name": "China Express", "image_url": "https://s3-media2.fl.yelpcdn.com/bphoto/onYvT08lvyfIDZqKQOqqqw/o.jpg", "is_closed": false, "url": "https://www.yelp.com/biz/china-express-compton-2?adjust_creative=a2JdNtFqB-C38ga_06BHvw&utm_campaign=yelp_api_v3&utm_medium=api_v3_business_search&utm_source=a2JdNtFqB-C38ga_06BHvw", "review_count": 22, "categories": [{"alias": "chinese", "title": "Chinese"}], "rating": 2.5, "coordinates": {"latitude": 33.867944, "longitude": -118.2367977}, "transactions": ["pickup", "delivery"], "price": "$", "location": {"address1": "855 W Victoria St", "address2": "", "address3": "", "city": "Compton", "zip_code": "90220", "country": "US", "state": "CA", "display_address": ["855 W Victoria St", "Compton, CA 90220"]}, "phone": "+13106318281", "display_phone": "(310) 631-8281", "distance": 2279.783330746495}, {"id": "qualOqye7B-JER5JflZN_w", "alias": "jack-in-the-box-gardena-4", "name": "Jack in the Box", "image_url": "https://s3-media2.fl.yelpcdn.com/bphoto/MmjfDS0thTdCOdGOyXW4lg/o.jpg", "is_closed": false, "url": "https://www.yelp.com/biz/jack-in-the-box-gardena-4?adjust_creative=a2JdNtFqB-C38ga_06BHvw&utm_campaign=yelp_api_v3&utm_medium=api_v3_business_search&utm_source=a2JdNtFqB-C38ga_06BHvw", "review_count": 46, "categories": [{"alias": "hotdogs", "title": "Fast Food"}, {"alias": "burgers", "title": "Burgers"}, {"alias": "tacos", "title": "Tacos"}], "rating": 2.0, "coordinates": {"latitude": 33.8732572048742, "longitude": -118.292116904487}, "transactions": ["delivery"], "price": "$", "location": {"address1": "1099 W Artesia Blvd", "address2": "", "address3": "", "city": "Gardena", "zip_code": "90248", "country": "US", "state": "CA", "display_address": ["1099 W Artesia Blvd", "Gardena, CA 90248"]}, "phone": "+13105323528", "display_phone": "(310) 532-3528", "distance": 3051.769367473669}, {"id": "lx8p0KpUbQfyS73tMVUS3A", "alias": "tacos-el-patron-gardena", "name": "Tacos El Patron", "image_url": "https://s3-media1.fl.yelpcdn.com/bphoto/RE6plLc7poBB-pwDnbiHFw/o.jpg", "is_closed": false, "url": "https://www.yelp.com/biz/tacos-el-patron-gardena?adjust_creative=a2JdNtFqB-C38ga_06BHvw&utm_campaign=yelp_api_v3&utm_medium=api_v3_business_search&utm_source=a2JdNtFqB-C38ga_06BHvw", "review_count": 5, "categories": [{"alias": "mexican", "title": "Mexican"}], "rating": 4.0, "coordinates": {"latitude": 33.88183031785898, "longitude": -118.27533263443482}, "transactions": [], "location": {"address1": "16502 S Main St", "address2": "", "address3": null, "city": "Gardena", "zip_code": "90248", "country": "US", "state": "CA", "display_address": ["16502 S Main St", "Gardena, CA 90248"]}, "phone": "+13108198305", "display_phone": "(310) 819-8305", "distance": 2383.647260996699}, {"id": "_WsrkGqICrF1iIrXtg0ZMQ", "alias": "subway-torrance-27", "name": "Subway", "image_url": "https://s3-media2.fl.yelpcdn.com/bphoto/hDes16VOMPt78RgOU9A2JA/o.jpg", "is_closed": false, "url": "https://www.yelp.com/biz/subway-torrance-27?adjust_creative=a2JdNtFqB-C38ga_06BHvw&utm_campaign=yelp_api_v3&utm_medium=api_v3_business_search&utm_source=a2JdNtFqB-C38ga_06BHvw", "review_count": 18, "categories": [{"alias": "sandwiches", "title": "Sandwiches"}], "rating": 2.5, "coordinates": {"latitude": 33.842395, "longitude": -118.287155}, "transactions": ["pickup", "delivery"], "price": "$", "location": {"address1": "701 W Torrance Blvd", "address2": "", "address3": "", "city": "Torrance", "zip_code": "90502", "country": "US", "state": "CA", "display_address": ["701 W Torrance Blvd", "Torrance, CA 90502"]}, "phone": "+13103273736", "display_phone": "(310) 327-3736", "distance": 3402.4381545394363}, {"id": "oVi4k98prmzzclicZfD43g", "alias": "subway-carson-16", "name": "Subway", "image_url": "https://s3-media2.fl.yelpcdn.com/bphoto/w2s1TpiuXsOsob1PEpwBCQ/o.jpg", "is_closed": false, "url": "https://www.yelp.com/biz/subway-carson-16?adjust_creative=a2JdNtFqB-C38ga_06BHvw&utm_campaign=yelp_api_v3&utm_medium=api_v3_business_search&utm_source=a2JdNtFqB-C38ga_06BHvw", "review_count": 31, "categories": [{"alias": "sandwiches", "title": "Sandwiches"}], "rating": 2.5, "coordinates": {"latitude": 33.8479251, "longitude": -118.2636829}, "transactions": ["pickup", "delivery"], "price": "$", "location": {"address1": "20236 Avalon Blvd", "address2": "", "address3": "", "city": "Carson", "zip_code": "90746", "country": "US", "state": "CA", "display_address": ["20236 Avalon Blvd", "Carson, CA 90746"]}, "phone": "+13105161222", "display_phone": "(310) 516-1222", "distance": 1804.5321782679316}, {"id": "IRNTOpi8ECbqYLqaxCXkDA", "alias": "the-ginger-cafe-torrance", "name": "The Ginger Cafe", "image_url": "https://s3-media1.fl.yelpcdn.com/bphoto/DdhgFFbdGngPWZzWzFIb5Q/o.jpg", "is_closed": false, "url": "https://www.yelp.com/biz/the-ginger-cafe-torrance?adjust_creative=a2JdNtFqB-C38ga_06BHvw&utm_campaign=yelp_api_v3&utm_medium=api_v3_business_search&utm_source=a2JdNtFqB-C38ga_06BHvw", "review_count": 10, "categories": [{"alias": "newamerican", "title": "American (New)"}, {"alias": "bars", "title": "Bars"}], "rating": 3.0, "coordinates": {"latitude": 33.850777, "longitude": -118.289249}, "transactions": ["delivery"], "price": "$$", "location": {"address1": "19800 S Vermont Ave", "address2": null, "address3": "", "city": "Torrance", "zip_code": "90502", "country": "US", "state": "CA", "display_address": ["19800 S Vermont Ave", "Torrance, CA 90502"]}, "phone": "+13107819100", "display_phone": "(310) 781-9100", "distance": 2994.3413449046993}, {"id": "Q5uWXaMt0xaDDedElTLV6Q", "alias": "subway-compton-18", "name": "Subway", "image_url": "https://s3-media2.fl.yelpcdn.com/bphoto/C9QJhH9MctQ-bUUnRjPWnQ/o.jpg", "is_closed": false, "url": "https://www.yelp.com/biz/subway-compton-18?adjust_creative=a2JdNtFqB-C38ga_06BHvw&utm_campaign=yelp_api_v3&utm_medium=api_v3_business_search&utm_source=a2JdNtFqB-C38ga_06BHvw", "review_count": 10, "categories": [{"alias": "sandwiches", "title": "Sandwiches"}], "rating": 3.0, "coordinates": {"latitude": 33.8871898491051, "longitude": -118.250346819629}, "transactions": ["pickup", "delivery"], "price": "$", "location": {"address1": "909 S Central Ave", "address2": null, "address3": null, "city": "Compton", "zip_code": "90220", "country": "US", "state": "CA", "display_address": ["909 S Central Ave", "Compton, CA 90220"]}, "phone": "+13107638000", "display_phone": "(310) 763-8000", "distance": 2759.781539598592}, {"id": "jcZoYkhzswXisEDiCeXcwg", "alias": "panda-express-carson-5", "name": "Panda Express", "image_url": "https://s3-media4.fl.yelpcdn.com/bphoto/ivtSp5CmwVdhIs7HlOUiXQ/o.jpg", "is_closed": false, "url": "https://www.yelp.com/biz/panda-express-carson-5?adjust_creative=a2JdNtFqB-C38ga_06BHvw&utm_campaign=yelp_api_v3&utm_medium=api_v3_business_search&utm_source=a2JdNtFqB-C38ga_06BHvw", "review_count": 69, "categories": [{"alias": "chinese", "title": "Chinese"}, {"alias": "hotdogs", "title": "Fast Food"}], "rating": 2.0, "coordinates": {"latitude": 33.8434615329334, "longitude": -118.262130092703}, "transactions": ["delivery", "pickup"], "price": "$", "location": {"address1": "20700 Avalon Blvd", "address2": null, "address3": null, "city": "Carson", "zip_code": "90746", "country": "US", "state": "CA", "display_address": ["20700 Avalon Blvd", "Carson, CA 90746"]}, "phone": "+13103270357", "display_phone": "(310) 327-0357", "distance": 2286.1538278957883}, {"id": "KTj9cohcqQQiIz8u2B9Cpw", "alias": "del-taco-carson", "name": "Del Taco", "image_url": "https://s3-media1.fl.yelpcdn.com/bphoto/tfAztrxjXYaB10IohEamnw/o.jpg", "is_closed": false, "url": "https://www.yelp.com/biz/del-taco-carson?adjust_creative=a2JdNtFqB-C38ga_06BHvw&utm_campaign=yelp_api_v3&utm_medium=api_v3_business_search&utm_source=a2JdNtFqB-C38ga_06BHvw", "review_count": 50, "categories": [{"alias": "mexican", "title": "Mexican"}], "rating": 2.0, "coordinates": {"latitude": 33.8714027404785, "longitude": -118.265548706055}, "transactions": ["delivery"], "price": "$", "location": {"address1": "17504 Avalon Blvd", "address2": "", "address3": "", "city": "Carson", "zip_code": "90746", "country": "US", "state": "CA", "display_address": ["17504 Avalon Blvd", "Carson, CA 90746"]}, "phone": "+13105156479", "display_phone": "(310) 515-6479", "distance": 941.166006110346}, {"id": "bQFumqCyP_pNmcJBocQeNg", "alias": "mcdonalds-carson-2", "name": "McDonald's", "image_url": "https://s3-media3.fl.yelpcdn.com/bphoto/IVxGemQIOaIcoPk3A4EvJQ/o.jpg", "is_closed": false, "url": "https://www.yelp.com/biz/mcdonalds-carson-2?adjust_creative=a2JdNtFqB-C38ga_06BHvw&utm_campaign=yelp_api_v3&utm_medium=api_v3_business_search&utm_source=a2JdNtFqB-C38ga_06BHvw", "review_count": 112, "categories": [{"alias": "hotdogs", "title": "Fast Food"}, {"alias": "burgers", "title": "Burgers"}, {"alias": "coffee", "title": "Coffee & Tea"}], "rating": 1.5, "coordinates": {"latitude": 33.84713, "longitude": -118.26522}, "transactions": ["delivery"], "price": "$", "location": {"address1": "20315 S Avalon Blvd", "address2": "", "address3": "", "city": "Carson", "zip_code": "90746", "country": "US", "state": "CA", "display_address": ["20315 S Avalon Blvd", "Carson, CA 90746"]}, "phone": "+13103296085", "display_phone": "(310) 329-6085", "distance": 1917.0137398950667}, {"id": "zIWHpojm0dwYsntZG3fYAA", "alias": "southbay-dindinagogo-gardena-2", "name": "Southbay Dindinagogo", "image_url": "https://s3-media2.fl.yelpcdn.com/bphoto/07xmBZ0OM8dLDRRvMrKfsw/o.jpg", "is_closed": false, "url": "https://www.yelp.com/biz/southbay-dindinagogo-gardena-2?adjust_creative=a2JdNtFqB-C38ga_06BHvw&utm_campaign=yelp_api_v3&utm_medium=api_v3_business_search&utm_source=a2JdNtFqB-C38ga_06BHvw", "review_count": 2, "categories": [{"alias": "foodstands", "title": "Food Stands"}], "rating": 5.0, "coordinates": {"latitude": 33.86173, "longitude": -118.28883}, "transactions": [], "price": "$$", "location": {"address1": "18602 S Vermont Ave", "address2": "", "address3": "", "city": "Gardena", "zip_code": "90745", "country": "US", "state": "CA", "display_address": ["18602 S Vermont Ave", "Gardena, CA 90745"]}, "phone": "+13109208558", "display_phone": "(310) 920-8558", "distance": 2737.4910290561083}, {"id": "age5EzuVhxujMzeRlT1nGg", "alias": "chido-mx-compton", "name": "Chido Mx", "image_url": "https://s3-media2.fl.yelpcdn.com/bphoto/PDcYqXD7m_m1j1xePmT8qg/o.jpg", "is_closed": false, "url": "https://www.yelp.com/biz/chido-mx-compton?adjust_creative=a2JdNtFqB-C38ga_06BHvw&utm_campaign=yelp_api_v3&utm_medium=api_v3_business_search&utm_source=a2JdNtFqB-C38ga_06BHvw", "review_count": 2, "categories": [{"alias": "mexican", "title": "Mexican"}, {"alias": "breakfast_brunch", "title": "Breakfast & Brunch"}, {"alias": "sandwiches", "title": "Sandwiches"}], "rating": 5.0, "coordinates": {"latitude": 33.868377, "longitude": -118.23691}, "transactions": ["delivery", "pickup"], "location": {"address1": "855 W Victoria St", "address2": "Ste A3", "address3": "", "city": "Compton", "zip_code": "90220", "country": "US", "state": "CA", "display_address": ["855 W Victoria St", "Ste A3", "Compton, CA 90220"]}, "phone": "+13106321230", "display_phone": "(310) 632-1230", "distance": 2279.783330746495}, {"id": "HyBOYKZv_Fl6mV-faEL85Q", "alias": "golden-eagle-no-3-gardena", "name": "Golden Eagle No 3", "image_url": "https://s3-media2.fl.yelpcdn.com/bphoto/hyok5tMEpFt_EEWodgLv2Q/o.jpg", "is_closed": false, "url": "https://www.yelp.com/biz/golden-eagle-no-3-gardena?adjust_creative=a2JdNtFqB-C38ga_06BHvw&utm_campaign=yelp_api_v3&utm_medium=api_v3_business_search&utm_source=a2JdNtFqB-C38ga_06BHvw", "review_count": 2, "categories": [{"alias": "restaurants", "title": "Restaurants"}], "rating": 5.0, "coordinates": {"latitude": 33.87957, "longitude": -118.29158}, "transactions": [], "location": {"address1": "16701 S Vermont Ave", "address2": "", "address3": "", "city": "Gardena", "zip_code": "90247", "country": "US", "state": "CA", "display_address": ["16701 S Vermont Ave", "Gardena, CA 90247"]}, "phone": "+13103236862", "display_phone": "(310) 323-6862", "distance": 3297.866751031199}, {"id": "WY7L7P-kbGlBLvjMrMIs9Q", "alias": "everytable-carson-2", "name": "Everytable", "image_url": "https://s3-media2.fl.yelpcdn.com/bphoto/5ioBwwbl-UyA3ewLRs87Pw/o.jpg", "is_closed": false, "url": "https://www.yelp.com/biz/everytable-carson-2?adjust_creative=a2JdNtFqB-C38ga_06BHvw&utm_campaign=yelp_api_v3&utm_medium=api_v3_business_search&utm_source=a2JdNtFqB-C38ga_06BHvw", "review_count": 2, "categories": [{"alias": "vegetarian", "title": "Vegetarian"}, {"alias": "healthmarkets", "title": "Health Markets"}], "rating": 5.0, "coordinates": {"latitude": 33.865168, "longitude": -118.255696}, "transactions": [], "location": {"address1": "1000 E Victoria St", "address2": null, "address3": "CSUDH - Loker Student Union", "city": "Carson", "zip_code": "90747", "country": "US", "state": "CA", "display_address": ["1000 E Victoria St", "CSUDH - Loker Student Union", "Carson, CA 90747"]}, "phone": "+14242961619", "display_phone": "(424) 296-1619", "distance": 369.15377236866254}, {"id": "CD89IFLVmQ8LF9rHSL1ftw", "alias": "american-express-stadium-club-carson", "name": "American Express Stadium Club", "image_url": "https://s3-media3.fl.yelpcdn.com/bphoto/lf2VfXJQ7yjok6Ag4bq7sg/o.jpg", "is_closed": false, "url": "https://www.yelp.com/biz/american-express-stadium-club-carson?adjust_creative=a2JdNtFqB-C38ga_06BHvw&utm_campaign=yelp_api_v3&utm_medium=api_v3_business_search&utm_source=a2JdNtFqB-C38ga_06BHvw", "review_count": 13, "categories": [{"alias": "stadiumsarenas", "title": "Stadiums & Arenas"}, {"alias": "buffets", "title": "Buffets"}], "rating": 2.5, "coordinates": {"latitude": 33.863496, "longitude": -118.261148}, "transactions": [], "price": "$$$", "location": {"address1": "18400 Avalon Blvd", "address2": "", "address3": "StubHub Center", "city": "Carson", "zip_code": "90746", "country": "US", "state": "CA", "display_address": ["18400 Avalon Blvd", "StubHub Center", "Carson, CA 90746"]}, "phone": "+13106302100", "display_phone": "(310) 630-2100", "distance": 57.68416670685671}, {"id": "8-8qsfViPMOz2pUzZlvHXw", "alias": "mcdonalds-carson-3", "name": "McDonald's", "image_url": "https://s3-media4.fl.yelpcdn.com/bphoto/7AN0ORLS6Oa46bh2eKWtxA/o.jpg", "is_closed": false, "url": "https://www.yelp.com/biz/mcdonalds-carson-3?adjust_creative=a2JdNtFqB-C38ga_06BHvw&utm_campaign=yelp_api_v3&utm_medium=api_v3_business_search&utm_source=a2JdNtFqB-C38ga_06BHvw", "review_count": 59, "categories": [{"alias": "hotdogs", "title": "Fast Food"}, {"alias": "burgers", "title": "Burgers"}, {"alias": "coffee", "title": "Coffee & Tea"}], "rating": 2.0, "coordinates": {"latitude": 33.8724108208995, "longitude": -118.249541247162}, "transactions": ["delivery"], "price": "$", "location": {"address1": "17455 S Central Ave", "address2": "", "address3": "", "city": "Carson", "zip_code": "90746", "country": "US", "state": "CA", "display_address": ["17455 S Central Ave", "Carson, CA 90746"]}, "phone": "+13108855500", "display_phone": "(310) 885-5500", "distance": 1412.0719081646582}, {"id": "GsaDB-agP-RedYvC07RdeQ", "alias": "jack-in-the-box-carson-2", "name": "Jack in the Box", "image_url": "https://s3-media3.fl.yelpcdn.com/bphoto/PahcJ2zP3V6vU8u1XFEeAw/o.jpg", "is_closed": false, "url": "https://www.yelp.com/biz/jack-in-the-box-carson-2?adjust_creative=a2JdNtFqB-C38ga_06BHvw&utm_campaign=yelp_api_v3&utm_medium=api_v3_business_search&utm_source=a2JdNtFqB-C38ga_06BHvw", "review_count": 39, "categories": [{"alias": "burgers", "title": "Burgers"}, {"alias": "hotdogs", "title": "Fast Food"}, {"alias": "tacos", "title": "Tacos"}], "rating": 2.0, "coordinates": {"latitude": 33.8457961, "longitude": -118.264989852905}, "transactions": ["delivery"], "price": "$", "location": {"address1": "20423 Avalon Blvd", "address2": "", "address3": "", "city": "Carson", "zip_code": "90746", "country": "US", "state": "CA", "display_address": ["20423 Avalon Blvd", "Carson, CA 90746"]}, "phone": "+13105151861", "display_phone": "(310) 515-1861", "distance": 2057.4357549064716}, {"id": "oWqrRrh1aRLWDmUKBNIYAQ", "alias": "dominos-pizza-carson-2", "name": "Domino's Pizza", "image_url": "https://s3-media4.fl.yelpcdn.com/bphoto/CVXSFqsudfNtLiZlkGWYBQ/o.jpg", "is_closed": false, "url": "https://www.yelp.com/biz/dominos-pizza-carson-2?adjust_creative=a2JdNtFqB-C38ga_06BHvw&utm_campaign=yelp_api_v3&utm_medium=api_v3_business_search&utm_source=a2JdNtFqB-C38ga_06BHvw", "review_count": 57, "categories": [{"alias": "pizza", "title": "Pizza"}, {"alias": "chicken_wings", "title": "Chicken Wings"}, {"alias": "sandwiches", "title": "Sandwiches"}], "rating": 2.0, "coordinates": {"latitude": 33.859089, "longitude": -118.264498}, "transactions": [], "price": "$", "location": {"address1": "633 E University Dr", "address2": "Ste C", "address3": "", "city": "Carson", "zip_code": "90746", "country": "US", "state": "CA", "display_address": ["633 E University Dr", "Ste C", "Carson, CA 90746"]}, "phone": "+13105169800", "display_phone": "(310) 516-9800", "distance": 634.4455809037056}, {"id": "Ve-1YxOsnOFsoX35LqkPCg", "alias": "palacio-latino-bar-gardena", "name": "Palacio Latino Bar", "image_url": "https://s3-media2.fl.yelpcdn.com/bphoto/4pQAupLhkO2e2lPp_w7LyQ/o.jpg", "is_closed": false, "url": "https://www.yelp.com/biz/palacio-latino-bar-gardena?adjust_creative=a2JdNtFqB-C38ga_06BHvw&utm_campaign=yelp_api_v3&utm_medium=api_v3_business_search&utm_source=a2JdNtFqB-C38ga_06BHvw", "review_count": 3, "categories": [{"alias": "divebars", "title": "Dive Bars"}, {"alias": "tapas", "title": "Tapas Bars"}], "rating": 4.0, "coordinates": {"latitude": 33.8822722, "longitude": -118.2824543}, "transactions": [], "location": {"address1": "16416 S Figueroa St", "address2": "", "address3": "", "city": "Gardena", "zip_code": "90248", "country": "US", "state": "CA", "display_address": ["16416 S Figueroa St", "Gardena, CA 90248"]}, "phone": "+13107691361", "display_phone": "(310) 769-1361", "distance": 2821.248476801826}, {"id": "FfX3Zo2r8bPpBMUFIH1zDA", "alias": "kfc-carson", "name": "KFC", "image_url": "https://s3-media1.fl.yelpcdn.com/bphoto/NU7Vjt4EjEw5ouJc-rcN_w/o.jpg", "is_closed": false, "url": "https://www.yelp.com/biz/kfc-carson?adjust_creative=a2JdNtFqB-C38ga_06BHvw&utm_campaign=yelp_api_v3&utm_medium=api_v3_business_search&utm_source=a2JdNtFqB-C38ga_06BHvw", "review_count": 33, "categories": [{"alias": "hotdogs", "title": "Fast Food"}, {"alias": "chicken_wings", "title": "Chicken Wings"}, {"alias": "chickenshop", "title": "Chicken Shop"}], "rating": 2.0, "coordinates": {"latitude": 33.862888081199735, "longitude": -118.26662383497029}, "transactions": ["delivery", "pickup"], "price": "$", "location": {"address1": "18401 S Avalon Blvd", "address2": "", "address3": "", "city": "Carson", "zip_code": "90746", "country": "US", "state": "CA", "display_address": ["18401 S Avalon Blvd", "Carson, CA 90746"]}, "phone": "+13105322970", "display_phone": "(310) 532-2970", "distance": 533.7800542630605}, {"id": "ef0b0dCZUZsTaz74UEzggg", "alias": "carls-jr-carson-5", "name": "Carl's Jr", "image_url": "https://s3-media2.fl.yelpcdn.com/bphoto/uLmtBTMWEuzSgZmvmT0qJA/o.jpg", "is_closed": false, "url": "https://www.yelp.com/biz/carls-jr-carson-5?adjust_creative=a2JdNtFqB-C38ga_06BHvw&utm_campaign=yelp_api_v3&utm_medium=api_v3_business_search&utm_source=a2JdNtFqB-C38ga_06BHvw", "review_count": 54, "categories": [{"alias": "burgers", "title": "Burgers"}, {"alias": "hotdogs", "title": "Fast Food"}], "rating": 1.5, "coordinates": {"latitude": 33.872327381903, "longitude": -118.265556647239}, "transactions": ["delivery", "pickup"], "price": "$", "location": {"address1": "17450 Avalon Blvd", "address2": "", "address3": "", "city": "Carson", "zip_code": "90746", "country": "US", "state": "CA", "display_address": ["17450 Avalon Blvd", "Carson, CA 90746"]}, "phone": "+13103236855", "display_phone": "(310) 323-6855", "distance": 1017.0528965251225}, {"id": "scYH7tmqPKb_XSckb0zttw", "alias": "subway-carson-17", "name": "Subway", "image_url": "https://s3-media1.fl.yelpcdn.com/bphoto/2Ut9la-VyNEuJwnpZ9IV_w/o.jpg", "is_closed": false, "url": "https://www.yelp.com/biz/subway-carson-17?adjust_creative=a2JdNtFqB-C38ga_06BHvw&utm_campaign=yelp_api_v3&utm_medium=api_v3_business_search&utm_source=a2JdNtFqB-C38ga_06BHvw", "review_count": 18, "categories": [{"alias": "sandwiches", "title": "Sandwiches"}], "rating": 2.0, "coordinates": {"latitude": 33.8418123329723, "longitude": -118.284994468074}, "transactions": ["delivery", "pickup"], "price": "$", "location": {"address1": "512 Torrance Blvd", "address2": "", "address3": "", "city": "Carson", "zip_code": "90745", "country": "US", "state": "CA", "display_address": ["512 Torrance Blvd", "Carson, CA 90745"]}, "phone": "+13107831594", "display_phone": "(310) 783-1594", "distance": 3316.0777140564264}, {"id": "QBN3XeLk76flQdfmG1cT4g", "alias": "burger-king-carson", "name": "Burger King", "image_url": "https://s3-media4.fl.yelpcdn.com/bphoto/6pCX22vcH2chrO3mI_HL2A/o.jpg", "is_closed": false, "url": "https://www.yelp.com/biz/burger-king-carson?adjust_creative=a2JdNtFqB-C38ga_06BHvw&utm_campaign=yelp_api_v3&utm_medium=api_v3_business_search&utm_source=a2JdNtFqB-C38ga_06BHvw", "review_count": 72, "categories": [{"alias": "burgers", "title": "Burgers"}, {"alias": "hotdogs", "title": "Fast Food"}], "rating": 1.5, "coordinates": {"latitude": 33.8394048115849, "longitude": -118.285731326636}, "transactions": ["delivery"], "price": "$", "location": {"address1": "20950 Figueroa St", "address2": "", "address3": null, "city": "Carson", "zip_code": "90745", "country": "US", "state": "CA", "display_address": ["20950 Figueroa St", "Carson, CA 90745"]}, "phone": "+13103289293", "display_phone": "(310) 328-9293", "distance": 3563.044357876715}, {"id": "L7BwZmLppUEW_6XXIXw9XQ", "alias": "carls-jr-carson", "name": "Carl's Jr", "image_url": "https://s3-media1.fl.yelpcdn.com/bphoto/GEXGEZ3M8OSzluEFgY1BXA/o.jpg", "is_closed": false, "url": "https://www.yelp.com/biz/carls-jr-carson?adjust_creative=a2JdNtFqB-C38ga_06BHvw&utm_campaign=yelp_api_v3&utm_medium=api_v3_business_search&utm_source=a2JdNtFqB-C38ga_06BHvw", "review_count": 43, "categories": [{"alias": "hotdogs", "title": "Fast Food"}, {"alias": "burgers", "title": "Burgers"}], "rating": 2.0, "coordinates": {"latitude": 33.847133, "longitude": -118.234305}, "transactions": ["delivery", "pickup"], "price": "$", "location": {"address1": "1881 E Del Amo Blvd", "address2": "", "address3": "", "city": "Carson", "zip_code": "90746", "country": "US", "state": "CA", "display_address": ["1881 E Del Amo Blvd", "Carson, CA 90746"]}, "phone": "+13107632744", "display_phone": "(310) 763-2744", "distance": 3097.4244662461506}, {"id": "xp3P-mGCRc6W0_3uU7ILJQ", "alias": "carniceria-liquor-gardena", "name": "Carniceria Liquor", "image_url": "", "is_closed": false, "url": "https://www.yelp.com/biz/carniceria-liquor-gardena?adjust_creative=a2JdNtFqB-C38ga_06BHvw&utm_campaign=yelp_api_v3&utm_medium=api_v3_business_search&utm_source=a2JdNtFqB-C38ga_06BHvw", "review_count": 2, "categories": [{"alias": "mexican", "title": "Mexican"}], "rating": 4.5, "coordinates": {"latitude": 33.8865089416504, "longitude": -118.291130065918}, "transactions": [], "location": {"address1": "15920 S Vermont Ave", "address2": "", "address3": "", "city": "Gardena", "zip_code": "90247", "country": "US", "state": "CA", "display_address": ["15920 S Vermont Ave", "Gardena, CA 90247"]}, "phone": "", "display_phone": "", "distance": 3745.0566545204724}, {"id": "Iic62blPkHqn-VQD9a6C1Q", "alias": "taurinos-tacos-y-mariscos-gardena", "name": "Taurinos Tacos y Mariscos", "image_url": "https://s3-media2.fl.yelpcdn.com/bphoto/MxxnFOiSkdOdA6VHOmBm0w/o.jpg", "is_closed": false, "url": "https://www.yelp.com/biz/taurinos-tacos-y-mariscos-gardena?adjust_creative=a2JdNtFqB-C38ga_06BHvw&utm_campaign=yelp_api_v3&utm_medium=api_v3_business_search&utm_source=a2JdNtFqB-C38ga_06BHvw", "review_count": 5, "categories": [{"alias": "mexican", "title": "Mexican"}, {"alias": "seafood", "title": "Seafood"}], "rating": 3.0, "coordinates": {"latitude": 33.8862442, "longitude": -118.2683698}, "transactions": ["pickup", "delivery"], "price": "$", "location": {"address1": "433 E Alondra Blvd", "address2": "", "address3": "", "city": "Gardena", "zip_code": "90248", "country": "US", "state": "CA", "display_address": ["433 E Alondra Blvd", "Gardena, CA 90248"]}, "phone": "+15624467213", "display_phone": "(562) 446-7213", "distance": 2565.3107513616496}, {"id": "U2Wc7JnvAAqZ4wcD1wfVFQ", "alias": "panda-express-carson-4", "name": "Panda Express", "image_url": "https://s3-media3.fl.yelpcdn.com/bphoto/SubBhEKEYYPA9pZKPeaavw/o.jpg", "is_closed": false, "url": "https://www.yelp.com/biz/panda-express-carson-4?adjust_creative=a2JdNtFqB-C38ga_06BHvw&utm_campaign=yelp_api_v3&utm_medium=api_v3_business_search&utm_source=a2JdNtFqB-C38ga_06BHvw", "review_count": 7, "categories": [{"alias": "chinese", "title": "Chinese"}, {"alias": "hotdogs", "title": "Fast Food"}], "rating": 2.5, "coordinates": {"latitude": 33.865499, "longitude": -118.255874}, "transactions": [], "price": "$", "location": {"address1": "1000 E Victoria Ave", "address2": "", "address3": "", "city": "Carson", "zip_code": "90747", "country": "US", "state": "CA", "display_address": ["1000 E Victoria Ave", "Carson, CA 90747"]}, "phone": "+13103806879", "display_phone": "(310) 380-6879", "distance": 501.7825093259989}, {"id": "wKh-Du3YnWJu_YOOCE-jWQ", "alias": "el-pollo-loco-compton-7", "name": "El Pollo Loco", "image_url": "https://s3-media1.fl.yelpcdn.com/bphoto/ikRdcAyolInG6prFvmF6Lw/o.jpg", "is_closed": false, "url": "https://www.yelp.com/biz/el-pollo-loco-compton-7?adjust_creative=a2JdNtFqB-C38ga_06BHvw&utm_campaign=yelp_api_v3&utm_medium=api_v3_business_search&utm_source=a2JdNtFqB-C38ga_06BHvw", "review_count": 50, "categories": [{"alias": "mexican", "title": "Mexican"}], "rating": 1.5, "coordinates": {"latitude": 33.87267433, "longitude": -118.247724}, "transactions": ["delivery"], "location": {"address1": "1918 W Artesia Blvd", "address2": "", "address3": null, "city": "Compton", "zip_code": "90220", "country": "US", "state": "CA", "display_address": ["1918 W Artesia Blvd", "Compton, CA 90220"]}, "phone": "+13107611051", "display_phone": "(310) 761-1051", "distance": 1550.7316254025147}, {"id": "nCxsryWAf2joqkY2kJvIDA", "alias": "chuck-e-cheeses-carson-2", "name": "Chuck E Cheese's", "image_url": "https://s3-media2.fl.yelpcdn.com/bphoto/RJ7vUgQlexhvSjmQksz-QA/o.jpg", "is_closed": false, "url": "https://www.yelp.com/biz/chuck-e-cheeses-carson-2?adjust_creative=a2JdNtFqB-C38ga_06BHvw&utm_campaign=yelp_api_v3&utm_medium=api_v3_business_search&utm_source=a2JdNtFqB-C38ga_06BHvw", "review_count": 34, "categories": [{"alias": "pizza", "title": "Pizza"}, {"alias": "indoor_playcenter", "title": "Indoor Playcentre"}, {"alias": "arcades", "title": "Arcades"}], "rating": 1.5, "coordinates": {"latitude": 33.8448526427762, "longitude": -118.262542894985}, "transactions": [], "price": "$$", "location": {"address1": "130 Carson Mall", "address2": "", "address3": "", "city": "Carson", "zip_code": "90745", "country": "US", "state": "CA", "display_address": ["130 Carson Mall", "Carson, CA 90745"]}, "phone": "+13105161508", "display_phone": "(310) 516-1508", "distance": 2133.8483629499965}, {"id": "vOdHpHs5Mgcxlh64ja5gSA", "alias": "coco-burrito-compton", "name": "Coco Burrito", "image_url": "https://s3-media2.fl.yelpcdn.com/bphoto/iaWj-rNpydPlHbZ7lJCdkg/o.jpg", "is_closed": false, "url": "https://www.yelp.com/biz/coco-burrito-compton?adjust_creative=a2JdNtFqB-C38ga_06BHvw&utm_campaign=yelp_api_v3&utm_medium=api_v3_business_search&utm_source=a2JdNtFqB-C38ga_06BHvw", "review_count": 2, "categories": [{"alias": "mexican", "title": "Mexican"}], "rating": 4.0, "coordinates": {"latitude": 33.887119, "longitude": -118.250315}, "transactions": ["pickup", "delivery"], "location": {"address1": "909 S Central Ave", "address2": "Ste 106", "address3": "", "city": "Compton", "zip_code": "90220", "country": "US", "state": "CA", "display_address": ["909 S Central Ave", "Ste 106", "Compton, CA 90220"]}, "phone": "+14242403134", "display_phone": "(424) 240-3134", "distance": 2752.676888299111}, {"id": "YgZ0f4hVjel_TtLvo4Bg7Q", "alias": "grandes-cocina-gardena", "name": "Grande's Cocina", "image_url": "https://s3-media1.fl.yelpcdn.com/bphoto/XfQIKWLpwo7H-qFvP8a94A/o.jpg", "is_closed": false, "url": "https://www.yelp.com/biz/grandes-cocina-gardena?adjust_creative=a2JdNtFqB-C38ga_06BHvw&utm_campaign=yelp_api_v3&utm_medium=api_v3_business_search&utm_source=a2JdNtFqB-C38ga_06BHvw", "review_count": 2, "categories": [{"alias": "mexican", "title": "Mexican"}], "rating": 4.0, "coordinates": {"latitude": 33.8818797026316, "longitude": -118.275344975432}, "transactions": [], "price": "$", "location": {"address1": "16502 S Main St", "address2": "Ste 1", "address3": "", "city": "Gardena", "zip_code": "90248", "country": "US", "state": "CA", "display_address": ["16502 S Main St", "Ste 1", "Gardena, CA 90248"]}, "phone": "", "display_phone": "", "distance": 2388.847960187099}, {"id": "VF91puy27RE1iE_iMIq8AA", "alias": "grab-n-go-carson-2", "name": "Grab N' Go", "image_url": "https://s3-media2.fl.yelpcdn.com/bphoto/VwIUJzosLlXEJcGzrMkxTA/o.jpg", "is_closed": false, "url": "https://www.yelp.com/biz/grab-n-go-carson-2?adjust_creative=a2JdNtFqB-C38ga_06BHvw&utm_campaign=yelp_api_v3&utm_medium=api_v3_business_search&utm_source=a2JdNtFqB-C38ga_06BHvw", "review_count": 2, "categories": [{"alias": "coffee", "title": "Coffee & Tea"}, {"alias": "foodstands", "title": "Food Stands"}, {"alias": "sandwiches", "title": "Sandwiches"}], "rating": 4.0, "coordinates": {"latitude": 33.8663778, "longitude": -118.2569064}, "transactions": [], "location": {"address1": "1000 East Victoria St", "address2": "", "address3": null, "city": "Carson", "zip_code": "90746", "country": "US", "state": "CA", "display_address": ["1000 East Victoria St", "Carson, CA 90746"]}, "phone": "+13102433696", "display_phone": "(310) 243-3696", "distance": 461.26390379565305}, {"id": "fg1p6ie5hPo9BYkWNISzaQ", "alias": "cornerstone-cafe-gardena", "name": "Cornerstone Cafe", "image_url": "https://s3-media2.fl.yelpcdn.com/bphoto/sHjZRGvHBuM_Bzmjb8ySPQ/o.jpg", "is_closed": false, "url": "https://www.yelp.com/biz/cornerstone-cafe-gardena?adjust_creative=a2JdNtFqB-C38ga_06BHvw&utm_campaign=yelp_api_v3&utm_medium=api_v3_business_search&utm_source=a2JdNtFqB-C38ga_06BHvw", "review_count": 2, "categories": [{"alias": "tradamerican", "title": "American (Traditional)"}, {"alias": "cafes", "title": "Cafes"}], "rating": 4.0, "coordinates": {"latitude": 33.8557554, "longitude": -118.290528}, "transactions": [], "price": "$", "location": {"address1": "19300 S Vermont Ave", "address2": "", "address3": "", "city": "Gardena", "zip_code": "90248", "country": "US", "state": "CA", "display_address": ["19300 S Vermont Ave", "Gardena, CA 90248"]}, "phone": "+13103523333", "display_phone": "(310) 352-3333", "distance": 2876.509139078557}, {"id": "JXkmdXFWu2Dw4whu0Bps2g", "alias": "ana-mexican-restaurant-gardena", "name": "Ana Mexican Restaurant", "image_url": "https://s3-media1.fl.yelpcdn.com/bphoto/UXLLF0G8_EEw-ZkNYUxAtg/o.jpg", "is_closed": false, "url": "https://www.yelp.com/biz/ana-mexican-restaurant-gardena?adjust_creative=a2JdNtFqB-C38ga_06BHvw&utm_campaign=yelp_api_v3&utm_medium=api_v3_business_search&utm_source=a2JdNtFqB-C38ga_06BHvw", "review_count": 4, "categories": [{"alias": "mexican", "title": "Mexican"}], "rating": 3.0, "coordinates": {"latitude": 33.881411, "longitude": -118.2929086}, "transactions": [], "price": "$$", "location": {"address1": "1060 W Gardena Blvd", "address2": null, "address3": null, "city": "Gardena", "zip_code": "90247", "country": "US", "state": "CA", "display_address": ["1060 W Gardena Blvd", "Gardena, CA 90247"]}, "phone": "+13103295266", "display_phone": "(310) 329-5266", "distance": 3547.3848328444574}, {"id": "TAmT8_uxJ5oaiWS1VMZ0SA", "alias": "jon-s-incredible-pizza-carson", "name": "Jon’s Incredible Pizza", "image_url": "https://s3-media2.fl.yelpcdn.com/bphoto/x8XEXFYdksNUPMGdYRL9Bg/o.jpg", "is_closed": false, "url": "https://www.yelp.com/biz/jon-s-incredible-pizza-carson?adjust_creative=a2JdNtFqB-C38ga_06BHvw&utm_campaign=yelp_api_v3&utm_medium=api_v3_business_search&utm_source=a2JdNtFqB-C38ga_06BHvw", "review_count": 3, "categories": [{"alias": "pizza", "title": "Pizza"}], "rating": 3.5, "coordinates": {"latitude": 33.8397775406336, "longitude": -118.283534049859}, "transactions": [], "location": {"address1": "500 Carson Town Ctr N", "address2": "", "address3": null, "city": "Carson", "zip_code": "90745", "country": "US", "state": "CA", "display_address": ["500 Carson Town Ctr N", "Carson, CA 90745"]}, "phone": "+13107878510", "display_phone": "(310) 787-8510", "distance": 3403.6228136721556}, {"id": "MG-rHrlZ9drMIdioCt9axQ", "alias": "vchos-pupusas-gardena", "name": "Vchos Pupusas", "image_url": "https://s3-media4.fl.yelpcdn.com/bphoto/3cW8Qb3ds6GczaJzUxdjVA/o.jpg", "is_closed": false, "url": "https://www.yelp.com/biz/vchos-pupusas-gardena?adjust_creative=a2JdNtFqB-C38ga_06BHvw&utm_campaign=yelp_api_v3&utm_medium=api_v3_business_search&utm_source=a2JdNtFqB-C38ga_06BHvw", "review_count": 1, "categories": [{"alias": "foodtrucks", "title": "Food Trucks"}, {"alias": "mexican", "title": "Mexican"}], "rating": 5.0, "coordinates": {"latitude": 33.864744487199616, "longitude": -118.28883904963732}, "transactions": [], "location": {"address1": "18300 Vermont Ave", "address2": "", "address3": null, "city": "Gardena", "zip_code": "90248", "country": "US", "state": "CA", "display_address": ["18300 Vermont Ave", "Gardena, CA 90248"]}, "phone": "", "display_phone": "", "distance": 2571.756679680912}, {"id": "2IcuqHlsF6h2MeGof6DbPQ", "alias": "benihana-dignity-health-sports-park-carson", "name": "Benihana - Dignity Health Sports Park", "image_url": "https://s3-media3.fl.yelpcdn.com/bphoto/_e9oo5Hc1BUz4vuO1txrPw/o.jpg", "is_closed": false, "url": "https://www.yelp.com/biz/benihana-dignity-health-sports-park-carson?adjust_creative=a2JdNtFqB-C38ga_06BHvw&utm_campaign=yelp_api_v3&utm_medium=api_v3_business_search&utm_source=a2JdNtFqB-C38ga_06BHvw", "review_count": 1, "categories": [{"alias": "sushi", "title": "Sushi Bars"}, {"alias": "bars", "title": "Bars"}, {"alias": "japanese", "title": "Japanese"}], "rating": 5.0, "coordinates": {"latitude": 33.86438, "longitude": -118.261143}, "transactions": [], "location": {"address1": "18400 Avalon Blvd", "address2": "", "address3": null, "city": "Carson", "zip_code": "90746", "country": "US", "state": "CA", "display_address": ["18400 Avalon Blvd", "Carson, CA 90746"]}, "phone": "", "display_phone": "", "distance": 44.26887913867597}, {"id": "jzdSu_rmkDvZWqQw4Tuh8w", "alias": "sushien-carson", "name": "Sushien", "image_url": "https://s3-media2.fl.yelpcdn.com/bphoto/gR0StzTa7YY238iuUuZGuw/o.jpg", "is_closed": false, "url": "https://www.yelp.com/biz/sushien-carson?adjust_creative=a2JdNtFqB-C38ga_06BHvw&utm_campaign=yelp_api_v3&utm_medium=api_v3_business_search&utm_source=a2JdNtFqB-C38ga_06BHvw", "review_count": 1, "categories": [{"alias": "sushi", "title": "Sushi Bars"}, {"alias": "ramen", "title": "Ramen"}], "rating": 5.0, "coordinates": {"latitude": 33.84022, "longitude": -118.25816}, "transactions": ["pickup", "delivery"], "location": {"address1": "940 E Dominguez St", "address2": "Ste F", "address3": "", "city": "Carson", "zip_code": "90746", "country": "US", "state": "CA", "display_address": ["940 E Dominguez St", "Ste F", "Carson, CA 90746"]}, "phone": "+13105161948", "display_phone": "(310) 516-1948", "distance": 2699.3688025728607}, {"id": "qh0voKoOix9PHl5lB-ke9Q", "alias": "ensenada-restaurant-gardena", "name": "Ensenada Restaurant", "image_url": "https://s3-media3.fl.yelpcdn.com/bphoto/jnFAdBQNB5iWvIxE2-Y6cA/o.jpg", "is_closed": false, "url": "https://www.yelp.com/biz/ensenada-restaurant-gardena?adjust_creative=a2JdNtFqB-C38ga_06BHvw&utm_campaign=yelp_api_v3&utm_medium=api_v3_business_search&utm_source=a2JdNtFqB-C38ga_06BHvw", "review_count": 1, "categories": [{"alias": "restaurants", "title": "Restaurants"}], "rating": 5.0, "coordinates": {"latitude": 33.8818778991699, "longitude": -118.290878295898}, "transactions": [], "location": {"address1": "851 W Gardena Blvd", "address2": "", "address3": "", "city": "Gardena", "zip_code": "90247", "country": "US", "state": "CA", "display_address": ["851 W Gardena Blvd", "Gardena, CA 90247"]}, "phone": "+13105156691", "display_phone": "(310) 515-6691", "distance": 3399.9455318475652}, {"id": "NKSpBrKLD8q4RLdwPU-LqA", "alias": "golden-eagle-gardena", "name": "Golden Eagle", "image_url": "", "is_closed": false, "url": "https://www.yelp.com/biz/golden-eagle-gardena?adjust_creative=a2JdNtFqB-C38ga_06BHvw&utm_campaign=yelp_api_v3&utm_medium=api_v3_business_search&utm_source=a2JdNtFqB-C38ga_06BHvw", "review_count": 2, "categories": [{"alias": "tradamerican", "title": "American (Traditional)"}], "rating": 3.0, "coordinates": {"latitude": 33.88637, "longitude": -118.26585}, "transactions": [], "price": "$", "location": {"address1": "555 E Alondra Blvd", "address2": "", "address3": "", "city": "Gardena", "zip_code": "90248", "country": "US", "state": "CA", "display_address": ["555 E Alondra Blvd", "Gardena, CA 90248"]}, "phone": "+13105155446", "display_phone": "(310) 515-5446", "distance": 2526.8036167149344}, {"id": "lO2G4C1riXb-i6nSjxXK2Q", "alias": "las-brasas-mexican-grill-carson", "name": "Las Brasas Mexican Grill", "image_url": "https://s3-media4.fl.yelpcdn.com/bphoto/WEVt96ywaT5LGU1cylN7Kg/o.jpg", "is_closed": false, "url": "https://www.yelp.com/biz/las-brasas-mexican-grill-carson?adjust_creative=a2JdNtFqB-C38ga_06BHvw&utm_campaign=yelp_api_v3&utm_medium=api_v3_business_search&utm_source=a2JdNtFqB-C38ga_06BHvw", "review_count": 2, "categories": [{"alias": "mexican", "title": "Mexican"}], "rating": 3.0, "coordinates": {"latitude": 33.8717231750488, "longitude": -118.249122619629}, "transactions": [], "price": "$", "location": {"address1": "17531 Central Ave", "address2": "Ste C", "address3": "", "city": "Carson", "zip_code": "90746", "country": "US", "state": "CA", "display_address": ["17531 Central Ave", "Ste C", "Carson, CA 90746"]}, "phone": "+13107637740", "display_phone": "(310) 763-7740", "distance": 1404.9098711393526}, {"id": "mh4YXPqVUU9XZVz5ohG5Sg", "alias": "sumo-dog-carson", "name": "Sumo Dog", "image_url": "https://s3-media2.fl.yelpcdn.com/bphoto/WDhbzT6pL0TU7wuagVcFHA/o.jpg", "is_closed": false, "url": "https://www.yelp.com/biz/sumo-dog-carson?adjust_creative=a2JdNtFqB-C38ga_06BHvw&utm_campaign=yelp_api_v3&utm_medium=api_v3_business_search&utm_source=a2JdNtFqB-C38ga_06BHvw", "review_count": 1, "categories": [{"alias": "hotdog", "title": "Hot Dogs"}], "rating": 4.0, "coordinates": {"latitude": 33.8627211, "longitude": -118.2658751}, "transactions": [], "location": {"address1": "18400 S Avalon Blvd", "address2": "", "address3": null, "city": "Carson", "zip_code": "90746", "country": "US", "state": "CA", "display_address": ["18400 S Avalon Blvd", "Carson, CA 90746"]}, "phone": "", "display_phone": "", "distance": 66.87621969704479}, {"id": "MHb00UJET0fj4jF2hP85FQ", "alias": "gardena-main-plaza-liquor-market-and-deli-gardena", "name": "Gardena Main Plaza Liquor Market & Deli", "image_url": "https://s3-media4.fl.yelpcdn.com/bphoto/lAHDGwS66EvzY2_wxFq0eQ/o.jpg", "is_closed": false, "url": "https://www.yelp.com/biz/gardena-main-plaza-liquor-market-and-deli-gardena?adjust_creative=a2JdNtFqB-C38ga_06BHvw&utm_campaign=yelp_api_v3&utm_medium=api_v3_business_search&utm_source=a2JdNtFqB-C38ga_06BHvw", "review_count": 1, "categories": [{"alias": "beer_and_wine", "title": "Beer, Wine & Spirits"}, {"alias": "delis", "title": "Delis"}], "rating": 4.0, "coordinates": {"latitude": 33.881651, "longitude": -118.27531}, "transactions": [], "location": {"address1": "16502 S Main St", "address2": "", "address3": "", "city": "Gardena", "zip_code": "90248", "country": "US", "state": "CA", "display_address": ["16502 S Main St", "Gardena, CA 90248"]}, "phone": "", "display_phone": "", "distance": 2365.9216332291417}, {"id": "YNSFEHToDogIOnB2PqofVA", "alias": "sun-noodle-rancho-dominguez", "name": "Sun Noodle", "image_url": "https://s3-media3.fl.yelpcdn.com/bphoto/xHOr8RP3zXu2gsWvs0foZg/o.jpg", "is_closed": false, "url": "https://www.yelp.com/biz/sun-noodle-rancho-dominguez?adjust_creative=a2JdNtFqB-C38ga_06BHvw&utm_campaign=yelp_api_v3&utm_medium=api_v3_business_search&utm_source=a2JdNtFqB-C38ga_06BHvw", "review_count": 1, "categories": [{"alias": "noodles", "title": "Noodles"}], "rating": 4.0, "coordinates": {"latitude": 33.87149, "longitude": -118.24607}, "transactions": [], "location": {"address1": "1505 W Mahalo Pl", "address2": "", "address3": null, "city": "Rancho Dominguez", "zip_code": "90220", "country": "US", "state": "CA", "display_address": ["1505 W Mahalo Pl", "Rancho Dominguez, CA 90220"]}, "phone": "+13107640100", "display_phone": "(310) 764-0100", "distance": 1605.3263476372672}, {"id": "Jfc9Gpeg_BhwTjUNyIxVSQ", "alias": "tacos-dona-tota-gardena", "name": "Tacos Dona Tota", "image_url": "https://s3-media1.fl.yelpcdn.com/bphoto/x3xM92yei3B6GjBOhYsYyQ/o.jpg", "is_closed": false, "url": "https://www.yelp.com/biz/tacos-dona-tota-gardena?adjust_creative=a2JdNtFqB-C38ga_06BHvw&utm_campaign=yelp_api_v3&utm_medium=api_v3_business_search&utm_source=a2JdNtFqB-C38ga_06BHvw", "review_count": 1, "categories": [{"alias": "mexican", "title": "Mexican"}, {"alias": "foodtrucks", "title": "Food Trucks"}], "rating": 4.0, "coordinates": {"latitude": 33.8897005, "longitude": -118.265803}, "transactions": [], "location": {"address1": "15631 S Avalon Blvd", "address2": "", "address3": null, "city": "Gardena", "zip_code": "90248", "country": "US", "state": "CA", "display_address": ["15631 S Avalon Blvd", "Gardena, CA 90248"]}, "phone": "+13104933603", "display_phone": "(310) 493-3603", "distance": 2889.201562732573}, {"id": "FRs24NJyXuu4i83YzPqdnQ", "alias": "bread-board-cafe-carson", "name": "Bread Board Cafe", "image_url": "", "is_closed": false, "url": "https://www.yelp.com/biz/bread-board-cafe-carson?adjust_creative=a2JdNtFqB-C38ga_06BHvw&utm_campaign=yelp_api_v3&utm_medium=api_v3_business_search&utm_source=a2JdNtFqB-C38ga_06BHvw", "review_count": 1, "categories": [{"alias": "cafes", "title": "Cafes"}], "rating": 3.0, "coordinates": {"latitude": 33.8785759, "longitude": -118.2530341}, "transactions": [], "price": "$", "location": {"address1": "1172 Sandhill Ave", "address2": "", "address3": "", "city": "Carson", "zip_code": "90746", "country": "US", "state": "CA", "display_address": ["1172 Sandhill Ave", "Carson, CA 90746"]}, "phone": "", "display_phone": "", "distance": 1725.8736095943634}, {"id": "VePiNiOACpIwzhim-DV-uA", "alias": "camacho-carson", "name": "Camacho", "image_url": "https://s3-media4.fl.yelpcdn.com/bphoto/DypgG-dB1LMGDLiD9l__BQ/o.jpg", "is_closed": false, "url": "https://www.yelp.com/biz/camacho-carson?adjust_creative=a2JdNtFqB-C38ga_06BHvw&utm_campaign=yelp_api_v3&utm_medium=api_v3_business_search&utm_source=a2JdNtFqB-C38ga_06BHvw", "review_count": 2, "categories": [{"alias": "mexican", "title": "Mexican"}], "rating": 2.0, "coordinates": {"latitude": 33.864771, "longitude": -118.261083}, "transactions": [], "price": "$", "location": {"address1": "18400 Avalon Blvd", "address2": "", "address3": "", "city": "Carson", "zip_code": "90895", "country": "US", "state": "CA", "display_address": ["18400 Avalon Blvd", "Carson, CA 90895"]}, "phone": "", "display_phone": "", "distance": 86.07303339012088}, {"id": "WyCsQOxX5wx6OHJnLUmLTQ", "alias": "hot-dog-on-a-stick-carson-2", "name": "Hot Dog On A Stick", "image_url": "", "is_closed": false, "url": "https://www.yelp.com/biz/hot-dog-on-a-stick-carson-2?adjust_creative=a2JdNtFqB-C38ga_06BHvw&utm_campaign=yelp_api_v3&utm_medium=api_v3_business_search&utm_source=a2JdNtFqB-C38ga_06BHvw", "review_count": 2, "categories": [{"alias": "hotdog", "title": "Hot Dogs"}], "rating": 2.0, "coordinates": {"latitude": 33.845344, "longitude": -118.26568}, "transactions": [], "location": {"address1": "463 Carson Mall", "address2": "Unit B22", "address3": "", "city": "Carson", "zip_code": "90746", "country": "US", "state": "CA", "display_address": ["463 Carson Mall", "Unit B22", "Carson, CA 90746"]}, "phone": "+13103275337", "display_phone": "(310) 327-5337", "distance": 2118.9872450079497}, {"id": "ELohcLBCVe9RAZ0PDPSUOw", "alias": "ikea-bistro-long-beach", "name": "IKEA Bistro", "image_url": "https://s3-media3.fl.yelpcdn.com/bphoto/lWr57n6czJfH-ZMfKoAfcw/o.jpg", "is_closed": false, "url": "https://www.yelp.com/biz/ikea-bistro-long-beach?adjust_creative=a2JdNtFqB-C38ga_06BHvw&utm_campaign=yelp_api_v3&utm_medium=api_v3_business_search&utm_source=a2JdNtFqB-C38ga_06BHvw", "review_count": 3, "categories": [{"alias": "pizza", "title": "Pizza"}, {"alias": "coffee", "title": "Coffee & Tea"}, {"alias": "hotdog", "title": "Hot Dogs"}], "rating": 1.0, "coordinates": {"latitude": 33.842107760334, "longitude": -118.259834924424}, "transactions": ["delivery"], "location": {"address1": "20700 S Avalon Blvd", "address2": null, "address3": "", "city": "Long Beach", "zip_code": "90746", "country": "US", "state": "CA", "display_address": ["20700 S Avalon Blvd", "Long Beach, CA 90746"]}, "phone": "+13105274532", "display_phone": "(310) 527-4532", "distance": 2436.6796174901224}], "absolute total": 164, "total": 164}