{"league": "MLS", "team": "Minnesota United FC", "stadium": "Allianz Field", "stadium latitude": 44.952778, "stadium longitude": -93.165, "radius": "3000 meters", "city": "Saint Paul", "state": "Minnesota", "businesses": [{"id": "34q1Hfuh6QqLP-BPuxN_mA", "alias": "the-naughty-greek-saint-paul", "name": "The Naughty Greek", "image_url": "https://s3-media2.fl.yelpcdn.com/bphoto/aAb2Hc1vpwib6pdYIeL0Bw/o.jpg", "is_closed": false, "url": "https://www.yelp.com/biz/the-naughty-greek-saint-paul?adjust_creative=a2JdNtFqB-C38ga_06BHvw&utm_campaign=yelp_api_v3&utm_medium=api_v3_business_search&utm_source=a2JdNtFqB-C38ga_06BHvw", "review_count": 411, "categories": [{"alias": "mediterranean", "title": "Mediterranean"}, {"alias": "greek", "title": "Greek"}], "rating": 4.5, "coordinates": {"latitude": 44.9468, "longitude": -93.16731}, "transactions": ["delivery", "pickup"], "price": "$$", "location": {"address1": "181 Snelling Ave N", "address2": null, "address3": "", "city": "Saint Paul", "zip_code": "55104", "country": "US", "state": "MN", "display_address": ["181 Snelling Ave N", "Saint Paul, MN 55104"]}, "phone": "+16512194438", "display_phone": "(651) 219-4438", "distance": 681.7785386915994}, {"id": "1qVOiuSGnldYG82YHq4S-w", "alias": "caspers-and-runyons-nook-saint-paul", "name": "Casper's and Runyon's Nook", "image_url": "https://s3-media2.fl.yelpcdn.com/bphoto/GgvZclP3xBy0iqDQTvWPvQ/o.jpg", "is_closed": false, "url": "https://www.yelp.com/biz/caspers-and-runyons-nook-saint-paul?adjust_creative=a2JdNtFqB-C38ga_06BHvw&utm_campaign=yelp_api_v3&utm_medium=api_v3_business_search&utm_source=a2JdNtFqB-C38ga_06BHvw", "review_count": 933, "categories": [{"alias": "divebars", "title": "Dive Bars"}, {"alias": "burgers", "title": "Burgers"}], "rating": 4.5, "coordinates": {"latitude": 44.9265501, "longitude": -93.1567051}, "transactions": ["delivery"], "price": "$$", "location": {"address1": "492 Hamline Ave S", "address2": "", "address3": "", "city": "Saint Paul", "zip_code": "55116", "country": "US", "state": "MN", "display_address": ["492 Hamline Ave S", "Saint Paul, MN 55116"]}, "phone": "+16516984347", "display_phone": "(651) 698-4347", "distance": 2987.0248822640306}, {"id": "YjbP1m5lGTQmQnMPH2TRcQ", "alias": "muccis-italian-saint-paul", "name": "Mucci's Italian", "image_url": "https://s3-media2.fl.yelpcdn.com/bphoto/WeG7troBsmdvouKBS_Ui8g/o.jpg", "is_closed": false, "url": "https://www.yelp.com/biz/muccis-italian-saint-paul?adjust_creative=a2JdNtFqB-C38ga_06BHvw&utm_campaign=yelp_api_v3&utm_medium=api_v3_business_search&utm_source=a2JdNtFqB-C38ga_06BHvw", "review_count": 235, "categories": [{"alias": "italian", "title": "Italian"}], "rating": 4.5, "coordinates": {"latitude": 44.92668, "longitude": -93.13338}, "transactions": ["delivery"], "price": "$$", "location": {"address1": "786 Randolph Ave", "address2": "", "address3": "", "city": "Saint Paul", "zip_code": "55102", "country": "US", "state": "MN", "display_address": ["786 Randolph Ave", "Saint Paul, MN 55102"]}, "phone": "+16513302245", "display_phone": "(651) 330-2245", "distance": 3826.209917900866}, {"id": "61XtCmM0b5Kg01yeeewBPg", "alias": "nelson-cheese-and-deli-saint-paul", "name": "Nelson Cheese & Deli", "image_url": "https://s3-media3.fl.yelpcdn.com/bphoto/8IYb4LfW-ooPqK3wwinG3w/o.jpg", "is_closed": false, "url": "https://www.yelp.com/biz/nelson-cheese-and-deli-saint-paul?adjust_creative=a2JdNtFqB-C38ga_06BHvw&utm_campaign=yelp_api_v3&utm_medium=api_v3_business_search&utm_source=a2JdNtFqB-C38ga_06BHvw", "review_count": 140, "categories": [{"alias": "cheese", "title": "Cheese Shops"}, {"alias": "delis", "title": "Delis"}, {"alias": "sandwiches", "title": "Sandwiches"}], "rating": 4.5, "coordinates": {"latitude": 44.9770050048828, "longitude": -93.166259765625}, "transactions": ["delivery", "pickup"], "price": "$", "location": {"address1": "1562 Como Ave", "address2": "", "address3": "", "city": "Saint Paul", "zip_code": "55108", "country": "US", "state": "MN", "display_address": ["1562 Como Ave", "Saint Paul, MN 55108"]}, "phone": "+16516471288", "display_phone": "(651) 647-1288", "distance": 2704.4676363961744}, {"id": "pf5fPPLzwpK0GfAG13iRHQ", "alias": "trung-nam-french-bakery-saint-paul-2", "name": "Trung Nam French Bakery", "image_url": "https://s3-media1.fl.yelpcdn.com/bphoto/T8bAQKRr7tGqOcECwXTECg/o.jpg", "is_closed": false, "url": "https://www.yelp.com/biz/trung-nam-french-bakery-saint-paul-2?adjust_creative=a2JdNtFqB-C38ga_06BHvw&utm_campaign=yelp_api_v3&utm_medium=api_v3_business_search&utm_source=a2JdNtFqB-C38ga_06BHvw", "review_count": 222, "categories": [{"alias": "bakeries", "title": "Bakeries"}, {"alias": "french", "title": "French"}, {"alias": "vietnamese", "title": "Vietnamese"}], "rating": 4.5, "coordinates": {"latitude": 44.9560546875, "longitude": -93.1309967041016}, "transactions": ["delivery"], "price": "$", "location": {"address1": "739 University Ave W", "address2": "", "address3": "", "city": "Saint Paul", "zip_code": "55104", "country": "US", "state": "MN", "display_address": ["739 University Ave W", "Saint Paul, MN 55104"]}, "phone": "+16512290887", "display_phone": "(651) 229-0887", "distance": 2696.773460614208}, {"id": "1330vN2vWxuJYJrUzohmLw", "alias": "eureka-compass-vegan-food-st-paul", "name": "Eureka Compass Vegan Food", "image_url": "https://s3-media2.fl.yelpcdn.com/bphoto/7c2m1TNn4Y7BQ3yBtdGcAQ/o.jpg", "is_closed": false, "url": "https://www.yelp.com/biz/eureka-compass-vegan-food-st-paul?adjust_creative=a2JdNtFqB-C38ga_06BHvw&utm_campaign=yelp_api_v3&utm_medium=api_v3_business_search&utm_source=a2JdNtFqB-C38ga_06BHvw", "review_count": 33, "categories": [{"alias": "vegan", "title": "Vegan"}, {"alias": "grocery", "title": "Grocery"}, {"alias": "organic_stores", "title": "Organic Stores"}], "rating": 5.0, "coordinates": {"latitude": 44.960069, "longitude": -93.172425}, "transactions": ["delivery"], "price": "$", "location": {"address1": "629 Aldine St", "address2": "", "address3": null, "city": "St Paul", "zip_code": "55104", "country": "US", "state": "MN", "display_address": ["629 Aldine St", "St Paul, MN 55104"]}, "phone": "+16516000419", "display_phone": "(651) 600-0419", "distance": 999.3061761778894}, {"id": "mpiFVbqHqkNd0fBfBxCJ7g", "alias": "black-sea-restaurant-saint-paul-2", "name": "Black Sea Restaurant", "image_url": "https://s3-media4.fl.yelpcdn.com/bphoto/354jKS4CzypdNdHNGkNjvA/o.jpg", "is_closed": false, "url": "https://www.yelp.com/biz/black-sea-restaurant-saint-paul-2?adjust_creative=a2JdNtFqB-C38ga_06BHvw&utm_campaign=yelp_api_v3&utm_medium=api_v3_business_search&utm_source=a2JdNtFqB-C38ga_06BHvw", "review_count": 230, "categories": [{"alias": "turkish", "title": "Turkish"}, {"alias": "desserts", "title": "Desserts"}, {"alias": "mediterranean", "title": "Mediterranean"}], "rating": 4.5, "coordinates": {"latitude": 44.963462, "longitude": -93.167263}, "transactions": ["delivery"], "price": "$", "location": {"address1": "737 Snelling Ave N", "address2": "", "address3": "", "city": "Saint Paul", "zip_code": "55104", "country": "US", "state": "MN", "display_address": ["737 Snelling Ave N", "Saint Paul, MN 55104"]}, "phone": "+16519178832", "display_phone": "(651) 917-8832", "distance": 1201.2754136666956}, {"id": "ZDYdJLi4XoY07DrJKjaTOQ", "alias": "red-rabbit-st-paul-saint-paul", "name": "Red Rabbit - St. Paul", "image_url": "https://s3-media2.fl.yelpcdn.com/bphoto/6dopNKx-rapnDi90To6HWQ/o.jpg", "is_closed": false, "url": "https://www.yelp.com/biz/red-rabbit-st-paul-saint-paul?adjust_creative=a2JdNtFqB-C38ga_06BHvw&utm_campaign=yelp_api_v3&utm_medium=api_v3_business_search&utm_source=a2JdNtFqB-C38ga_06BHvw", "review_count": 218, "categories": [{"alias": "italian", "title": "Italian"}], "rating": 4.5, "coordinates": {"latitude": 44.9398212560972, "longitude": -93.1332063531045}, "transactions": ["delivery"], "price": "$$", "location": {"address1": "788 Grand Ave", "address2": "", "address3": null, "city": "Saint Paul", "zip_code": "55105", "country": "US", "state": "MN", "display_address": ["788 Grand Ave", "Saint Paul, MN 55105"]}, "phone": "+16514445995", "display_phone": "(651) 444-5995", "distance": 2887.304468350291}, {"id": "VzrXRWksEnRSgAS0qLMqsw", "alias": "the-naughty-greek-st-paul", "name": "The Naughty Greek", "image_url": "https://s3-media4.fl.yelpcdn.com/bphoto/XBulAKH2Qh3WVPTY1BUb8g/o.jpg", "is_closed": false, "url": "https://www.yelp.com/biz/the-naughty-greek-st-paul?adjust_creative=a2JdNtFqB-C38ga_06BHvw&utm_campaign=yelp_api_v3&utm_medium=api_v3_business_search&utm_source=a2JdNtFqB-C38ga_06BHvw", "review_count": 156, "categories": [{"alias": "greek", "title": "Greek"}, {"alias": "mediterranean", "title": "Mediterranean"}, {"alias": "vegetarian", "title": "Vegetarian"}], "rating": 4.5, "coordinates": {"latitude": 44.9635, "longitude": -93.19805}, "transactions": ["delivery", "pickup"], "price": "$$", "location": {"address1": "2400 University Ave W", "address2": "", "address3": null, "city": "St Paul", "zip_code": "55114", "country": "US", "state": "MN", "display_address": ["2400 University Ave W", "St Paul, MN 55114"]}, "phone": "+16512194438", "display_phone": "(651) 219-4438", "distance": 2881.8646932876295}, {"id": "2yGzhH_Zzo9OC1HxkJ4piw", "alias": "j-selbys-saint-paul-2", "name": "J. Selby's", "image_url": "https://s3-media3.fl.yelpcdn.com/bphoto/23lSrmQ5cxWkk_7jzuuyxw/o.jpg", "is_closed": false, "url": "https://www.yelp.com/biz/j-selbys-saint-paul-2?adjust_creative=a2JdNtFqB-C38ga_06BHvw&utm_campaign=yelp_api_v3&utm_medium=api_v3_business_search&utm_source=a2JdNtFqB-C38ga_06BHvw", "review_count": 354, "categories": [{"alias": "vegan", "title": "Vegan"}, {"alias": "tradamerican", "title": "American (Traditional)"}], "rating": 4.5, "coordinates": {"latitude": 44.94635, "longitude": -93.13665}, "transactions": ["delivery"], "price": "$$", "location": {"address1": "169 N Victoria St", "address2": "", "address3": null, "city": "Saint Paul", "zip_code": "55104", "country": "US", "state": "MN", "display_address": ["169 N Victoria St", "Saint Paul, MN 55104"]}, "phone": "+16512223263", "display_phone": "(651) 222-3263", "distance": 2343.010377391343}, {"id": "kSMAla_GDvjYmVqMZEPuTw", "alias": "bolé-ethiopian-cuisine-saint-paul", "name": "Bolé Ethiopian Cuisine", "image_url": "https://s3-media3.fl.yelpcdn.com/bphoto/1vnePavUOrmMtxW5s3ik-Q/o.jpg", "is_closed": false, "url": "https://www.yelp.com/biz/bol%C3%A9-ethiopian-cuisine-saint-paul?adjust_creative=a2JdNtFqB-C38ga_06BHvw&utm_campaign=yelp_api_v3&utm_medium=api_v3_business_search&utm_source=a2JdNtFqB-C38ga_06BHvw", "review_count": 71, "categories": [{"alias": "ethiopian", "title": "Ethiopian"}], "rating": 4.5, "coordinates": {"latitude": 44.95606, "longitude": -93.15413}, "transactions": ["delivery"], "price": "$$", "location": {"address1": "490 N Syndicate St", "address2": null, "address3": "", "city": "Saint Paul", "zip_code": "55104", "country": "US", "state": "MN", "display_address": ["490 N Syndicate St", "Saint Paul, MN 55104"]}, "phone": "+16519179332", "display_phone": "(651) 917-9332", "distance": 930.6797572594771}, {"id": "EjMjgTfBYY_pkY5kZDi1Tw", "alias": "zait-and-zaatar-saint-paul", "name": "Zait & Za'atar", "image_url": "https://s3-media4.fl.yelpcdn.com/bphoto/dXOzkiteI2p06iW6VeljUg/o.jpg", "is_closed": false, "url": "https://www.yelp.com/biz/zait-and-zaatar-saint-paul?adjust_creative=a2JdNtFqB-C38ga_06BHvw&utm_campaign=yelp_api_v3&utm_medium=api_v3_business_search&utm_source=a2JdNtFqB-C38ga_06BHvw", "review_count": 141, "categories": [{"alias": "mideastern", "title": "Middle Eastern"}, {"alias": "mediterranean", "title": "Mediterranean"}, {"alias": "importedfood", "title": "Imported Food"}], "rating": 4.5, "coordinates": {"latitude": 44.946302, "longitude": -93.168903}, "transactions": ["delivery", "pickup"], "price": "$", "location": {"address1": "1626 Selby Ave", "address2": null, "address3": "", "city": "Saint Paul", "zip_code": "55104", "country": "US", "state": "MN", "display_address": ["1626 Selby Ave", "Saint Paul, MN 55104"]}, "phone": "+16514937438", "display_phone": "(651) 493-7438", "distance": 775.5718439764377}, {"id": "Xpch4JmLQl7R1z0KOranjA", "alias": "treats-st-paul", "name": "Treats", "image_url": "https://s3-media2.fl.yelpcdn.com/bphoto/3MM0ueSlb-YKTy_UM2VOfw/o.jpg", "is_closed": false, "url": "https://www.yelp.com/biz/treats-st-paul?adjust_creative=a2JdNtFqB-C38ga_06BHvw&utm_campaign=yelp_api_v3&utm_medium=api_v3_business_search&utm_source=a2JdNtFqB-C38ga_06BHvw", "review_count": 133, "categories": [{"alias": "icecream", "title": "Ice Cream & Frozen Yogurt"}, {"alias": "bubbletea", "title": "Bubble Tea"}, {"alias": "waffles", "title": "Waffles"}], "rating": 4.5, "coordinates": {"latitude": 44.93963, "longitude": -93.13267}, "transactions": ["delivery", "pickup"], "price": "$$", "location": {"address1": "770 Grand Ave", "address2": null, "address3": "", "city": "St Paul", "zip_code": "55105", "country": "US", "state": "MN", "display_address": ["770 Grand Ave", "St Paul, MN 55105"]}, "phone": "+16514784385", "display_phone": "(651) 478-4385", "distance": 2929.6738844447573}, {"id": "AMuLZgZCWHZmjtILfWqaww", "alias": "skinners-pub-and-eatery-saint-paul", "name": "Skinners Pub & Eatery", "image_url": "https://s3-media1.fl.yelpcdn.com/bphoto/NIWmvQCFoJqAvcarUlBKYw/o.jpg", "is_closed": false, "url": "https://www.yelp.com/biz/skinners-pub-and-eatery-saint-paul?adjust_creative=a2JdNtFqB-C38ga_06BHvw&utm_campaign=yelp_api_v3&utm_medium=api_v3_business_search&utm_source=a2JdNtFqB-C38ga_06BHvw", "review_count": 102, "categories": [{"alias": "pubs", "title": "Pubs"}, {"alias": "pizza", "title": "Pizza"}, {"alias": "tradamerican", "title": "American (Traditional)"}], "rating": 4.5, "coordinates": {"latitude": 44.92714, "longitude": -93.1387}, "transactions": ["delivery"], "price": "$", "location": {"address1": "919 Randolph Ave", "address2": "", "address3": "", "city": "Saint Paul", "zip_code": "55102", "country": "US", "state": "MN", "display_address": ["919 Randolph Ave", "Saint Paul, MN 55102"]}, "phone": "+16512280146", "display_phone": "(651) 228-0146", "distance": 3524.5621131561006}, {"id": "qluUSZekiKcwXOJs6TZbMQ", "alias": "golden-thyme-coffee-and-cafe-saint-paul", "name": "Golden Thyme Coffee & Cafe", "image_url": "https://s3-media1.fl.yelpcdn.com/bphoto/h6OtvIJ_ZY0-6vW0vnk7Hw/o.jpg", "is_closed": false, "url": "https://www.yelp.com/biz/golden-thyme-coffee-and-cafe-saint-paul?adjust_creative=a2JdNtFqB-C38ga_06BHvw&utm_campaign=yelp_api_v3&utm_medium=api_v3_business_search&utm_source=a2JdNtFqB-C38ga_06BHvw", "review_count": 52, "categories": [{"alias": "coffee", "title": "Coffee & Tea"}, {"alias": "breakfast_brunch", "title": "Breakfast & Brunch"}, {"alias": "sandwiches", "title": "Sandwiches"}], "rating": 4.5, "coordinates": {"latitude": 44.9464297733605, "longitude": -93.1397577757979}, "transactions": ["delivery"], "price": "$", "location": {"address1": "934 Selby Ave", "address2": "", "address3": "", "city": "Saint Paul", "zip_code": "55104", "country": "US", "state": "MN", "display_address": ["934 Selby Ave", "Saint Paul, MN 55104"]}, "phone": "+16516451340", "display_phone": "(651) 645-1340", "distance": 2108.1471977687415}, {"id": "m7CPabomRbUIKAZsKsYMAw", "alias": "cafe-latté-saint-paul-2", "name": "Cafe Latté", "image_url": "https://s3-media3.fl.yelpcdn.com/bphoto/7bSpkbxLtm0ydbHV3RQZtA/o.jpg", "is_closed": false, "url": "https://www.yelp.com/biz/cafe-latt%C3%A9-saint-paul-2?adjust_creative=a2JdNtFqB-C38ga_06BHvw&utm_campaign=yelp_api_v3&utm_medium=api_v3_business_search&utm_source=a2JdNtFqB-C38ga_06BHvw", "review_count": 585, "categories": [{"alias": "comfortfood", "title": "Comfort Food"}, {"alias": "cafeteria", "title": "Cafeteria"}, {"alias": "pizza", "title": "Pizza"}], "rating": 4.0, "coordinates": {"latitude": 44.939642, "longitude": -93.13603}, "transactions": ["delivery"], "price": "$$", "location": {"address1": "850 Grand Ave", "address2": "", "address3": "", "city": "Saint Paul", "zip_code": "55105", "country": "US", "state": "MN", "display_address": ["850 Grand Ave", "Saint Paul, MN 55105"]}, "phone": "+16512245687", "display_phone": "(651) 224-5687", "distance": 2708.5490832037003}, {"id": "Ek5oUf3SZxyVAj5zOfVJHg", "alias": "stewarts-saint-paul", "name": "Stewart's", "image_url": "https://s3-media2.fl.yelpcdn.com/bphoto/IOoeacuqhNZzX7MLgsd5ig/o.jpg", "is_closed": false, "url": "https://www.yelp.com/biz/stewarts-saint-paul?adjust_creative=a2JdNtFqB-C38ga_06BHvw&utm_campaign=yelp_api_v3&utm_medium=api_v3_business_search&utm_source=a2JdNtFqB-C38ga_06BHvw", "review_count": 158, "categories": [{"alias": "newamerican", "title": "American (New)"}, {"alias": "bars", "title": "Bars"}], "rating": 4.5, "coordinates": {"latitude": 44.945327, "longitude": -93.187177}, "transactions": ["delivery"], "price": "$$", "location": {"address1": "128 Cleveland Ave N", "address2": "", "address3": null, "city": "Saint Paul", "zip_code": "55104", "country": "US", "state": "MN", "display_address": ["128 Cleveland Ave N", "Saint Paul, MN 55104"]}, "phone": "+16516454128", "display_phone": "(651) 645-4128", "distance": 1931.9257542134696}, {"id": "xl5z8X8TPFJmGwSn8ipBAA", "alias": "the-neighborhood-café-saint-paul", "name": "The Neighborhood Café", "image_url": "https://s3-media4.fl.yelpcdn.com/bphoto/tj6DjS2MpTdi1UQcLRjD_w/o.jpg", "is_closed": false, "url": "https://www.yelp.com/biz/the-neighborhood-caf%C3%A9-saint-paul?adjust_creative=a2JdNtFqB-C38ga_06BHvw&utm_campaign=yelp_api_v3&utm_medium=api_v3_business_search&utm_source=a2JdNtFqB-C38ga_06BHvw", "review_count": 297, "categories": [{"alias": "tradamerican", "title": "American (Traditional)"}, {"alias": "breakfast_brunch", "title": "Breakfast & Brunch"}], "rating": 4.0, "coordinates": {"latitude": 44.946398, "longitude": -93.166395}, "transactions": ["delivery"], "price": "$$", "location": {"address1": "1570 Selby Ave", "address2": "", "address3": "", "city": "Saint Paul", "zip_code": "55104", "country": "US", "state": "MN", "display_address": ["1570 Selby Ave", "Saint Paul, MN 55104"]}, "phone": "+16516448887", "display_phone": "(651) 644-8887", "distance": 717.8666636170718}, {"id": "wdgu6v5d9JCStV4jSrQnAQ", "alias": "demera-saint-paul", "name": "Demera", "image_url": "https://s3-media3.fl.yelpcdn.com/bphoto/i1WuBQzBd444209DGzop8Q/o.jpg", "is_closed": false, "url": "https://www.yelp.com/biz/demera-saint-paul?adjust_creative=a2JdNtFqB-C38ga_06BHvw&utm_campaign=yelp_api_v3&utm_medium=api_v3_business_search&utm_source=a2JdNtFqB-C38ga_06BHvw", "review_count": 67, "categories": [{"alias": "ethiopian", "title": "Ethiopian"}, {"alias": "bars", "title": "Bars"}], "rating": 4.5, "coordinates": {"latitude": 44.9560509, "longitude": -93.1348419}, "transactions": ["delivery"], "price": "$$", "location": {"address1": "823 W University Ave", "address2": "", "address3": "", "city": "Saint Paul", "zip_code": "55104", "country": "US", "state": "MN", "display_address": ["823 W University Ave", "Saint Paul, MN 55104"]}, "phone": "+16512246224", "display_phone": "(651) 224-6224", "distance": 2393.003905088105}, {"id": "ziwhTIngHPlIeKVZRoWG6w", "alias": "groundswell-saint-paul", "name": "Groundswell", "image_url": "https://s3-media3.fl.yelpcdn.com/bphoto/YztafRmSbxNv9IN8gUrRSA/o.jpg", "is_closed": false, "url": "https://www.yelp.com/biz/groundswell-saint-paul?adjust_creative=a2JdNtFqB-C38ga_06BHvw&utm_campaign=yelp_api_v3&utm_medium=api_v3_business_search&utm_source=a2JdNtFqB-C38ga_06BHvw", "review_count": 243, "categories": [{"alias": "coffee", "title": "Coffee & Tea"}, {"alias": "bakeries", "title": "Bakeries"}, {"alias": "breakfast_brunch", "title": "Breakfast & Brunch"}], "rating": 4.0, "coordinates": {"latitude": 44.9591845, "longitude": -93.1570824}, "transactions": ["delivery"], "price": "$", "location": {"address1": "1340 Thomas Ave", "address2": "", "address3": "", "city": "Saint Paul", "zip_code": "55104", "country": "US", "state": "MN", "display_address": ["1340 Thomas Ave", "Saint Paul, MN 55104"]}, "phone": "+16516456466", "display_phone": "(651) 645-6466", "distance": 950.7715609319766}, {"id": "Y2H6a1yz3ooTdJpunlhpeQ", "alias": "hot-hands-pie-and-biscuit-saint-paul", "name": "Hot Hands Pie & Biscuit", "image_url": "https://s3-media3.fl.yelpcdn.com/bphoto/JiGqUUjm44jf-bY651fRyQ/o.jpg", "is_closed": false, "url": "https://www.yelp.com/biz/hot-hands-pie-and-biscuit-saint-paul?adjust_creative=a2JdNtFqB-C38ga_06BHvw&utm_campaign=yelp_api_v3&utm_medium=api_v3_business_search&utm_source=a2JdNtFqB-C38ga_06BHvw", "review_count": 72, "categories": [{"alias": "desserts", "title": "Desserts"}, {"alias": "breakfast_brunch", "title": "Breakfast & Brunch"}, {"alias": "sandwiches", "title": "Sandwiches"}], "rating": 4.5, "coordinates": {"latitude": 44.93312, "longitude": -93.16659}, "transactions": [], "location": {"address1": "272 Snelling Ave S", "address2": "Ste 100", "address3": "", "city": "Saint Paul", "zip_code": "55105", "country": "US", "state": "MN", "display_address": ["272 Snelling Ave S", "Ste 100", "Saint Paul, MN 55105"]}, "phone": "+16513001503", "display_phone": "(651) 300-1503", "distance": 2183.3776302992655}, {"id": "8iaDvOZUmBXO8kFuedbe8A", "alias": "ipho-by-saigon-saint-paul-2", "name": "iPho by Saigon", "image_url": "https://s3-media1.fl.yelpcdn.com/bphoto/xPgNTPAlQj9SckOmxvuRLQ/o.jpg", "is_closed": false, "url": "https://www.yelp.com/biz/ipho-by-saigon-saint-paul-2?adjust_creative=a2JdNtFqB-C38ga_06BHvw&utm_campaign=yelp_api_v3&utm_medium=api_v3_business_search&utm_source=a2JdNtFqB-C38ga_06BHvw", "review_count": 409, "categories": [{"alias": "vietnamese", "title": "Vietnamese"}], "rating": 4.0, "coordinates": {"latitude": 44.9554681020232, "longitude": -93.1297714405111}, "transactions": ["delivery"], "price": "$", "location": {"address1": "704 University Ave W", "address2": "", "address3": "", "city": "Saint Paul", "zip_code": "55104", "country": "US", "state": "MN", "display_address": ["704 University Ave W", "Saint Paul, MN 55104"]}, "phone": "+16512258751", "display_phone": "(651) 225-8751", "distance": 2788.2106458665403}, {"id": "0JS7i1g5nKe4pDEfO4ZN0w", "alias": "grand-ole-creamery-and-grand-pizzeria-saint-paul", "name": "Grand Ole Creamery & Grand Pizzeria", "image_url": "https://s3-media2.fl.yelpcdn.com/bphoto/-u-aZxx9eSAxQt1WShc9Zg/o.jpg", "is_closed": false, "url": "https://www.yelp.com/biz/grand-ole-creamery-and-grand-pizzeria-saint-paul?adjust_creative=a2JdNtFqB-C38ga_06BHvw&utm_campaign=yelp_api_v3&utm_medium=api_v3_business_search&utm_source=a2JdNtFqB-C38ga_06BHvw", "review_count": 286, "categories": [{"alias": "icecream", "title": "Ice Cream & Frozen Yogurt"}, {"alias": "pizza", "title": "Pizza"}], "rating": 4.0, "coordinates": {"latitude": 44.9398228, "longitude": -93.131913}, "transactions": ["delivery", "pickup"], "price": "$", "location": {"address1": "750 Grand Ave", "address2": "", "address3": "", "city": "Saint Paul", "zip_code": "55105", "country": "US", "state": "MN", "display_address": ["750 Grand Ave", "Saint Paul, MN 55105"]}, "phone": "+16512931655", "display_phone": "(651) 293-1655", "distance": 2975.8646456310703}, {"id": "fTpaepRwluvQGHyg7g4nYA", "alias": "iron-ranger-saint-paul", "name": "Iron Ranger", "image_url": "https://s3-media2.fl.yelpcdn.com/bphoto/fkfVxEXJ_sv0s0g6sqOnHQ/o.jpg", "is_closed": false, "url": "https://www.yelp.com/biz/iron-ranger-saint-paul?adjust_creative=a2JdNtFqB-C38ga_06BHvw&utm_campaign=yelp_api_v3&utm_medium=api_v3_business_search&utm_source=a2JdNtFqB-C38ga_06BHvw", "review_count": 96, "categories": [{"alias": "gourmet", "title": "Specialty Food"}, {"alias": "tapasmallplates", "title": "Tapas/Small Plates"}, {"alias": "sandwiches", "title": "Sandwiches"}], "rating": 4.5, "coordinates": {"latitude": 44.9403099, "longitude": -93.14586}, "transactions": ["pickup", "delivery"], "price": "$$", "location": {"address1": "1085 Grand Ave", "address2": "", "address3": "", "city": "Saint Paul", "zip_code": "55105", "country": "US", "state": "MN", "display_address": ["1085 Grand Ave", "Saint Paul, MN 55105"]}, "phone": "+16514871913", "display_phone": "(651) 487-1913", "distance": 2054.2805591782594}, {"id": "mrrwkwUj9D9WbFWqv9ZVuw", "alias": "brasa-rotisserie-saint-paul", "name": "Brasa Rotisserie", "image_url": "https://s3-media1.fl.yelpcdn.com/bphoto/d25eyui9w5vcg6cC8PkYPw/o.jpg", "is_closed": false, "url": "https://www.yelp.com/biz/brasa-rotisserie-saint-paul?adjust_creative=a2JdNtFqB-C38ga_06BHvw&utm_campaign=yelp_api_v3&utm_medium=api_v3_business_search&utm_source=a2JdNtFqB-C38ga_06BHvw", "review_count": 401, "categories": [{"alias": "southern", "title": "Southern"}, {"alias": "caribbean", "title": "Caribbean"}], "rating": 4.0, "coordinates": {"latitude": 44.94027, "longitude": -93.13284}, "transactions": ["delivery"], "price": "$$", "location": {"address1": "777 Grand Ave", "address2": "", "address3": "", "city": "Saint Paul", "zip_code": "55105", "country": "US", "state": "MN", "display_address": ["777 Grand Ave", "Saint Paul, MN 55105"]}, "phone": "+16512241302", "display_phone": "(651) 224-1302", "distance": 2883.247174525378}, {"id": "nlvbHvXlr7GXU6gBa6sYNQ", "alias": "grand-catch-st-paul", "name": "Grand Catch", "image_url": "https://s3-media4.fl.yelpcdn.com/bphoto/hW4zojzutJOltiQGnZPrlg/o.jpg", "is_closed": false, "url": "https://www.yelp.com/biz/grand-catch-st-paul?adjust_creative=a2JdNtFqB-C38ga_06BHvw&utm_campaign=yelp_api_v3&utm_medium=api_v3_business_search&utm_source=a2JdNtFqB-C38ga_06BHvw", "review_count": 255, "categories": [{"alias": "seafood", "title": "Seafood"}, {"alias": "cajun", "title": "Cajun/Creole"}, {"alias": "vietnamese", "title": "Vietnamese"}], "rating": 4.0, "coordinates": {"latitude": 44.93977, "longitude": -93.1708}, "transactions": ["delivery", "pickup"], "price": "$$", "location": {"address1": "1672 Grand Ave", "address2": "", "address3": null, "city": "St. Paul", "zip_code": "55105", "country": "US", "state": "MN", "display_address": ["1672 Grand Ave", "St. Paul, MN 55105"]}, "phone": "+16513488541", "display_phone": "(651) 348-8541", "distance": 1505.2118529453553}, {"id": "eVmVkr4EaoD0T0DldsQl7g", "alias": "manila-sizzling-wok-and-grill-saint-paul-2", "name": "Manila Sizzling Wok And Grill", "image_url": "https://s3-media1.fl.yelpcdn.com/bphoto/Oneop4HqBjGb5mPIo368Tw/o.jpg", "is_closed": false, "url": "https://www.yelp.com/biz/manila-sizzling-wok-and-grill-saint-paul-2?adjust_creative=a2JdNtFqB-C38ga_06BHvw&utm_campaign=yelp_api_v3&utm_medium=api_v3_business_search&utm_source=a2JdNtFqB-C38ga_06BHvw", "review_count": 40, "categories": [{"alias": "asianfusion", "title": "Asian Fusion"}, {"alias": "filipino", "title": "Filipino"}], "rating": 4.5, "coordinates": {"latitude": 44.955439, "longitude": -93.130412}, "transactions": [], "price": "$", "location": {"address1": "712 University Ave W", "address2": "", "address3": null, "city": "Saint Paul", "zip_code": "55104", "country": "US", "state": "MN", "display_address": ["712 University Ave W", "Saint Paul, MN 55104"]}, "phone": "+16514140908", "display_phone": "(651) 414-0908", "distance": 2737.750627844678}, {"id": "DmHVcwnIM5gzrO9-mYnX8A", "alias": "the-uptowner-café-on-grand-saint-paul-2", "name": "The Uptowner Café On Grand", "image_url": "https://s3-media1.fl.yelpcdn.com/bphoto/aQXjYecA4fT-XE67Dk67hw/o.jpg", "is_closed": false, "url": "https://www.yelp.com/biz/the-uptowner-caf%C3%A9-on-grand-saint-paul-2?adjust_creative=a2JdNtFqB-C38ga_06BHvw&utm_campaign=yelp_api_v3&utm_medium=api_v3_business_search&utm_source=a2JdNtFqB-C38ga_06BHvw", "review_count": 270, "categories": [{"alias": "breakfast_brunch", "title": "Breakfast & Brunch"}, {"alias": "cafes", "title": "Cafes"}, {"alias": "soup", "title": "Soup"}], "rating": 4.0, "coordinates": {"latitude": 44.93982, "longitude": -93.14684}, "transactions": ["delivery"], "price": "$$", "location": {"address1": "1100 Grand Ave", "address2": "", "address3": "", "city": "Saint Paul", "zip_code": "55105", "country": "US", "state": "MN", "display_address": ["1100 Grand Ave", "Saint Paul, MN 55105"]}, "phone": "+16512240406", "display_phone": "(651) 224-0406", "distance": 2031.7158139811695}, {"id": "djWzqqd5veME5uGIZ_Whtw", "alias": "groveland-tap-saint-paul-4", "name": "Groveland Tap", "image_url": "https://s3-media3.fl.yelpcdn.com/bphoto/801nXInQ8WMWYMilxm_Uog/o.jpg", "is_closed": false, "url": "https://www.yelp.com/biz/groveland-tap-saint-paul-4?adjust_creative=a2JdNtFqB-C38ga_06BHvw&utm_campaign=yelp_api_v3&utm_medium=api_v3_business_search&utm_source=a2JdNtFqB-C38ga_06BHvw", "review_count": 278, "categories": [{"alias": "tradamerican", "title": "American (Traditional)"}, {"alias": "beerbar", "title": "Beer Bar"}], "rating": 4.0, "coordinates": {"latitude": 44.934086, "longitude": -93.177868}, "transactions": ["delivery", "pickup"], "price": "$$", "location": {"address1": "1834 Saint Clair Ave", "address2": "", "address3": "", "city": "Saint Paul", "zip_code": "55105", "country": "US", "state": "MN", "display_address": ["1834 Saint Clair Ave", "Saint Paul, MN 55105"]}, "phone": "+16516995058", "display_phone": "(651) 699-5058", "distance": 2312.0687482828575}, {"id": "luWvswxBX0GxHkX5oKj-Qg", "alias": "crisp-and-green-saint-paul-2", "name": "Crisp & Green", "image_url": "https://s3-media3.fl.yelpcdn.com/bphoto/WL69-gZ4XyZBLXCon7h2aA/o.jpg", "is_closed": false, "url": "https://www.yelp.com/biz/crisp-and-green-saint-paul-2?adjust_creative=a2JdNtFqB-C38ga_06BHvw&utm_campaign=yelp_api_v3&utm_medium=api_v3_business_search&utm_source=a2JdNtFqB-C38ga_06BHvw", "review_count": 29, "categories": [{"alias": "salad", "title": "Salad"}, {"alias": "juicebars", "title": "Juice Bars & Smoothies"}], "rating": 4.5, "coordinates": {"latitude": 44.940124, "longitude": -93.141126}, "transactions": [], "price": "$$", "location": {"address1": "975 Grand Ave", "address2": null, "address3": "", "city": "Saint Paul", "zip_code": "55105", "country": "US", "state": "MN", "display_address": ["975 Grand Ave", "Saint Paul, MN 55105"]}, "phone": "+16513309739", "display_phone": "(651) 330-9739", "distance": 2345.5074410662774}, {"id": "ty8xm2umF-rGIRN9V8dC7A", "alias": "fasika-ethiopian-restaurant-saint-paul-2", "name": "Fasika Ethiopian Restaurant", "image_url": "https://s3-media1.fl.yelpcdn.com/bphoto/DnIlJ1YUyKrd4lHwVhEx-A/o.jpg", "is_closed": false, "url": "https://www.yelp.com/biz/fasika-ethiopian-restaurant-saint-paul-2?adjust_creative=a2JdNtFqB-C38ga_06BHvw&utm_campaign=yelp_api_v3&utm_medium=api_v3_business_search&utm_source=a2JdNtFqB-C38ga_06BHvw", "review_count": 286, "categories": [{"alias": "ethiopian", "title": "Ethiopian"}, {"alias": "vegan", "title": "Vegan"}, {"alias": "vegetarian", "title": "Vegetarian"}], "rating": 4.0, "coordinates": {"latitude": 44.9564328535882, "longitude": -93.1668264567286}, "transactions": ["delivery"], "price": "$$", "location": {"address1": "510 N Snelling Ave", "address2": "", "address3": "", "city": "Saint Paul", "zip_code": "55104", "country": "US", "state": "MN", "display_address": ["510 N Snelling Ave", "Saint Paul, MN 55104"]}, "phone": "+16516464747", "display_phone": "(651) 646-4747", "distance": 432.84801415041727}, {"id": "Zkn4BRbBChR5haPS8hGn9A", "alias": "caffè-biaggio-saint-paul-2", "name": "Caffè Biaggio", "image_url": "https://s3-media4.fl.yelpcdn.com/bphoto/552fwQCAyDr4jmY7rqk2fg/o.jpg", "is_closed": false, "url": "https://www.yelp.com/biz/caff%C3%A8-biaggio-saint-paul-2?adjust_creative=a2JdNtFqB-C38ga_06BHvw&utm_campaign=yelp_api_v3&utm_medium=api_v3_business_search&utm_source=a2JdNtFqB-C38ga_06BHvw", "review_count": 135, "categories": [{"alias": "italian", "title": "Italian"}], "rating": 4.0, "coordinates": {"latitude": 44.9632759094238, "longitude": -93.1970367431641}, "transactions": ["delivery"], "price": "$$", "location": {"address1": "2356 University Ave W", "address2": "", "address3": "", "city": "Saint Paul", "zip_code": "55114", "country": "US", "state": "MN", "display_address": ["2356 University Ave W", "Saint Paul, MN 55114"]}, "phone": "+16519177997", "display_phone": "(651) 917-7997", "distance": 2786.7305639269116}, {"id": "oiV59HR1Js_-rfIN8UWtUw", "alias": "ons-thai-kitchen-saint-paul", "name": "On's Thai Kitchen", "image_url": "https://s3-media3.fl.yelpcdn.com/bphoto/SB5R0RrLbY1powdA5qeFkg/o.jpg", "is_closed": false, "url": "https://www.yelp.com/biz/ons-thai-kitchen-saint-paul?adjust_creative=a2JdNtFqB-C38ga_06BHvw&utm_campaign=yelp_api_v3&utm_medium=api_v3_business_search&utm_source=a2JdNtFqB-C38ga_06BHvw", "review_count": 484, "categories": [{"alias": "thai", "title": "Thai"}], "rating": 4.0, "coordinates": {"latitude": 44.9558464, "longitude": -93.1683905}, "transactions": ["delivery"], "price": "$$", "location": {"address1": "1613 University Ave W", "address2": "", "address3": "", "city": "Saint Paul", "zip_code": "55104", "country": "US", "state": "MN", "display_address": ["1613 University Ave W", "Saint Paul, MN 55104"]}, "phone": "+16513309664", "display_phone": "(651) 330-9664", "distance": 433.11753612429925}, {"id": "hzz4N1s4K13jf3pTaz99SA", "alias": "magic-noodle-saint-paul-4", "name": "Magic Noodle", "image_url": "https://s3-media3.fl.yelpcdn.com/bphoto/LyO4TiiExA-RlcJadCL6yQ/o.jpg", "is_closed": false, "url": "https://www.yelp.com/biz/magic-noodle-saint-paul-4?adjust_creative=a2JdNtFqB-C38ga_06BHvw&utm_campaign=yelp_api_v3&utm_medium=api_v3_business_search&utm_source=a2JdNtFqB-C38ga_06BHvw", "review_count": 202, "categories": [{"alias": "chinese", "title": "Chinese"}, {"alias": "noodles", "title": "Noodles"}], "rating": 4.0, "coordinates": {"latitude": 44.9559349, "longitude": -93.1564329}, "transactions": ["delivery", "pickup"], "price": "$$", "location": {"address1": "1337 University Ave W", "address2": null, "address3": "", "city": "Saint Paul", "zip_code": "55104", "country": "US", "state": "MN", "display_address": ["1337 University Ave W", "Saint Paul, MN 55104"]}, "phone": "+16513696688", "display_phone": "(651) 369-6688", "distance": 748.0349199747193}, {"id": "0GbroApG8-RljcOCHE2ztA", "alias": "punch-neapolitan-pizza-grand-ave-saint-paul", "name": "Punch Neapolitan Pizza - Grand Ave", "image_url": "https://s3-media3.fl.yelpcdn.com/bphoto/VNFmHmSiN7ykZCXS5IIU5g/o.jpg", "is_closed": false, "url": "https://www.yelp.com/biz/punch-neapolitan-pizza-grand-ave-saint-paul?adjust_creative=a2JdNtFqB-C38ga_06BHvw&utm_campaign=yelp_api_v3&utm_medium=api_v3_business_search&utm_source=a2JdNtFqB-C38ga_06BHvw", "review_count": 197, "categories": [{"alias": "pizza", "title": "Pizza"}, {"alias": "italian", "title": "Italian"}, {"alias": "salad", "title": "Salad"}], "rating": 4.0, "coordinates": {"latitude": 44.9402618408203, "longitude": -93.1325073242188}, "transactions": ["delivery"], "price": "$$", "location": {"address1": "769 Grand Ave", "address2": "", "address3": "", "city": "Saint Paul", "zip_code": "55105", "country": "US", "state": "MN", "display_address": ["769 Grand Ave", "Saint Paul, MN 55105"]}, "phone": "+16516026068", "display_phone": "(651) 602-6068", "distance": 2906.3538931200787}, {"id": "A9YP9LyvMsaSWGDN4rAHBQ", "alias": "coconut-thai-saint-paul-saint-paul-2", "name": "Coconut Thai - Saint Paul", "image_url": "https://s3-media3.fl.yelpcdn.com/bphoto/BQuISEEAFYS1kZIneYWNMw/o.jpg", "is_closed": false, "url": "https://www.yelp.com/biz/coconut-thai-saint-paul-saint-paul-2?adjust_creative=a2JdNtFqB-C38ga_06BHvw&utm_campaign=yelp_api_v3&utm_medium=api_v3_business_search&utm_source=a2JdNtFqB-C38ga_06BHvw", "review_count": 23, "categories": [{"alias": "thai", "title": "Thai"}], "rating": 5.0, "coordinates": {"latitude": 44.939778, "longitude": -93.130348}, "transactions": ["delivery", "pickup"], "location": {"address1": "720 Grand Ave", "address2": null, "address3": "", "city": "Saint Paul", "zip_code": "55105", "country": "US", "state": "MN", "display_address": ["720 Grand Ave", "Saint Paul, MN 55105"]}, "phone": "+16513487250", "display_phone": "(651) 348-7250", "distance": 3091.8270642232706}, {"id": "hD3d1ceal0v4dcaqrE-SOA", "alias": "yellowbird-coffee-bar-st-paul", "name": "Yellowbird Coffee Bar", "image_url": "https://s3-media1.fl.yelpcdn.com/bphoto/uyaqP5VGMf04pOrxHlYq_A/o.jpg", "is_closed": false, "url": "https://www.yelp.com/biz/yellowbird-coffee-bar-st-paul?adjust_creative=a2JdNtFqB-C38ga_06BHvw&utm_campaign=yelp_api_v3&utm_medium=api_v3_business_search&utm_source=a2JdNtFqB-C38ga_06BHvw", "review_count": 32, "categories": [{"alias": "coffee", "title": "Coffee & Tea"}, {"alias": "breakfast_brunch", "title": "Breakfast & Brunch"}, {"alias": "sandwiches", "title": "Sandwiches"}], "rating": 4.5, "coordinates": {"latitude": 44.946524, "longitude": -93.149632}, "transactions": ["delivery"], "location": {"address1": "1168 Selby Ave", "address2": "", "address3": null, "city": "St Paul", "zip_code": "55104", "country": "US", "state": "MN", "display_address": ["1168 Selby Ave", "St Paul, MN 55104"]}, "phone": "+16514937134", "display_phone": "(651) 493-7134", "distance": 1395.075047184206}, {"id": "BEFeJowe6vY9QbSkBELA2g", "alias": "shish-mediterranean-grill-and-café-saint-paul-2", "name": "Shish Mediterranean Grill & Café", "image_url": "https://s3-media3.fl.yelpcdn.com/bphoto/r-8ulTg2hROb7fIIsZza7w/o.jpg", "is_closed": false, "url": "https://www.yelp.com/biz/shish-mediterranean-grill-and-caf%C3%A9-saint-paul-2?adjust_creative=a2JdNtFqB-C38ga_06BHvw&utm_campaign=yelp_api_v3&utm_medium=api_v3_business_search&utm_source=a2JdNtFqB-C38ga_06BHvw", "review_count": 397, "categories": [{"alias": "mideastern", "title": "Middle Eastern"}, {"alias": "breakfast_brunch", "title": "Breakfast & Brunch"}, {"alias": "mediterranean", "title": "Mediterranean"}], "rating": 4.0, "coordinates": {"latitude": 44.939773, "longitude": -93.170654}, "transactions": ["pickup", "delivery"], "price": "$$", "location": {"address1": "1668 Grand Ave", "address2": "", "address3": "", "city": "Saint Paul", "zip_code": "55105", "country": "US", "state": "MN", "display_address": ["1668 Grand Ave", "Saint Paul, MN 55105"]}, "phone": "+16516902212", "display_phone": "(651) 690-2212", "distance": 1501.3885108511784}, {"id": "eYxcoU1LjlSlzYxUNbwxfQ", "alias": "thirty-six-cafe-saint-paul-2", "name": "Thirty-Six Cafe", "image_url": "https://s3-media3.fl.yelpcdn.com/bphoto/-Djc3zvXDmiKHT6_V8P5Zg/o.jpg", "is_closed": false, "url": "https://www.yelp.com/biz/thirty-six-cafe-saint-paul-2?adjust_creative=a2JdNtFqB-C38ga_06BHvw&utm_campaign=yelp_api_v3&utm_medium=api_v3_business_search&utm_source=a2JdNtFqB-C38ga_06BHvw", "review_count": 66, "categories": [{"alias": "cafes", "title": "Cafes"}], "rating": 4.0, "coordinates": {"latitude": 44.940226, "longitude": -93.140165}, "transactions": [], "price": "$$", "location": {"address1": "949 Grand Ave", "address2": "", "address3": null, "city": "Saint Paul", "zip_code": "55105", "country": "US", "state": "MN", "display_address": ["949 Grand Ave", "Saint Paul, MN 55105"]}, "phone": "+16514930163", "display_phone": "(651) 493-0163", "distance": 2403.404953421158}, {"id": "G0EVYeOpY0ePjhCfaZl9kg", "alias": "bap-and-chicken-saint-paul", "name": "Bap And Chicken", "image_url": "https://s3-media3.fl.yelpcdn.com/bphoto/UIWFWvy6zyxIJ40wiyiLpA/o.jpg", "is_closed": false, "url": "https://www.yelp.com/biz/bap-and-chicken-saint-paul?adjust_creative=a2JdNtFqB-C38ga_06BHvw&utm_campaign=yelp_api_v3&utm_medium=api_v3_business_search&utm_source=a2JdNtFqB-C38ga_06BHvw", "review_count": 118, "categories": [{"alias": "korean", "title": "Korean"}, {"alias": "chickenshop", "title": "Chicken Shop"}, {"alias": "wine_bars", "title": "Wine Bars"}], "rating": 4.0, "coordinates": {"latitude": 44.93992, "longitude": -93.15632667}, "transactions": ["delivery", "pickup"], "price": "$$", "location": {"address1": "1328 Grand Ave", "address2": null, "address3": "", "city": "Saint Paul", "zip_code": "55105", "country": "US", "state": "MN", "display_address": ["1328 Grand Ave", "Saint Paul, MN 55105"]}, "phone": "+16513330929", "display_phone": "(651) 333-0929", "distance": 1595.6052430262498}, {"id": "RiDwchhDVVljEsFVu6dU2Q", "alias": "everest-on-grand-saint-paul-2", "name": "Everest on Grand", "image_url": "https://s3-media1.fl.yelpcdn.com/bphoto/AubCnRNKsKPGcsMm4Lhp_Q/o.jpg", "is_closed": false, "url": "https://www.yelp.com/biz/everest-on-grand-saint-paul-2?adjust_creative=a2JdNtFqB-C38ga_06BHvw&utm_campaign=yelp_api_v3&utm_medium=api_v3_business_search&utm_source=a2JdNtFqB-C38ga_06BHvw", "review_count": 317, "categories": [{"alias": "himalayan", "title": "Himalayan/Nepalese"}, {"alias": "indpak", "title": "Indian"}], "rating": 4.0, "coordinates": {"latitude": 44.9399051, "longitude": -93.15403}, "transactions": ["delivery", "pickup"], "price": "$$", "location": {"address1": "1278 Grand Ave", "address2": "", "address3": "", "city": "Saint Paul", "zip_code": "55105", "country": "US", "state": "MN", "display_address": ["1278 Grand Ave", "Saint Paul, MN 55105"]}, "phone": "+16516961666", "display_phone": "(651) 696-1666", "distance": 1674.8393160771507}, {"id": "mmWrP9IOhnJWs-rPKqJ_ww", "alias": "tono-pizzeria-cheesesteaks-saint-paul", "name": "Tono Pizzeria + Cheesesteaks", "image_url": "https://s3-media2.fl.yelpcdn.com/bphoto/cPl5hljLJ0DDKou0NTOC9Q/o.jpg", "is_closed": false, "url": "https://www.yelp.com/biz/tono-pizzeria-cheesesteaks-saint-paul?adjust_creative=a2JdNtFqB-C38ga_06BHvw&utm_campaign=yelp_api_v3&utm_medium=api_v3_business_search&utm_source=a2JdNtFqB-C38ga_06BHvw", "review_count": 38, "categories": [{"alias": "pizza", "title": "Pizza"}, {"alias": "cheesesteaks", "title": "Cheesesteaks"}, {"alias": "sandwiches", "title": "Sandwiches"}], "rating": 4.5, "coordinates": {"latitude": 44.93409, "longitude": -93.167325}, "transactions": ["delivery"], "location": {"address1": "1580 Saint Clair Ave", "address2": null, "address3": "", "city": "Saint Paul", "zip_code": "55105", "country": "US", "state": "MN", "display_address": ["1580 Saint Clair Ave", "Saint Paul, MN 55105"]}, "phone": "+16512431978", "display_phone": "(651) 243-1978", "distance": 2083.19035465725}, {"id": "2ojnUvdmuqWW5EuH3Xew5g", "alias": "hyacinth-saint-paul", "name": "Hyacinth", "image_url": "https://s3-media1.fl.yelpcdn.com/bphoto/F2mW9Xhe23-zn_J9Jm5skg/o.jpg", "is_closed": false, "url": "https://www.yelp.com/biz/hyacinth-saint-paul?adjust_creative=a2JdNtFqB-C38ga_06BHvw&utm_campaign=yelp_api_v3&utm_medium=api_v3_business_search&utm_source=a2JdNtFqB-C38ga_06BHvw", "review_count": 55, "categories": [{"alias": "italian", "title": "Italian"}, {"alias": "mediterranean", "title": "Mediterranean"}], "rating": 4.5, "coordinates": {"latitude": 44.9397895758096, "longitude": -93.1332830939629}, "transactions": ["delivery"], "location": {"address1": "790 Grand Ave", "address2": "", "address3": null, "city": "Saint Paul", "zip_code": "55105", "country": "US", "state": "MN", "display_address": ["790 Grand Ave", "Saint Paul, MN 55105"]}, "phone": "+16514781822", "display_phone": "(651) 478-1822", "distance": 2883.835296974571}, {"id": "n3K6-RstNGN6TEVIspDU0A", "alias": "shamrocks-grill-and-pub-saint-paul-2", "name": "Shamrocks Grill and Pub", "image_url": "https://s3-media2.fl.yelpcdn.com/bphoto/lHkXPUaDc6qWrIKCBw1RAg/o.jpg", "is_closed": false, "url": "https://www.yelp.com/biz/shamrocks-grill-and-pub-saint-paul-2?adjust_creative=a2JdNtFqB-C38ga_06BHvw&utm_campaign=yelp_api_v3&utm_medium=api_v3_business_search&utm_source=a2JdNtFqB-C38ga_06BHvw", "review_count": 267, "categories": [{"alias": "burgers", "title": "Burgers"}, {"alias": "chicken_wings", "title": "Chicken Wings"}, {"alias": "sandwiches", "title": "Sandwiches"}], "rating": 4.0, "coordinates": {"latitude": 44.92728, "longitude": -93.12788}, "transactions": ["delivery"], "price": "$$", "location": {"address1": "995 7th St W", "address2": "", "address3": "", "city": "Saint Paul", "zip_code": "55102", "country": "US", "state": "MN", "display_address": ["995 7th St W", "Saint Paul, MN 55102"]}, "phone": "+16512289925", "display_phone": "(651) 228-9925", "distance": 4076.954338244885}, {"id": "htA1poQR17Q8y5DIXij8UA", "alias": "khyber-pass-cafe-saint-paul-3", "name": "Khyber Pass Cafe", "image_url": "https://s3-media3.fl.yelpcdn.com/bphoto/1xsArk9bQlJVgo8h_9Ukkg/o.jpg", "is_closed": false, "url": "https://www.yelp.com/biz/khyber-pass-cafe-saint-paul-3?adjust_creative=a2JdNtFqB-C38ga_06BHvw&utm_campaign=yelp_api_v3&utm_medium=api_v3_business_search&utm_source=a2JdNtFqB-C38ga_06BHvw", "review_count": 108, "categories": [{"alias": "afghani", "title": "Afghan"}, {"alias": "mideastern", "title": "Middle Eastern"}, {"alias": "indpak", "title": "Indian"}], "rating": 4.0, "coordinates": {"latitude": 44.9402249, "longitude": -93.1667066}, "transactions": ["delivery", "pickup"], "price": "$$", "location": {"address1": "1571 Grand Ave", "address2": "", "address3": "", "city": "Saint Paul", "zip_code": "55105", "country": "US", "state": "MN", "display_address": ["1571 Grand Ave", "Saint Paul, MN 55105"]}, "phone": "+16516900505", "display_phone": "(651) 690-0505", "distance": 1400.1483171276514}, {"id": "xnR-pqpt_7tnQX4VIEd9YA", "alias": "roosters-bbq-deli-saint-paul", "name": "Rooster's BBQ Deli", "image_url": "https://s3-media4.fl.yelpcdn.com/bphoto/GOLtaPOFqHOGKgnIxA6Bmw/o.jpg", "is_closed": false, "url": "https://www.yelp.com/biz/roosters-bbq-deli-saint-paul?adjust_creative=a2JdNtFqB-C38ga_06BHvw&utm_campaign=yelp_api_v3&utm_medium=api_v3_business_search&utm_source=a2JdNtFqB-C38ga_06BHvw", "review_count": 122, "categories": [{"alias": "bbq", "title": "Barbeque"}, {"alias": "delis", "title": "Delis"}], "rating": 4.0, "coordinates": {"latitude": 44.92715, "longitude": -93.14135}, "transactions": ["delivery", "pickup"], "price": "$$", "location": {"address1": "979 Randolph Ave", "address2": "", "address3": "", "city": "Saint Paul", "zip_code": "55102", "country": "US", "state": "MN", "display_address": ["979 Randolph Ave", "Saint Paul, MN 55102"]}, "phone": "+16512220969", "display_phone": "(651) 222-0969", "distance": 3409.2363441491416}, {"id": "e46a6wJzl3ZrO0SnyO2FYA", "alias": "phi-chay-thai-cuisine-saint-paul", "name": "Phi Chay Thai Cuisine", "image_url": "https://s3-media1.fl.yelpcdn.com/bphoto/mM3G1EsCAInJmB0QtcKS_Q/o.jpg", "is_closed": false, "url": "https://www.yelp.com/biz/phi-chay-thai-cuisine-saint-paul?adjust_creative=a2JdNtFqB-C38ga_06BHvw&utm_campaign=yelp_api_v3&utm_medium=api_v3_business_search&utm_source=a2JdNtFqB-C38ga_06BHvw", "review_count": 25, "categories": [{"alias": "thai", "title": "Thai"}], "rating": 4.5, "coordinates": {"latitude": 44.927495, "longitude": -93.127443}, "transactions": ["delivery", "pickup"], "location": {"address1": "967 7th St W", "address2": "", "address3": null, "city": "Saint Paul", "zip_code": "55102", "country": "US", "state": "MN", "display_address": ["967 7th St W", "Saint Paul, MN 55102"]}, "phone": "+16512225859", "display_phone": "(651) 222-5859", "distance": 4076.9769089621113}, {"id": "UhcTQvTuLalmpdg9matXXg", "alias": "turf-club-saint-paul-2", "name": "Turf Club", "image_url": "https://s3-media2.fl.yelpcdn.com/bphoto/_ieXsgt2c0x4QTdDr2Zq8w/o.jpg", "is_closed": false, "url": "https://www.yelp.com/biz/turf-club-saint-paul-2?adjust_creative=a2JdNtFqB-C38ga_06BHvw&utm_campaign=yelp_api_v3&utm_medium=api_v3_business_search&utm_source=a2JdNtFqB-C38ga_06BHvw", "review_count": 93, "categories": [{"alias": "divebars", "title": "Dive Bars"}, {"alias": "musicvenues", "title": "Music Venues"}, {"alias": "newamerican", "title": "American (New)"}], "rating": 4.0, "coordinates": {"latitude": 44.9559939, "longitude": -93.167963}, "transactions": ["delivery"], "price": "$$", "location": {"address1": "1601 University Ave W", "address2": "", "address3": "", "city": "Saint Paul", "zip_code": "55104", "country": "US", "state": "MN", "display_address": ["1601 University Ave W", "Saint Paul, MN 55104"]}, "phone": "+16516470486", "display_phone": "(651) 647-0486", "distance": 426.8879387523775}, {"id": "0WIQUf2VJK4i8FJABv6Peg", "alias": "homi-mexican-saint-paul", "name": "Homi Mexican", "image_url": "https://s3-media3.fl.yelpcdn.com/bphoto/YvywZAdMWOATH2tq9wHWcA/o.jpg", "is_closed": false, "url": "https://www.yelp.com/biz/homi-mexican-saint-paul?adjust_creative=a2JdNtFqB-C38ga_06BHvw&utm_campaign=yelp_api_v3&utm_medium=api_v3_business_search&utm_source=a2JdNtFqB-C38ga_06BHvw", "review_count": 179, "categories": [{"alias": "mexican", "title": "Mexican"}], "rating": 4.0, "coordinates": {"latitude": 44.9554951, "longitude": -93.1368427}, "transactions": ["delivery", "pickup"], "price": "$", "location": {"address1": "864 University Ave W", "address2": "", "address3": "", "city": "Saint Paul", "zip_code": "55104", "country": "US", "state": "MN", "display_address": ["864 University Ave W", "Saint Paul, MN 55104"]}, "phone": "+16512220655", "display_phone": "(651) 222-0655", "distance": 2236.3136524787656}, {"id": "ocHPAIQwsdA3Z6X6r99fcA", "alias": "best-steak-house-saint-paul-2", "name": "Best Steak House", "image_url": "https://s3-media1.fl.yelpcdn.com/bphoto/NEX3cMuXuVMLI3tYyF1nRA/o.jpg", "is_closed": false, "url": "https://www.yelp.com/biz/best-steak-house-saint-paul-2?adjust_creative=a2JdNtFqB-C38ga_06BHvw&utm_campaign=yelp_api_v3&utm_medium=api_v3_business_search&utm_source=a2JdNtFqB-C38ga_06BHvw", "review_count": 63, "categories": [{"alias": "steak", "title": "Steakhouses"}], "rating": 4.0, "coordinates": {"latitude": 44.955394744873, "longitude": -93.1366806030273}, "transactions": ["delivery"], "price": "$$", "location": {"address1": "860 University Ave W", "address2": "", "address3": "", "city": "Saint Paul", "zip_code": "55104", "country": "US", "state": "MN", "display_address": ["860 University Ave W", "Saint Paul, MN 55104"]}, "phone": "+16512280310", "display_phone": "(651) 228-0310", "distance": 2249.889404171283}, {"id": "-THHbkY8iL6HR68xRD65EA", "alias": "checker-board-pizza-saint-paul", "name": "Checker Board Pizza", "image_url": "https://s3-media2.fl.yelpcdn.com/bphoto/R174D2TYP8qCmOTl8Q26tQ/o.jpg", "is_closed": false, "url": "https://www.yelp.com/biz/checker-board-pizza-saint-paul?adjust_creative=a2JdNtFqB-C38ga_06BHvw&utm_campaign=yelp_api_v3&utm_medium=api_v3_business_search&utm_source=a2JdNtFqB-C38ga_06BHvw", "review_count": 51, "categories": [{"alias": "pizza", "title": "Pizza"}], "rating": 4.5, "coordinates": {"latitude": 44.9566917, "longitude": -93.1674271}, "transactions": ["delivery"], "price": "$$", "location": {"address1": "511 Snelling Ave N", "address2": "", "address3": "", "city": "St Paul", "zip_code": "55104", "country": "US", "state": "MN", "display_address": ["511 Snelling Ave N", "St Paul, MN 55104"]}, "phone": "+16516450414", "display_phone": "(651) 645-0414", "distance": 472.7575530916335}, {"id": "Q4xE7XPNv7ZWSO3Okjfpew", "alias": "widmers-super-market-saint-paul", "name": "Widmer's Super Market", "image_url": "https://s3-media1.fl.yelpcdn.com/bphoto/ChOgguTNKuM7xd2QDw5Epg/o.jpg", "is_closed": false, "url": "https://www.yelp.com/biz/widmers-super-market-saint-paul?adjust_creative=a2JdNtFqB-C38ga_06BHvw&utm_campaign=yelp_api_v3&utm_medium=api_v3_business_search&utm_source=a2JdNtFqB-C38ga_06BHvw", "review_count": 24, "categories": [{"alias": "grocery", "title": "Grocery"}, {"alias": "meats", "title": "Meat Shops"}, {"alias": "delis", "title": "Delis"}], "rating": 4.5, "coordinates": {"latitude": 44.934046, "longitude": -93.182057}, "transactions": [], "price": "$$", "location": {"address1": "1936 Saint Clair Ave", "address2": "", "address3": "", "city": "Saint Paul", "zip_code": "55105", "country": "US", "state": "MN", "display_address": ["1936 Saint Clair Ave", "Saint Paul, MN 55105"]}, "phone": "+16516994700", "display_phone": "(651) 699-4700", "distance": 2472.6600482179824}, {"id": "XZVOvW-Su7sjPyg42z4vsw", "alias": "burger-dive-saint-paul-2", "name": "Burger Dive", "image_url": "https://s3-media4.fl.yelpcdn.com/bphoto/UTPhopSE0mYTvGCY8HsrnA/o.jpg", "is_closed": false, "url": "https://www.yelp.com/biz/burger-dive-saint-paul-2?adjust_creative=a2JdNtFqB-C38ga_06BHvw&utm_campaign=yelp_api_v3&utm_medium=api_v3_business_search&utm_source=a2JdNtFqB-C38ga_06BHvw", "review_count": 25, "categories": [{"alias": "burgers", "title": "Burgers"}], "rating": 4.5, "coordinates": {"latitude": 44.927084, "longitude": -93.130843}, "transactions": ["delivery"], "location": {"address1": "731 Randolph Ave", "address2": "", "address3": null, "city": "Saint Paul", "zip_code": "55102", "country": "US", "state": "MN", "display_address": ["731 Randolph Ave", "Saint Paul, MN 55102"]}, "phone": "+16512943240", "display_phone": "(651) 294-3240", "distance": 3921.988883883629}, {"id": "5S6yz3rFfTk9XRQGigzi-Q", "alias": "india-house-saint-paul", "name": "India House", "image_url": "https://s3-media3.fl.yelpcdn.com/bphoto/EPb_EBAw8nRNBbM2b-4Cwg/o.jpg", "is_closed": false, "url": "https://www.yelp.com/biz/india-house-saint-paul?adjust_creative=a2JdNtFqB-C38ga_06BHvw&utm_campaign=yelp_api_v3&utm_medium=api_v3_business_search&utm_source=a2JdNtFqB-C38ga_06BHvw", "review_count": 203, "categories": [{"alias": "indpak", "title": "Indian"}], "rating": 4.0, "coordinates": {"latitude": 44.93963, "longitude": -93.13213}, "transactions": ["delivery", "pickup"], "price": "$$", "location": {"address1": "758 Grand Ave", "address2": "", "address3": "", "city": "Saint Paul", "zip_code": "55105", "country": "US", "state": "MN", "display_address": ["758 Grand Ave", "Saint Paul, MN 55105"]}, "phone": "+16512939124", "display_phone": "(651) 293-9124", "distance": 2974.7115103760557}, {"id": "1fqozcpKg-o3bacMQMnnnw", "alias": "mavericks-pizza-saint-paul", "name": "Mavericks Pizza", "image_url": "https://s3-media1.fl.yelpcdn.com/bphoto/wwpkeDS9cNCxZYaT9oyR8w/o.jpg", "is_closed": false, "url": "https://www.yelp.com/biz/mavericks-pizza-saint-paul?adjust_creative=a2JdNtFqB-C38ga_06BHvw&utm_campaign=yelp_api_v3&utm_medium=api_v3_business_search&utm_source=a2JdNtFqB-C38ga_06BHvw", "review_count": 71, "categories": [{"alias": "pizza", "title": "Pizza"}, {"alias": "salad", "title": "Salad"}, {"alias": "icecream", "title": "Ice Cream & Frozen Yogurt"}], "rating": 4.0, "coordinates": {"latitude": 44.9270548, "longitude": -93.1514215}, "transactions": ["delivery"], "price": "$$", "location": {"address1": "1215 Randolph Ave", "address2": "", "address3": "", "city": "Saint Paul", "zip_code": "55105", "country": "US", "state": "MN", "display_address": ["1215 Randolph Ave", "Saint Paul, MN 55105"]}, "phone": "+16516983439", "display_phone": "(651) 698-3439", "distance": 3053.434788748704}, {"id": "RSFIkZFwizFV9Ja-dtgYOg", "alias": "sasquatch-sandwiches-saint-paul", "name": "Sasquatch Sandwiches", "image_url": "https://s3-media2.fl.yelpcdn.com/bphoto/8E01fZnXKxbyGF7iPsuWZg/o.jpg", "is_closed": false, "url": "https://www.yelp.com/biz/sasquatch-sandwiches-saint-paul?adjust_creative=a2JdNtFqB-C38ga_06BHvw&utm_campaign=yelp_api_v3&utm_medium=api_v3_business_search&utm_source=a2JdNtFqB-C38ga_06BHvw", "review_count": 17, "categories": [{"alias": "foodtrucks", "title": "Food Trucks"}, {"alias": "sandwiches", "title": "Sandwiches"}], "rating": 5.0, "coordinates": {"latitude": 44.954288482666, "longitude": -93.1633605957031}, "transactions": [], "location": {"address1": "", "address2": "", "address3": null, "city": "Saint Paul", "zip_code": "55104", "country": "US", "state": "MN", "display_address": ["Saint Paul, MN 55104"]}, "phone": "+16513356095", "display_phone": "(651) 335-6095", "distance": 206.10888873650939}, {"id": "ml_SPMmSsDtVrRbmYF-P2g", "alias": "bark-and-the-bite-saint-paul", "name": "Bark and the Bite", "image_url": "https://s3-media2.fl.yelpcdn.com/bphoto/cRupE1AScoV6l_NnmQv5gg/o.jpg", "is_closed": false, "url": "https://www.yelp.com/biz/bark-and-the-bite-saint-paul?adjust_creative=a2JdNtFqB-C38ga_06BHvw&utm_campaign=yelp_api_v3&utm_medium=api_v3_business_search&utm_source=a2JdNtFqB-C38ga_06BHvw", "review_count": 99, "categories": [{"alias": "foodtrucks", "title": "Food Trucks"}, {"alias": "bbq", "title": "Barbeque"}, {"alias": "chicken_wings", "title": "Chicken Wings"}], "rating": 4.0, "coordinates": {"latitude": 44.948115, "longitude": -93.192678}, "transactions": ["delivery", "pickup"], "price": "$$", "location": {"address1": "2186 Marshall Ave", "address2": "", "address3": "", "city": "Saint Paul", "zip_code": "55104", "country": "US", "state": "MN", "display_address": ["2186 Marshall Ave", "Saint Paul, MN 55104"]}, "phone": "+16515287928", "display_phone": "(651) 528-7928", "distance": 2238.9729012565704}, {"id": "0-pMhLXkQYypjj8d-iv_Zw", "alias": "due-focacceria-saint-paul", "name": "Due Focacceria", "image_url": "https://s3-media1.fl.yelpcdn.com/bphoto/kNvd8ePAY20UeoLMIADZmA/o.jpg", "is_closed": false, "url": "https://www.yelp.com/biz/due-focacceria-saint-paul?adjust_creative=a2JdNtFqB-C38ga_06BHvw&utm_campaign=yelp_api_v3&utm_medium=api_v3_business_search&utm_source=a2JdNtFqB-C38ga_06BHvw", "review_count": 54, "categories": [{"alias": "cocktailbars", "title": "Cocktail Bars"}, {"alias": "cafes", "title": "Cafes"}, {"alias": "italian", "title": "Italian"}], "rating": 4.0, "coordinates": {"latitude": 44.9273, "longitude": -93.17748}, "transactions": ["delivery"], "price": "$$", "location": {"address1": "475 Fairview Ave S", "address2": null, "address3": "", "city": "Saint Paul", "zip_code": "55105", "country": "US", "state": "MN", "display_address": ["475 Fairview Ave S", "Saint Paul, MN 55105"]}, "phone": "+16514938858", "display_phone": "(651) 493-8858", "distance": 2998.042044213803}, {"id": "OWbRO-kjkmE9JhaQZRo8_w", "alias": "pizza-luce-saint-paul-6", "name": "Pizza Luce", "image_url": "https://s3-media2.fl.yelpcdn.com/bphoto/mqY-ASuiXNL4981XGhgeTQ/o.jpg", "is_closed": false, "url": "https://www.yelp.com/biz/pizza-luce-saint-paul-6?adjust_creative=a2JdNtFqB-C38ga_06BHvw&utm_campaign=yelp_api_v3&utm_medium=api_v3_business_search&utm_source=a2JdNtFqB-C38ga_06BHvw", "review_count": 247, "categories": [{"alias": "pizza", "title": "Pizza"}, {"alias": "italian", "title": "Italian"}], "rating": 4.0, "coordinates": {"latitude": 44.94688, "longitude": -93.15029}, "transactions": ["delivery"], "price": "$$", "location": {"address1": "1183 Selby Ave", "address2": "", "address3": "", "city": "Saint Paul", "zip_code": "55104", "country": "US", "state": "MN", "display_address": ["1183 Selby Ave", "Saint Paul, MN 55104"]}, "phone": "+16512880186", "display_phone": "(651) 288-0186", "distance": 1333.9206665099016}, {"id": "wuk4JKf8Rpb8yq51DC2T8A", "alias": "burning-brothers-brewing-st-paul", "name": "Burning Brothers Brewing", "image_url": "https://s3-media2.fl.yelpcdn.com/bphoto/TINUMYawfAJoXP9KzP7cHw/o.jpg", "is_closed": false, "url": "https://www.yelp.com/biz/burning-brothers-brewing-st-paul?adjust_creative=a2JdNtFqB-C38ga_06BHvw&utm_campaign=yelp_api_v3&utm_medium=api_v3_business_search&utm_source=a2JdNtFqB-C38ga_06BHvw", "review_count": 77, "categories": [{"alias": "breweries", "title": "Breweries"}, {"alias": "gluten_free", "title": "Gluten-Free"}, {"alias": "beerbar", "title": "Beer Bar"}], "rating": 4.0, "coordinates": {"latitude": 44.958813, "longitude": -93.174204}, "transactions": [], "price": "$", "location": {"address1": "1750 W Thomas Ave", "address2": "", "address3": "", "city": "St. Paul", "zip_code": "55104", "country": "US", "state": "MN", "display_address": ["1750 W Thomas Ave", "St. Paul, MN 55104"]}, "phone": "+16514448882", "display_phone": "(651) 444-8882", "distance": 987.3409210402888}, {"id": "7b-Qkf3LBN9i92xUJrsHPQ", "alias": "ishita-ramen-saint-paul-3", "name": "Ishita Ramen", "image_url": "https://s3-media4.fl.yelpcdn.com/bphoto/ZYs8PnZUGRl_eA06Y2_K0g/o.jpg", "is_closed": false, "url": "https://www.yelp.com/biz/ishita-ramen-saint-paul-3?adjust_creative=a2JdNtFqB-C38ga_06BHvw&utm_campaign=yelp_api_v3&utm_medium=api_v3_business_search&utm_source=a2JdNtFqB-C38ga_06BHvw", "review_count": 133, "categories": [{"alias": "ramen", "title": "Ramen"}], "rating": 4.0, "coordinates": {"latitude": 44.9555217, "longitude": -93.1303958}, "transactions": ["pickup", "delivery"], "price": "$$", "location": {"address1": "712 University Ave W", "address2": "Ste 103", "address3": null, "city": "Saint Paul", "zip_code": "55104", "country": "US", "state": "MN", "display_address": ["712 University Ave W", "Ste 103", "Saint Paul, MN 55104"]}, "phone": "+16513486380", "display_phone": "(651) 348-6380", "distance": 2737.8103746796774}, {"id": "U1pWiYAu_vmBJhMnbh7wQw", "alias": "2-scoops-ice-cream-eatery-saint-paul", "name": "2 Scoops Ice Cream Eatery", "image_url": "https://s3-media3.fl.yelpcdn.com/bphoto/0DEdt1kihAUTZw_L64zrlA/o.jpg", "is_closed": false, "url": "https://www.yelp.com/biz/2-scoops-ice-cream-eatery-saint-paul?adjust_creative=a2JdNtFqB-C38ga_06BHvw&utm_campaign=yelp_api_v3&utm_medium=api_v3_business_search&utm_source=a2JdNtFqB-C38ga_06BHvw", "review_count": 14, "categories": [{"alias": "pizza", "title": "Pizza"}, {"alias": "icecream", "title": "Ice Cream & Frozen Yogurt"}], "rating": 5.0, "coordinates": {"latitude": 44.946793, "longitude": -93.139194}, "transactions": ["delivery", "pickup"], "location": {"address1": "921 Selby Ave", "address2": "", "address3": null, "city": "Saint Paul", "zip_code": "55104", "country": "US", "state": "MN", "display_address": ["921 Selby Ave", "Saint Paul, MN 55104"]}, "phone": "+16516450227", "display_phone": "(651) 645-0227", "distance": 2137.078154697516}, {"id": "n8DS5Aif6HQMN85KxYtT-A", "alias": "tavern-on-grand-saint-paul", "name": "Tavern On Grand", "image_url": "https://s3-media2.fl.yelpcdn.com/bphoto/aa1bypg6OYdl2qGVquuRGQ/o.jpg", "is_closed": false, "url": "https://www.yelp.com/biz/tavern-on-grand-saint-paul?adjust_creative=a2JdNtFqB-C38ga_06BHvw&utm_campaign=yelp_api_v3&utm_medium=api_v3_business_search&utm_source=a2JdNtFqB-C38ga_06BHvw", "review_count": 160, "categories": [{"alias": "pubs", "title": "Pubs"}, {"alias": "tradamerican", "title": "American (Traditional)"}], "rating": 4.0, "coordinates": {"latitude": 44.9397807, "longitude": -93.1276223}, "transactions": ["delivery", "pickup"], "price": "$$", "location": {"address1": "656 Grand Ave", "address2": "", "address3": "", "city": "Saint Paul", "zip_code": "55105", "country": "US", "state": "MN", "display_address": ["656 Grand Ave", "Saint Paul, MN 55105"]}, "phone": "+16512289030", "display_phone": "(651) 228-9030", "distance": 3271.4923098427553}, {"id": "bZfmm-iD7qfXcSHbgh79iw", "alias": "colossal-cafe-saint-paul-3", "name": "Colossal Cafe", "image_url": "https://s3-media2.fl.yelpcdn.com/bphoto/zwL_GsXt_0toPtOvqk0uSw/o.jpg", "is_closed": false, "url": "https://www.yelp.com/biz/colossal-cafe-saint-paul-3?adjust_creative=a2JdNtFqB-C38ga_06BHvw&utm_campaign=yelp_api_v3&utm_medium=api_v3_business_search&utm_source=a2JdNtFqB-C38ga_06BHvw", "review_count": 150, "categories": [{"alias": "cafes", "title": "Cafes"}, {"alias": "breakfast_brunch", "title": "Breakfast & Brunch"}], "rating": 4.0, "coordinates": {"latitude": 44.9398039656524, "longitude": -93.1572619522749}, "transactions": ["delivery"], "price": "$$", "location": {"address1": "1340 Grand Ave", "address2": "", "address3": "", "city": "Saint Paul", "zip_code": "55105", "country": "US", "state": "MN", "display_address": ["1340 Grand Ave", "Saint Paul, MN 55105"]}, "phone": "+16514140543", "display_phone": "(651) 414-0543", "distance": 1565.9149543627684}, {"id": "FgHddi-kBNBVGHCGtYSB0g", "alias": "luci-ancora-saint-paul", "name": "Luci Ancora", "image_url": "https://s3-media2.fl.yelpcdn.com/bphoto/id0LDdoAbehRVhyNbnP-Sg/o.jpg", "is_closed": false, "url": "https://www.yelp.com/biz/luci-ancora-saint-paul?adjust_creative=a2JdNtFqB-C38ga_06BHvw&utm_campaign=yelp_api_v3&utm_medium=api_v3_business_search&utm_source=a2JdNtFqB-C38ga_06BHvw", "review_count": 93, "categories": [{"alias": "italian", "title": "Italian"}], "rating": 4.0, "coordinates": {"latitude": 44.9267899, "longitude": -93.18764}, "transactions": ["delivery"], "price": "$$", "location": {"address1": "2060 Randolph Ave", "address2": "", "address3": "", "city": "Saint Paul", "zip_code": "55105", "country": "US", "state": "MN", "display_address": ["2060 Randolph Ave", "Saint Paul, MN 55105"]}, "phone": "+16516986889", "display_phone": "(651) 698-6889", "distance": 3400.7372846963235}, {"id": "3v6KaKImudiDviXzqk80sg", "alias": "sole-café-saint-paul-3", "name": "Sole Café", "image_url": "https://s3-media1.fl.yelpcdn.com/bphoto/nKO0J6kWmGuTqZ03xSeGdg/o.jpg", "is_closed": false, "url": "https://www.yelp.com/biz/sole-caf%C3%A9-saint-paul-3?adjust_creative=a2JdNtFqB-C38ga_06BHvw&utm_campaign=yelp_api_v3&utm_medium=api_v3_business_search&utm_source=a2JdNtFqB-C38ga_06BHvw", "review_count": 106, "categories": [{"alias": "korean", "title": "Korean"}], "rating": 4.0, "coordinates": {"latitude": 44.96168, "longitude": -93.1668151}, "transactions": ["delivery"], "price": "$$", "location": {"address1": "684 Snelling Ave N", "address2": "", "address3": "", "city": "Saint Paul", "zip_code": "55104", "country": "US", "state": "MN", "display_address": ["684 Snelling Ave N", "Saint Paul, MN 55104"]}, "phone": "+16516442068", "display_phone": "(651) 644-2068", "distance": 1006.0095742603629}, {"id": "oQ4e6v-T4LIKFRUL6EUnkA", "alias": "the-lexington-st-paul", "name": "The Lexington", "image_url": "https://s3-media3.fl.yelpcdn.com/bphoto/JsWCtfFgLZ4O2wcJ0NnBHw/o.jpg", "is_closed": false, "url": "https://www.yelp.com/biz/the-lexington-st-paul?adjust_creative=a2JdNtFqB-C38ga_06BHvw&utm_campaign=yelp_api_v3&utm_medium=api_v3_business_search&utm_source=a2JdNtFqB-C38ga_06BHvw", "review_count": 238, "categories": [{"alias": "tradamerican", "title": "American (Traditional)"}, {"alias": "steak", "title": "Steakhouses"}, {"alias": "bars", "title": "Bars"}], "rating": 3.5, "coordinates": {"latitude": 44.93968, "longitude": -93.14626}, "transactions": ["delivery"], "price": "$$$", "location": {"address1": "1096 Grand Ave", "address2": "", "address3": "", "city": "St. Paul", "zip_code": "55105", "country": "US", "state": "MN", "display_address": ["1096 Grand Ave", "St. Paul, MN 55105"]}, "phone": "+16512894990", "display_phone": "(651) 289-4990", "distance": 2057.333160152289}, {"id": "mn6xxasxHMuuiPsA6PFABA", "alias": "nashville-coop-saint-paul", "name": "Nashville Coop", "image_url": "https://s3-media1.fl.yelpcdn.com/bphoto/CEXg4z65WB-wlLLVMMKQig/o.jpg", "is_closed": false, "url": "https://www.yelp.com/biz/nashville-coop-saint-paul?adjust_creative=a2JdNtFqB-C38ga_06BHvw&utm_campaign=yelp_api_v3&utm_medium=api_v3_business_search&utm_source=a2JdNtFqB-C38ga_06BHvw", "review_count": 43, "categories": [{"alias": "chickenshop", "title": "Chicken Shop"}, {"alias": "burgers", "title": "Burgers"}], "rating": 4.0, "coordinates": {"latitude": 44.932585, "longitude": -93.166688}, "transactions": ["delivery"], "location": {"address1": "300 Snelling Ave S", "address2": "", "address3": null, "city": "Saint Paul", "zip_code": "55105", "country": "US", "state": "MN", "display_address": ["300 Snelling Ave S", "Saint Paul, MN 55105"]}, "phone": "+16513306737", "display_phone": "(651) 330-6737", "distance": 2248.3845918994753}, {"id": "JCvFDlpPOGvYI_HQVsgcaw", "alias": "saji-ya-saint-paul", "name": "Saji-Ya", "image_url": "https://s3-media4.fl.yelpcdn.com/bphoto/k8pxfNa-zMFp60ucl063Mw/o.jpg", "is_closed": false, "url": "https://www.yelp.com/biz/saji-ya-saint-paul?adjust_creative=a2JdNtFqB-C38ga_06BHvw&utm_campaign=yelp_api_v3&utm_medium=api_v3_business_search&utm_source=a2JdNtFqB-C38ga_06BHvw", "review_count": 163, "categories": [{"alias": "japanese", "title": "Japanese"}, {"alias": "sushi", "title": "Sushi Bars"}, {"alias": "cocktailbars", "title": "Cocktail Bars"}], "rating": 3.5, "coordinates": {"latitude": 44.94024, "longitude": -93.12933}, "transactions": ["delivery", "pickup"], "price": "$$", "location": {"address1": "695 Grand Ave", "address2": "", "address3": "", "city": "Saint Paul", "zip_code": "55105", "country": "US", "state": "MN", "display_address": ["695 Grand Ave", "Saint Paul, MN 55105"]}, "phone": "+16512920444", "display_phone": "(651) 292-0444", "distance": 3114.9712288528585}, {"id": "dQLZ1yutkYdVT80w9T99nw", "alias": "ngon-vietnamese-bistro-saint-paul-2", "name": "Ngon Vietnamese Bistro", "image_url": "https://s3-media4.fl.yelpcdn.com/bphoto/5dVwkVn5sLwopXvJvNyZsQ/o.jpg", "is_closed": false, "url": "https://www.yelp.com/biz/ngon-vietnamese-bistro-saint-paul-2?adjust_creative=a2JdNtFqB-C38ga_06BHvw&utm_campaign=yelp_api_v3&utm_medium=api_v3_business_search&utm_source=a2JdNtFqB-C38ga_06BHvw", "review_count": 289, "categories": [{"alias": "vietnamese", "title": "Vietnamese"}, {"alias": "cocktailbars", "title": "Cocktail Bars"}], "rating": 3.5, "coordinates": {"latitude": 44.95594098333, "longitude": -93.133800941085}, "transactions": ["delivery"], "price": "$$", "location": {"address1": "799 University Ave", "address2": "", "address3": "", "city": "Saint Paul", "zip_code": "55104", "country": "US", "state": "MN", "display_address": ["799 University Ave", "Saint Paul, MN 55104"]}, "phone": "+16512223301", "display_phone": "(651) 222-3301", "distance": 2480.0940096887052}, {"id": "YzJjO3XKaj3lM4CSCoXCwA", "alias": "pho-pasteur-vn-saint-paul-2", "name": "Pho Pasteur VN", "image_url": "https://s3-media1.fl.yelpcdn.com/bphoto/mKw3MJMvPM7jhxC3-Ii8nw/o.jpg", "is_closed": false, "url": "https://www.yelp.com/biz/pho-pasteur-vn-saint-paul-2?adjust_creative=a2JdNtFqB-C38ga_06BHvw&utm_campaign=yelp_api_v3&utm_medium=api_v3_business_search&utm_source=a2JdNtFqB-C38ga_06BHvw", "review_count": 53, "categories": [{"alias": "vietnamese", "title": "Vietnamese"}], "rating": 4.0, "coordinates": {"latitude": 44.96225, "longitude": -93.16668}, "transactions": ["delivery"], "price": "$$", "location": {"address1": "694 Snelling Ave N", "address2": "", "address3": null, "city": "Saint Paul", "zip_code": "55104", "country": "US", "state": "MN", "display_address": ["694 Snelling Ave N", "Saint Paul, MN 55104"]}, "phone": "+16517568562", "display_phone": "(651) 756-8562", "distance": 1052.0836037971462}, {"id": "jtKUOwel4sZFG8kUgSbhUg", "alias": "carbones-pizza-saint-paul-8", "name": "Carbone's Pizza", "image_url": "https://s3-media1.fl.yelpcdn.com/bphoto/HQefcREfCMG1Qy2goDDKoA/o.jpg", "is_closed": false, "url": "https://www.yelp.com/biz/carbones-pizza-saint-paul-8?adjust_creative=a2JdNtFqB-C38ga_06BHvw&utm_campaign=yelp_api_v3&utm_medium=api_v3_business_search&utm_source=a2JdNtFqB-C38ga_06BHvw", "review_count": 88, "categories": [{"alias": "pizza", "title": "Pizza"}, {"alias": "italian", "title": "Italian"}, {"alias": "coffee", "title": "Coffee & Tea"}], "rating": 4.0, "coordinates": {"latitude": 44.9268099, "longitude": -93.1719499}, "transactions": ["delivery"], "price": "$$", "location": {"address1": "1698 Randolph Ave", "address2": "", "address3": "", "city": "Saint Paul", "zip_code": "55105", "country": "US", "state": "MN", "display_address": ["1698 Randolph Ave", "Saint Paul, MN 55105"]}, "phone": "+16516980721", "display_phone": "(651) 698-0721", "distance": 2938.875760167127}, {"id": "QOnUakl25z7iedEzfQcQvQ", "alias": "hoa-bien-vietnamese-restaurant-saint-paul", "name": "Hoa Bien Vietnamese Restaurant", "image_url": "https://s3-media3.fl.yelpcdn.com/bphoto/2L-_e695PagLcPpXBQA2AQ/o.jpg", "is_closed": false, "url": "https://www.yelp.com/biz/hoa-bien-vietnamese-restaurant-saint-paul?adjust_creative=a2JdNtFqB-C38ga_06BHvw&utm_campaign=yelp_api_v3&utm_medium=api_v3_business_search&utm_source=a2JdNtFqB-C38ga_06BHvw", "review_count": 107, "categories": [{"alias": "vietnamese", "title": "Vietnamese"}], "rating": 4.0, "coordinates": {"latitude": 44.95603, "longitude": -93.14748}, "transactions": ["delivery"], "price": "$", "location": {"address1": "1105 University Ave W", "address2": "", "address3": "", "city": "Saint Paul", "zip_code": "55104", "country": "US", "state": "MN", "display_address": ["1105 University Ave W", "Saint Paul, MN 55104"]}, "phone": "+16516471011", "display_phone": "(651) 647-1011", "distance": 1440.7462862471314}, {"id": "cHsLUHZ5LLNAhn7aesf7Xg", "alias": "firebox-deli-saint-paul", "name": "Firebox Deli", "image_url": "https://s3-media3.fl.yelpcdn.com/bphoto/-8sLk9eveTc7n8zxZc5Sew/o.jpg", "is_closed": false, "url": "https://www.yelp.com/biz/firebox-deli-saint-paul?adjust_creative=a2JdNtFqB-C38ga_06BHvw&utm_campaign=yelp_api_v3&utm_medium=api_v3_business_search&utm_source=a2JdNtFqB-C38ga_06BHvw", "review_count": 35, "categories": [{"alias": "bbq", "title": "Barbeque"}], "rating": 4.0, "coordinates": {"latitude": 44.948766, "longitude": -93.167624}, "transactions": ["delivery", "pickup"], "location": {"address1": "1585 Marshall Ave", "address2": "", "address3": null, "city": "Saint Paul", "zip_code": "55104", "country": "US", "state": "MN", "display_address": ["1585 Marshall Ave", "Saint Paul, MN 55104"]}, "phone": "+16514149986", "display_phone": "(651) 414-9986", "distance": 491.58602359809373}, {"id": "b7KYLACdRsZrNsZoMXpjrg", "alias": "pho-79-saint-paul-2", "name": "Pho 79", "image_url": "https://s3-media4.fl.yelpcdn.com/bphoto/7niEpMPgrmE4qZmVjMNL-g/o.jpg", "is_closed": false, "url": "https://www.yelp.com/biz/pho-79-saint-paul-2?adjust_creative=a2JdNtFqB-C38ga_06BHvw&utm_campaign=yelp_api_v3&utm_medium=api_v3_business_search&utm_source=a2JdNtFqB-C38ga_06BHvw", "review_count": 156, "categories": [{"alias": "vietnamese", "title": "Vietnamese"}], "rating": 3.5, "coordinates": {"latitude": 44.97463, "longitude": -93.19503}, "transactions": ["delivery"], "price": "$", "location": {"address1": "2233 Energy Park Dr", "address2": "", "address3": "", "city": "Saint Paul", "zip_code": "55108", "country": "US", "state": "MN", "display_address": ["2233 Energy Park Dr", "Saint Paul, MN 55108"]}, "phone": "+16516442327", "display_phone": "(651) 644-2327", "distance": 3388.6445906760227}, {"id": "Kh8JKH69jmuX6rPQglclIw", "alias": "pad-thai-restaurant-saint-paul-2", "name": "Pad Thai Restaurant", "image_url": "https://s3-media4.fl.yelpcdn.com/bphoto/Fxqlbx4tShGCZFH_81MQJw/o.jpg", "is_closed": false, "url": "https://www.yelp.com/biz/pad-thai-restaurant-saint-paul-2?adjust_creative=a2JdNtFqB-C38ga_06BHvw&utm_campaign=yelp_api_v3&utm_medium=api_v3_business_search&utm_source=a2JdNtFqB-C38ga_06BHvw", "review_count": 157, "categories": [{"alias": "thai", "title": "Thai"}], "rating": 3.5, "coordinates": {"latitude": 44.9401045, "longitude": -93.1715338}, "transactions": ["delivery"], "price": "$$", "location": {"address1": "1681 Grand Ave", "address2": "", "address3": "", "city": "Saint Paul", "zip_code": "55105", "country": "US", "state": "MN", "display_address": ["1681 Grand Ave", "Saint Paul, MN 55105"]}, "phone": "+16516901393", "display_phone": "(651) 690-1393", "distance": 1500.1113634465942}, {"id": "U-q-ZbfscQvrJwUizg57bQ", "alias": "augustines-bar-and-bakery-saint-paul", "name": "Augustine's Bar & Bakery", "image_url": "https://s3-media4.fl.yelpcdn.com/bphoto/WXmQWzmtSkj8U-L0eFjzUg/o.jpg", "is_closed": false, "url": "https://www.yelp.com/biz/augustines-bar-and-bakery-saint-paul?adjust_creative=a2JdNtFqB-C38ga_06BHvw&utm_campaign=yelp_api_v3&utm_medium=api_v3_business_search&utm_source=a2JdNtFqB-C38ga_06BHvw", "review_count": 96, "categories": [{"alias": "bars", "title": "Bars"}, {"alias": "bakeries", "title": "Bakeries"}, {"alias": "cafes", "title": "Cafes"}], "rating": 4.0, "coordinates": {"latitude": 44.9463005065918, "longitude": -93.1712188720703}, "transactions": ["delivery", "pickup"], "price": "$$", "location": {"address1": "1668 Selby Ave", "address2": "", "address3": null, "city": "Saint Paul", "zip_code": "55104", "country": "US", "state": "MN", "display_address": ["1668 Selby Ave", "Saint Paul, MN 55104"]}, "phone": "+16514473729", "display_phone": "(651) 447-3729", "distance": 858.9492709139996}, {"id": "8JFyVi86IHuG2JIT2t_gMQ", "alias": "coffee-cup-on-randolph-saint-paul-2", "name": "Coffee Cup on Randolph", "image_url": "https://s3-media2.fl.yelpcdn.com/bphoto/hvKAuY6Ko1TJXqGWzbBA6g/o.jpg", "is_closed": false, "url": "https://www.yelp.com/biz/coffee-cup-on-randolph-saint-paul-2?adjust_creative=a2JdNtFqB-C38ga_06BHvw&utm_campaign=yelp_api_v3&utm_medium=api_v3_business_search&utm_source=a2JdNtFqB-C38ga_06BHvw", "review_count": 26, "categories": [{"alias": "coffee", "title": "Coffee & Tea"}, {"alias": "tradamerican", "title": "American (Traditional)"}, {"alias": "waffles", "title": "Waffles"}], "rating": 4.5, "coordinates": {"latitude": 44.92722, "longitude": -93.15648}, "transactions": [], "location": {"address1": "1333 Randolph Ave", "address2": null, "address3": null, "city": "Saint Paul", "zip_code": "55105", "country": "US", "state": "MN", "display_address": ["1333 Randolph Ave", "Saint Paul, MN 55105"]}, "phone": "+16513300920", "display_phone": "(651) 330-0920", "distance": 2935.699733617053}, {"id": "C4BpEUEUEYG8y-14tajfzw", "alias": "foxy-falafel-saint-paul", "name": "Foxy Falafel", "image_url": "https://s3-media2.fl.yelpcdn.com/bphoto/L1IHV0w4hUXaB2xs5v8TfA/o.jpg", "is_closed": false, "url": "https://www.yelp.com/biz/foxy-falafel-saint-paul?adjust_creative=a2JdNtFqB-C38ga_06BHvw&utm_campaign=yelp_api_v3&utm_medium=api_v3_business_search&utm_source=a2JdNtFqB-C38ga_06BHvw", "review_count": 135, "categories": [{"alias": "mideastern", "title": "Middle Eastern"}, {"alias": "vegan", "title": "Vegan"}, {"alias": "gluten_free", "title": "Gluten-Free"}], "rating": 3.5, "coordinates": {"latitude": 44.965217590332, "longitude": -93.1978149414062}, "transactions": ["delivery"], "price": "$$", "location": {"address1": "791 Raymond Ave", "address2": null, "address3": "", "city": "Saint Paul", "zip_code": "55114", "country": "US", "state": "MN", "display_address": ["791 Raymond Ave", "Saint Paul, MN 55114"]}, "phone": "+16518882255", "display_phone": "(651) 888-2255", "distance": 2926.1630717078865}, {"id": "npi7hRhGcvhY8VBxkvDyTg", "alias": "indochin-vietnamese-restaurant-saint-paul", "name": "Indochin Vietnamese Restaurant", "image_url": "https://s3-media2.fl.yelpcdn.com/bphoto/OoQR5pjWVqm4j2XH3dBWSw/o.jpg", "is_closed": false, "url": "https://www.yelp.com/biz/indochin-vietnamese-restaurant-saint-paul?adjust_creative=a2JdNtFqB-C38ga_06BHvw&utm_campaign=yelp_api_v3&utm_medium=api_v3_business_search&utm_source=a2JdNtFqB-C38ga_06BHvw", "review_count": 97, "categories": [{"alias": "vietnamese", "title": "Vietnamese"}], "rating": 4.0, "coordinates": {"latitude": 44.9399869232351, "longitude": -93.1724082837998}, "transactions": ["delivery", "pickup"], "price": "$", "location": {"address1": "1702 Grand Ave", "address2": "", "address3": "", "city": "Saint Paul", "zip_code": "55105", "country": "US", "state": "MN", "display_address": ["1702 Grand Ave", "Saint Paul, MN 55105"]}, "phone": "+16516902728", "display_phone": "(651) 690-2728", "distance": 1537.1624390518878}, {"id": "lmGb2Rs2N3q6qjW0CdydnA", "alias": "salut-bar-americain-saint-paul", "name": "Salut Bar Americain", "image_url": "https://s3-media2.fl.yelpcdn.com/bphoto/Ro8JPclrTSMqUKrgl2s6xg/o.jpg", "is_closed": false, "url": "https://www.yelp.com/biz/salut-bar-americain-saint-paul?adjust_creative=a2JdNtFqB-C38ga_06BHvw&utm_campaign=yelp_api_v3&utm_medium=api_v3_business_search&utm_source=a2JdNtFqB-C38ga_06BHvw", "review_count": 293, "categories": [{"alias": "french", "title": "French"}], "rating": 3.5, "coordinates": {"latitude": 44.9403838092147, "longitude": -93.1382314224577}, "transactions": ["pickup", "delivery"], "price": "$$", "location": {"address1": "917 Grand Ave", "address2": "", "address3": "", "city": "Saint Paul", "zip_code": "55145", "country": "US", "state": "MN", "display_address": ["917 Grand Ave", "Saint Paul, MN 55145"]}, "phone": "+16519172345", "display_phone": "(651) 917-2345", "distance": 2517.4326700388083}, {"id": "t51HT6xj_8Sjoxg5e75kXQ", "alias": "mirror-of-korea-saint-paul", "name": "Mirror of Korea", "image_url": "https://s3-media4.fl.yelpcdn.com/bphoto/7nOl_NIWj5RkGvoSXYa0SA/o.jpg", "is_closed": false, "url": "https://www.yelp.com/biz/mirror-of-korea-saint-paul?adjust_creative=a2JdNtFqB-C38ga_06BHvw&utm_campaign=yelp_api_v3&utm_medium=api_v3_business_search&utm_source=a2JdNtFqB-C38ga_06BHvw", "review_count": 164, "categories": [{"alias": "korean", "title": "Korean"}], "rating": 3.5, "coordinates": {"latitude": 44.963901, "longitude": -93.1672649}, "transactions": ["pickup", "delivery"], "price": "$$", "location": {"address1": "761 Snelling Ave N", "address2": "", "address3": "", "city": "Saint Paul", "zip_code": "55104", "country": "US", "state": "MN", "display_address": ["761 Snelling Ave N", "Saint Paul, MN 55104"]}, "phone": "+16516479004", "display_phone": "(651) 647-9004", "distance": 1256.5284536232325}, {"id": "8o4ciFMAKFRslgwhi7kGbA", "alias": "carmelos-saint-paul-2", "name": "Carmelo's", "image_url": "https://s3-media3.fl.yelpcdn.com/bphoto/ZwCke3I2FF3e0Hkpct04IQ/o.jpg", "is_closed": false, "url": "https://www.yelp.com/biz/carmelos-saint-paul-2?adjust_creative=a2JdNtFqB-C38ga_06BHvw&utm_campaign=yelp_api_v3&utm_medium=api_v3_business_search&utm_source=a2JdNtFqB-C38ga_06BHvw", "review_count": 85, "categories": [{"alias": "italian", "title": "Italian"}], "rating": 3.5, "coordinates": {"latitude": 44.934441, "longitude": -93.1668251}, "transactions": ["pickup", "delivery"], "price": "$$", "location": {"address1": "238 Snelling Ave S", "address2": "", "address3": "", "city": "Saint Paul", "zip_code": "55105", "country": "US", "state": "MN", "display_address": ["238 Snelling Ave S", "Saint Paul, MN 55105"]}, "phone": "+16516992448", "display_phone": "(651) 699-2448", "distance": 2041.566820426999}, {"id": "8ShR3b1FTcG1wF11lBcuDA", "alias": "keys-café-and-bakery-saint-paul-6", "name": "Keys Café & Bakery", "image_url": "https://s3-media3.fl.yelpcdn.com/bphoto/XG6IEEdRuxuN8TIfJKXHcA/o.jpg", "is_closed": false, "url": "https://www.yelp.com/biz/keys-caf%C3%A9-and-bakery-saint-paul-6?adjust_creative=a2JdNtFqB-C38ga_06BHvw&utm_campaign=yelp_api_v3&utm_medium=api_v3_business_search&utm_source=a2JdNtFqB-C38ga_06BHvw", "review_count": 147, "categories": [{"alias": "bakeries", "title": "Bakeries"}, {"alias": "diners", "title": "Diners"}], "rating": 3.5, "coordinates": {"latitude": 44.9645312, "longitude": -93.1976649}, "transactions": ["delivery"], "price": "$$", "location": {"address1": "767 Raymond Ave", "address2": "", "address3": "", "city": "Saint Paul", "zip_code": "55114", "country": "US", "state": "MN", "display_address": ["767 Raymond Ave", "Saint Paul, MN 55114"]}, "phone": "+16516465756", "display_phone": "(651) 646-5756", "distance": 2889.518806692218}, {"id": "7EtHQudN16QJnqdSRJ3I3g", "alias": "can-can-wonderland-saint-paul-2", "name": "Can Can Wonderland", "image_url": "https://s3-media2.fl.yelpcdn.com/bphoto/0GzkPVxIXPg8sbEI5yeSfg/o.jpg", "is_closed": false, "url": "https://www.yelp.com/biz/can-can-wonderland-saint-paul-2?adjust_creative=a2JdNtFqB-C38ga_06BHvw&utm_campaign=yelp_api_v3&utm_medium=api_v3_business_search&utm_source=a2JdNtFqB-C38ga_06BHvw", "review_count": 234, "categories": [{"alias": "mini_golf", "title": "Mini Golf"}, {"alias": "bars", "title": "Bars"}, {"alias": "tradamerican", "title": "American (Traditional)"}], "rating": 3.5, "coordinates": {"latitude": 44.964103, "longitude": -93.183134}, "transactions": ["pickup", "delivery"], "price": "$$", "location": {"address1": "755 Prior Ave N", "address2": "", "address3": "", "city": "Saint Paul", "zip_code": "55104", "country": "US", "state": "MN", "display_address": ["755 Prior Ave N", "Saint Paul, MN 55104"]}, "phone": "+16519252261", "display_phone": "(651) 925-2261", "distance": 1903.0727481554184}, {"id": "Ce2TSIO-rYhUbH6o4dVFBg", "alias": "tillies-farmhouse-saint-paul", "name": "Tillie's Farmhouse", "image_url": "https://s3-media2.fl.yelpcdn.com/bphoto/V1lfqLppxXwWOM95Fr6D4g/o.jpg", "is_closed": false, "url": "https://www.yelp.com/biz/tillies-farmhouse-saint-paul?adjust_creative=a2JdNtFqB-C38ga_06BHvw&utm_campaign=yelp_api_v3&utm_medium=api_v3_business_search&utm_source=a2JdNtFqB-C38ga_06BHvw", "review_count": 96, "categories": [{"alias": "bakeries", "title": "Bakeries"}, {"alias": "breakfast_brunch", "title": "Breakfast & Brunch"}, {"alias": "cafes", "title": "Cafes"}], "rating": 3.5, "coordinates": {"latitude": 44.94821, "longitude": -93.1872051}, "transactions": ["delivery"], "price": "$$", "location": {"address1": "232 Cleveland Ave N", "address2": "", "address3": "", "city": "Saint Paul", "zip_code": "55104", "country": "US", "state": "MN", "display_address": ["232 Cleveland Ave N", "Saint Paul, MN 55104"]}, "phone": "+16516458950", "display_phone": "(651) 645-8950", "distance": 1820.3200773007827}, {"id": "EX-n_Yv02PAcAyNx3d8Z7A", "alias": "davannis-pizza-and-hot-hoagies-saint-paul-9", "name": "Davanni's Pizza & Hot Hoagies", "image_url": "https://s3-media1.fl.yelpcdn.com/bphoto/xkfkXd5eBpO6amaNp9NqvQ/o.jpg", "is_closed": false, "url": "https://www.yelp.com/biz/davannis-pizza-and-hot-hoagies-saint-paul-9?adjust_creative=a2JdNtFqB-C38ga_06BHvw&utm_campaign=yelp_api_v3&utm_medium=api_v3_business_search&utm_source=a2JdNtFqB-C38ga_06BHvw", "review_count": 64, "categories": [{"alias": "pizza", "title": "Pizza"}, {"alias": "italian", "title": "Italian"}], "rating": 4.0, "coordinates": {"latitude": 44.9399634450674, "longitude": -93.1874366104603}, "transactions": ["pickup", "delivery"], "price": "$", "location": {"address1": "41 Cleveland Ave S", "address2": "", "address3": "", "city": "Saint Paul", "zip_code": "55105", "country": "US", "state": "MN", "display_address": ["41 Cleveland Ave S", "Saint Paul, MN 55105"]}, "phone": "+16516904848", "display_phone": "(651) 690-4848", "distance": 2272.1940643463186}, {"id": "6DQYPEgzdrZtr4frU-qZRw", "alias": "foxy-falafel-truck-saint-paul-2", "name": "Foxy Falafel Truck", "image_url": "https://s3-media1.fl.yelpcdn.com/bphoto/Bp8kDouMpIRkwjQ7e6JwXw/o.jpg", "is_closed": false, "url": "https://www.yelp.com/biz/foxy-falafel-truck-saint-paul-2?adjust_creative=a2JdNtFqB-C38ga_06BHvw&utm_campaign=yelp_api_v3&utm_medium=api_v3_business_search&utm_source=a2JdNtFqB-C38ga_06BHvw", "review_count": 25, "categories": [{"alias": "mediterranean", "title": "Mediterranean"}, {"alias": "foodtrucks", "title": "Food Trucks"}], "rating": 4.0, "coordinates": {"latitude": 44.96528, "longitude": -93.19577}, "transactions": [], "price": "$", "location": {"address1": "", "address2": "", "address3": "", "city": "Saint Paul", "zip_code": "55114", "country": "US", "state": "MN", "display_address": ["Saint Paul, MN 55114"]}, "phone": "+16518882255", "display_phone": "(651) 888-2255", "distance": 2965.115747935546}, {"id": "BstCsABN_hA9wu5hmtON1g", "alias": "kims-kitchen-saint-paul", "name": "Kim's Kitchen", "image_url": "https://s3-media1.fl.yelpcdn.com/bphoto/wvdsHUjRoK73JUpK_GqYEw/o.jpg", "is_closed": false, "url": "https://www.yelp.com/biz/kims-kitchen-saint-paul?adjust_creative=a2JdNtFqB-C38ga_06BHvw&utm_campaign=yelp_api_v3&utm_medium=api_v3_business_search&utm_source=a2JdNtFqB-C38ga_06BHvw", "review_count": 50, "categories": [{"alias": "chinese", "title": "Chinese"}, {"alias": "noodles", "title": "Noodles"}], "rating": 4.0, "coordinates": {"latitude": 44.92668, "longitude": -93.15137}, "transactions": ["delivery"], "price": "$", "location": {"address1": "1214 Randolph Ave", "address2": "", "address3": "", "city": "Saint Paul", "zip_code": "55105", "country": "US", "state": "MN", "display_address": ["1214 Randolph Ave", "Saint Paul, MN 55105"]}, "phone": "+16516988880", "display_phone": "(651) 698-8880", "distance": 3082.1910606091283}, {"id": "cC3mAvy2CObrw8uQm14Pkg", "alias": "mahar-thai-taste-saint-paul-2", "name": "Mahar Thai Taste", "image_url": "https://s3-media1.fl.yelpcdn.com/bphoto/f6XrjTVtmJI3zZ4BzpxhlA/o.jpg", "is_closed": false, "url": "https://www.yelp.com/biz/mahar-thai-taste-saint-paul-2?adjust_creative=a2JdNtFqB-C38ga_06BHvw&utm_campaign=yelp_api_v3&utm_medium=api_v3_business_search&utm_source=a2JdNtFqB-C38ga_06BHvw", "review_count": 20, "categories": [{"alias": "thai", "title": "Thai"}, {"alias": "chinese", "title": "Chinese"}], "rating": 4.5, "coordinates": {"latitude": 44.977172, "longitude": -93.165902}, "transactions": [], "location": {"address1": "1552 Como Ave", "address2": null, "address3": null, "city": "Saint Paul", "zip_code": "55108", "country": "US", "state": "MN", "display_address": ["1552 Como Ave", "Saint Paul, MN 55108"]}, "phone": "+16518469113", "display_phone": "(651) 846-9113", "distance": 2713.414166565591}, {"id": "49EvJnf1kEJtbk1bFA0Rug", "alias": "half-time-rec-saint-paul-2", "name": "Half Time Rec", "image_url": "https://s3-media3.fl.yelpcdn.com/bphoto/s6lMOG9rTfPEUlGKq7Wt0g/o.jpg", "is_closed": false, "url": "https://www.yelp.com/biz/half-time-rec-saint-paul-2?adjust_creative=a2JdNtFqB-C38ga_06BHvw&utm_campaign=yelp_api_v3&utm_medium=api_v3_business_search&utm_source=a2JdNtFqB-C38ga_06BHvw", "review_count": 71, "categories": [{"alias": "divebars", "title": "Dive Bars"}, {"alias": "irish", "title": "Irish"}], "rating": 3.5, "coordinates": {"latitude": 44.9703449, "longitude": -93.143076}, "transactions": ["delivery"], "price": "$$", "location": {"address1": "1013 Front Ave", "address2": "", "address3": "", "city": "Saint Paul", "zip_code": "55103", "country": "US", "state": "MN", "display_address": ["1013 Front Ave", "Saint Paul, MN 55103"]}, "phone": "+16514888245", "display_phone": "(651) 488-8245", "distance": 2622.6675570536872}, {"id": "Hubh89U15OVeA9stQMUOOA", "alias": "french-meadow-bakery-and-cafe-st-paul", "name": "French Meadow Bakery & Cafe", "image_url": "https://s3-media4.fl.yelpcdn.com/bphoto/LG_YMy5qLUjB76QCvarldg/o.jpg", "is_closed": false, "url": "https://www.yelp.com/biz/french-meadow-bakery-and-cafe-st-paul?adjust_creative=a2JdNtFqB-C38ga_06BHvw&utm_campaign=yelp_api_v3&utm_medium=api_v3_business_search&utm_source=a2JdNtFqB-C38ga_06BHvw", "review_count": 239, "categories": [{"alias": "cafes", "title": "Cafes"}, {"alias": "bakeries", "title": "Bakeries"}, {"alias": "newamerican", "title": "American (New)"}], "rating": 3.0, "coordinates": {"latitude": 44.939969, "longitude": -93.170544}, "transactions": ["pickup", "delivery"], "price": "$$", "location": {"address1": "1662 Grand Ave S", "address2": "", "address3": "", "city": "St. Paul", "zip_code": "55105", "country": "US", "state": "MN", "display_address": ["1662 Grand Ave S", "St. Paul, MN 55105"]}, "phone": "+16517898870", "display_phone": "(651) 789-8870", "distance": 1489.6253495868414}, {"id": "o4MeFIac0SOcMdqi-A4O3Q", "alias": "tommie-s-pizza-saint-paul", "name": "Tommie’s Pizza", "image_url": "https://s3-media1.fl.yelpcdn.com/bphoto/O1Yc-Hy13WrEX_6iRmafFA/o.jpg", "is_closed": false, "url": "https://www.yelp.com/biz/tommie-s-pizza-saint-paul?adjust_creative=a2JdNtFqB-C38ga_06BHvw&utm_campaign=yelp_api_v3&utm_medium=api_v3_business_search&utm_source=a2JdNtFqB-C38ga_06BHvw", "review_count": 18, "categories": [{"alias": "pizza", "title": "Pizza"}], "rating": 4.0, "coordinates": {"latitude": 44.9465184895822, "longitude": -93.1658644577144}, "transactions": ["pickup", "delivery"], "location": {"address1": "1556 Selby Ave", "address2": "", "address3": null, "city": "Saint Paul", "zip_code": "55104", "country": "US", "state": "MN", "display_address": ["1556 Selby Ave", "Saint Paul, MN 55104"]}, "phone": "+16514324743", "display_phone": "(651) 432-4743", "distance": 710.1474990474179}, {"id": "9LYqe0rMV81dtA41HUyL9Q", "alias": "dixies-on-grand-saint-paul-2", "name": "Dixies On Grand", "image_url": "https://s3-media3.fl.yelpcdn.com/bphoto/CnGbzZu_ucK7fgU22Bw-Ew/o.jpg", "is_closed": false, "url": "https://www.yelp.com/biz/dixies-on-grand-saint-paul-2?adjust_creative=a2JdNtFqB-C38ga_06BHvw&utm_campaign=yelp_api_v3&utm_medium=api_v3_business_search&utm_source=a2JdNtFqB-C38ga_06BHvw", "review_count": 201, "categories": [{"alias": "southern", "title": "Southern"}, {"alias": "bars", "title": "Bars"}, {"alias": "cajun", "title": "Cajun/Creole"}], "rating": 3.0, "coordinates": {"latitude": 44.940246, "longitude": -93.129336}, "transactions": ["pickup", "delivery"], "price": "$$", "location": {"address1": "695 Grand Ave", "address2": "", "address3": "", "city": "Saint Paul", "zip_code": "55105", "country": "US", "state": "MN", "display_address": ["695 Grand Ave", "Saint Paul, MN 55105"]}, "phone": "+16512227345", "display_phone": "(651) 222-7345", "distance": 3114.9712288528585}, {"id": "mkkrCmmtQgvleYkjVVR3xQ", "alias": "union-hmong-kitchen-st-paul", "name": "Union Hmong Kitchen", "image_url": "https://s3-media4.fl.yelpcdn.com/bphoto/K3HicJDMJxkOBW39QNq1WQ/o.jpg", "is_closed": false, "url": "https://www.yelp.com/biz/union-hmong-kitchen-st-paul?adjust_creative=a2JdNtFqB-C38ga_06BHvw&utm_campaign=yelp_api_v3&utm_medium=api_v3_business_search&utm_source=a2JdNtFqB-C38ga_06BHvw", "review_count": 19, "categories": [{"alias": "thai", "title": "Thai"}, {"alias": "laotian", "title": "Laotian"}, {"alias": "vietnamese", "title": "Vietnamese"}], "rating": 4.0, "coordinates": {"latitude": 44.962011604272554, "longitude": -93.1981282}, "transactions": ["delivery"], "location": {"address1": "693 Raymond Ave", "address2": "", "address3": null, "city": "St. Paul", "zip_code": "55114", "country": "US", "state": "MN", "display_address": ["693 Raymond Ave", "St. Paul, MN 55114"]}, "phone": "+16124315285", "display_phone": "(612) 431-5285", "distance": 2801.6111339968984}, {"id": "gsjWoJG6DUQV7pUONFd-lw", "alias": "my-burger-saint-paul", "name": "My Burger", "image_url": "https://s3-media3.fl.yelpcdn.com/bphoto/KgE0Q_JL-ZCoe4l0k8Y1tw/o.jpg", "is_closed": false, "url": "https://www.yelp.com/biz/my-burger-saint-paul?adjust_creative=a2JdNtFqB-C38ga_06BHvw&utm_campaign=yelp_api_v3&utm_medium=api_v3_business_search&utm_source=a2JdNtFqB-C38ga_06BHvw", "review_count": 40, "categories": [{"alias": "burgers", "title": "Burgers"}, {"alias": "breakfast_brunch", "title": "Breakfast & Brunch"}], "rating": 3.5, "coordinates": {"latitude": 44.93980571, "longitude": -93.16659493}, "transactions": ["delivery"], "price": "$", "location": {"address1": "1580 Grand Ave", "address2": "", "address3": null, "city": "Saint Paul", "zip_code": "55105", "country": "US", "state": "MN", "display_address": ["1580 Grand Ave", "Saint Paul, MN 55105"]}, "phone": "+16513307816", "display_phone": "(651) 330-7816", "distance": 1447.9023420291667}, {"id": "EauEuSN5CbtP4pj8Vjeudw", "alias": "rusty-taco-st-paul-2", "name": "Rusty Taco", "image_url": "https://s3-media4.fl.yelpcdn.com/bphoto/qL7D8a7CiMlliaSIGVwVxg/o.jpg", "is_closed": false, "url": "https://www.yelp.com/biz/rusty-taco-st-paul-2?adjust_creative=a2JdNtFqB-C38ga_06BHvw&utm_campaign=yelp_api_v3&utm_medium=api_v3_business_search&utm_source=a2JdNtFqB-C38ga_06BHvw", "review_count": 165, "categories": [{"alias": "tex-mex", "title": "Tex-Mex"}, {"alias": "tacos", "title": "Tacos"}], "rating": 3.0, "coordinates": {"latitude": 44.926359, "longitude": -93.146557}, "transactions": ["pickup", "delivery"], "price": "$", "location": {"address1": "508 Lexington Pkwy S", "address2": "", "address3": "", "city": "St. Paul", "zip_code": "55105", "country": "US", "state": "MN", "display_address": ["508 Lexington Pkwy S", "St. Paul, MN 55105"]}, "phone": "+16516982777", "display_phone": "(651) 698-2777", "distance": 3276.7477219011466}, {"id": "ZSbQXnGYAcxTTNY76C9N0w", "alias": "hickory-hut-saint-paul-2", "name": "Hickory Hut", "image_url": "https://s3-media2.fl.yelpcdn.com/bphoto/8jGrmwSx7mwR9pdjLJdvSQ/o.jpg", "is_closed": false, "url": "https://www.yelp.com/biz/hickory-hut-saint-paul-2?adjust_creative=a2JdNtFqB-C38ga_06BHvw&utm_campaign=yelp_api_v3&utm_medium=api_v3_business_search&utm_source=a2JdNtFqB-C38ga_06BHvw", "review_count": 67, "categories": [{"alias": "bbq", "title": "Barbeque"}, {"alias": "chicken_wings", "title": "Chicken Wings"}], "rating": 3.5, "coordinates": {"latitude": 44.95605, "longitude": -93.12748}, "transactions": ["pickup", "delivery"], "price": "$$", "location": {"address1": "647 University Ave W", "address2": "", "address3": "", "city": "Saint Paul", "zip_code": "55104", "country": "US", "state": "MN", "display_address": ["647 University Ave W", "Saint Paul, MN 55104"]}, "phone": "+16512249464", "display_phone": "(651) 224-9464", "distance": 2973.2724049364797}, {"id": "IYM4zv8t_-qXanMl-WVuQg", "alias": "taihoa-bbq-saint-paul-2", "name": "Taihoa BBQ", "image_url": "https://s3-media3.fl.yelpcdn.com/bphoto/ZkwNVXQQ2cqO_ijR2nYUYg/o.jpg", "is_closed": false, "url": "https://www.yelp.com/biz/taihoa-bbq-saint-paul-2?adjust_creative=a2JdNtFqB-C38ga_06BHvw&utm_campaign=yelp_api_v3&utm_medium=api_v3_business_search&utm_source=a2JdNtFqB-C38ga_06BHvw", "review_count": 20, "categories": [{"alias": "bbq", "title": "Barbeque"}, {"alias": "vietnamese", "title": "Vietnamese"}], "rating": 4.0, "coordinates": {"latitude": 44.955394, "longitude": -93.136142}, "transactions": ["delivery"], "price": "$$", "location": {"address1": "854 University Ave W", "address2": "", "address3": "", "city": "Saint Paul", "zip_code": "55104", "country": "US", "state": "MN", "display_address": ["854 University Ave W", "Saint Paul, MN 55104"]}, "phone": "+16512988480", "display_phone": "(651) 298-8480", "distance": 2291.6398065102226}, {"id": "OV_QdFZq7jYM41py7c4v8w", "alias": "j-and-j-fish-and-chicken-saint-paul", "name": "J & J Fish & Chicken", "image_url": "https://s3-media3.fl.yelpcdn.com/bphoto/eOA5oy0uBqkj1PdKUQbbvw/o.jpg", "is_closed": false, "url": "https://www.yelp.com/biz/j-and-j-fish-and-chicken-saint-paul?adjust_creative=a2JdNtFqB-C38ga_06BHvw&utm_campaign=yelp_api_v3&utm_medium=api_v3_business_search&utm_source=a2JdNtFqB-C38ga_06BHvw", "review_count": 44, "categories": [{"alias": "chicken_wings", "title": "Chicken Wings"}, {"alias": "fishnchips", "title": "Fish & Chips"}], "rating": 3.5, "coordinates": {"latitude": 44.95599, "longitude": -93.17005}, "transactions": ["pickup", "delivery"], "price": "$$", "location": {"address1": "1647 University Ave W", "address2": null, "address3": null, "city": "Saint Paul", "zip_code": "55104", "country": "US", "state": "MN", "display_address": ["1647 University Ave W", "Saint Paul, MN 55104"]}, "phone": "+16512513497", "display_phone": "(651) 251-3497", "distance": 527.8892608108742}, {"id": "BstVCxkPTI4Ucqz_s9dSOg", "alias": "the-italian-pie-shoppe-st-paul-st-paul", "name": "The Italian Pie Shoppe - St. Paul", "image_url": "https://s3-media1.fl.yelpcdn.com/bphoto/rQoguaXWDdNjZctd_Z3xUg/o.jpg", "is_closed": false, "url": "https://www.yelp.com/biz/the-italian-pie-shoppe-st-paul-st-paul?adjust_creative=a2JdNtFqB-C38ga_06BHvw&utm_campaign=yelp_api_v3&utm_medium=api_v3_business_search&utm_source=a2JdNtFqB-C38ga_06BHvw", "review_count": 116, "categories": [{"alias": "italian", "title": "Italian"}, {"alias": "pizza", "title": "Pizza"}, {"alias": "sandwiches", "title": "Sandwiches"}], "rating": 3.0, "coordinates": {"latitude": 44.9400452524424, "longitude": -93.1709758937359}, "transactions": ["pickup", "delivery"], "price": "$$", "location": {"address1": "1670 Grand Ave", "address2": "", "address3": "", "city": "St. Paul", "zip_code": "55105", "country": "US", "state": "MN", "display_address": ["1670 Grand Ave", "St. Paul, MN 55105"]}, "phone": "+16512210093", "display_phone": "(651) 221-0093", "distance": 1500.9143104068432}, {"id": "pb_X5mIz2ccgosxg4CLYzQ", "alias": "little-asia-cafe-saint-paul", "name": "Little Asia Cafe", "image_url": "https://s3-media1.fl.yelpcdn.com/bphoto/aD6xvMCPIdgVObABMYahmg/o.jpg", "is_closed": false, "url": "https://www.yelp.com/biz/little-asia-cafe-saint-paul?adjust_creative=a2JdNtFqB-C38ga_06BHvw&utm_campaign=yelp_api_v3&utm_medium=api_v3_business_search&utm_source=a2JdNtFqB-C38ga_06BHvw", "review_count": 51, "categories": [{"alias": "asianfusion", "title": "Asian Fusion"}, {"alias": "thai", "title": "Thai"}], "rating": 3.5, "coordinates": {"latitude": 44.95605, "longitude": -93.14248}, "transactions": ["pickup", "delivery"], "price": "$", "location": {"address1": "995 University Ave W", "address2": "", "address3": "", "city": "Saint Paul", "zip_code": "55104", "country": "US", "state": "MN", "display_address": ["995 University Ave W", "Saint Paul, MN 55104"]}, "phone": "+16512093392", "display_phone": "(651) 209-3392", "distance": 1812.8486803011783}, {"id": "I7RgCAuaJAk1fRkAokhF9Q", "alias": "st-paul-tap-saint-paul-3", "name": "St. Paul Tap", "image_url": "https://s3-media1.fl.yelpcdn.com/bphoto/QKD4-7Bm1ZNBA-1Cj0qeTw/o.jpg", "is_closed": false, "url": "https://www.yelp.com/biz/st-paul-tap-saint-paul-3?adjust_creative=a2JdNtFqB-C38ga_06BHvw&utm_campaign=yelp_api_v3&utm_medium=api_v3_business_search&utm_source=a2JdNtFqB-C38ga_06BHvw", "review_count": 49, "categories": [{"alias": "tradamerican", "title": "American (Traditional)"}, {"alias": "arcades", "title": "Arcades"}, {"alias": "sportsbars", "title": "Sports Bars"}], "rating": 3.5, "coordinates": {"latitude": 44.93092, "longitude": -93.13479}, "transactions": ["pickup", "delivery"], "price": "$$", "location": {"address1": "825 W Jefferson Ave", "address2": null, "address3": "", "city": "Saint Paul", "zip_code": "55102", "country": "US", "state": "MN", "display_address": ["825 W Jefferson Ave", "Saint Paul, MN 55102"]}, "phone": "+16512276315", "display_phone": "(651) 227-6315", "distance": 3401.9813894794684}, {"id": "qyTjgDgw7QJ1_FvutQURiQ", "alias": "taste-of-thailand-saint-paul", "name": "Taste Of Thailand", "image_url": "https://s3-media1.fl.yelpcdn.com/bphoto/rQEsaH1SuU__w-TmiENsgw/o.jpg", "is_closed": false, "url": "https://www.yelp.com/biz/taste-of-thailand-saint-paul?adjust_creative=a2JdNtFqB-C38ga_06BHvw&utm_campaign=yelp_api_v3&utm_medium=api_v3_business_search&utm_source=a2JdNtFqB-C38ga_06BHvw", "review_count": 130, "categories": [{"alias": "thai", "title": "Thai"}, {"alias": "bars", "title": "Bars"}], "rating": 3.0, "coordinates": {"latitude": 44.9466849, "longitude": -93.1711375}, "transactions": ["delivery"], "price": "$$", "location": {"address1": "1671 Selby Ave", "address2": "", "address3": "", "city": "Saint Paul", "zip_code": "55104", "country": "US", "state": "MN", "display_address": ["1671 Selby Ave", "Saint Paul, MN 55104"]}, "phone": "+16516443997", "display_phone": "(651) 644-3997", "distance": 825.772450668411}, {"id": "rxpZna7c6K4S2VRTEqACYA", "alias": "new-asia-express-saint-paul", "name": "New Asia Express", "image_url": "https://s3-media1.fl.yelpcdn.com/bphoto/KuD9gIhpWLUVx_kn20o11A/o.jpg", "is_closed": false, "url": "https://www.yelp.com/biz/new-asia-express-saint-paul?adjust_creative=a2JdNtFqB-C38ga_06BHvw&utm_campaign=yelp_api_v3&utm_medium=api_v3_business_search&utm_source=a2JdNtFqB-C38ga_06BHvw", "review_count": 106, "categories": [{"alias": "chinese", "title": "Chinese"}], "rating": 3.0, "coordinates": {"latitude": 44.9553833, "longitude": -93.1464081}, "transactions": ["pickup", "delivery"], "price": "$", "location": {"address1": "474 Lexington Pkwy N", "address2": "", "address3": "", "city": "Saint Paul", "zip_code": "55104", "country": "US", "state": "MN", "display_address": ["474 Lexington Pkwy N", "Saint Paul, MN 55104"]}, "phone": "+16516479264", "display_phone": "(651) 647-9264", "distance": 1503.4828775374772}, {"id": "s7LAQ3vmWVVyTY_Rj76yHA", "alias": "kims-chow-mein-saint-paul", "name": "Kim's Chow Mein", "image_url": "https://s3-media2.fl.yelpcdn.com/bphoto/ZnzOP0_DzF9I9HKBBAXh0A/o.jpg", "is_closed": false, "url": "https://www.yelp.com/biz/kims-chow-mein-saint-paul?adjust_creative=a2JdNtFqB-C38ga_06BHvw&utm_campaign=yelp_api_v3&utm_medium=api_v3_business_search&utm_source=a2JdNtFqB-C38ga_06BHvw", "review_count": 40, "categories": [{"alias": "chinese", "title": "Chinese"}], "rating": 3.5, "coordinates": {"latitude": 44.9482346, "longitude": -93.1868362}, "transactions": ["pickup", "delivery"], "price": "$$", "location": {"address1": "2048 Marshall Ave", "address2": "", "address3": "", "city": "Saint Paul", "zip_code": "55104", "country": "US", "state": "MN", "display_address": ["2048 Marshall Ave", "Saint Paul, MN 55104"]}, "phone": "+16516464964", "display_phone": "(651) 646-4964", "distance": 1786.4897214022963}, {"id": "YvvKuZ1xuSrNZT1D9zZvvA", "alias": "ghebres-saint-paul", "name": "Ghebre's", "image_url": "https://s3-media1.fl.yelpcdn.com/bphoto/o2lF3elH4u7w48657q-5XA/o.jpg", "is_closed": false, "url": "https://www.yelp.com/biz/ghebres-saint-paul?adjust_creative=a2JdNtFqB-C38ga_06BHvw&utm_campaign=yelp_api_v3&utm_medium=api_v3_business_search&utm_source=a2JdNtFqB-C38ga_06BHvw", "review_count": 14, "categories": [{"alias": "ethiopian", "title": "Ethiopian"}, {"alias": "coffee", "title": "Coffee & Tea"}], "rating": 4.0, "coordinates": {"latitude": 44.9566884190543, "longitude": -93.1667222905212}, "transactions": ["delivery"], "price": "$$", "location": {"address1": "512 Snelling Ave", "address2": "", "address3": null, "city": "Saint Paul", "zip_code": "55104", "country": "US", "state": "MN", "display_address": ["512 Snelling Ave", "Saint Paul, MN 55104"]}, "phone": "+16514934324", "display_phone": "(651) 493-4324", "distance": 455.44912320622694}, {"id": "PiTZvSh4qQVPiN8HAo6NkQ", "alias": "chips-clubhouse-saint-paul", "name": "Chips Clubhouse", "image_url": "https://s3-media2.fl.yelpcdn.com/bphoto/oshSA26Er_r4Obxa1jW07w/o.jpg", "is_closed": false, "url": "https://www.yelp.com/biz/chips-clubhouse-saint-paul?adjust_creative=a2JdNtFqB-C38ga_06BHvw&utm_campaign=yelp_api_v3&utm_medium=api_v3_business_search&utm_source=a2JdNtFqB-C38ga_06BHvw", "review_count": 11, "categories": [{"alias": "cocktailbars", "title": "Cocktail Bars"}, {"alias": "burgers", "title": "Burgers"}], "rating": 4.5, "coordinates": {"latitude": 44.933166, "longitude": -93.166736}, "transactions": ["pickup", "delivery"], "location": {"address1": "272 Snelling Ave S", "address2": "Unit 200", "address3": null, "city": "Saint Paul", "zip_code": "55105", "country": "US", "state": "MN", "display_address": ["272 Snelling Ave S", "Unit 200", "Saint Paul, MN 55105"]}, "phone": "+16513301617", "display_phone": "(651) 330-1617", "distance": 2183.377630299329}, {"id": "0UbHvB8ktqMy845U0Fm45A", "alias": "black-coffee-and-waffle-bar-saint-paul", "name": "Black Coffee and Waffle Bar", "image_url": "https://s3-media4.fl.yelpcdn.com/bphoto/yssMwhWHQr_X93XBtKaNWQ/o.jpg", "is_closed": false, "url": "https://www.yelp.com/biz/black-coffee-and-waffle-bar-saint-paul?adjust_creative=a2JdNtFqB-C38ga_06BHvw&utm_campaign=yelp_api_v3&utm_medium=api_v3_business_search&utm_source=a2JdNtFqB-C38ga_06BHvw", "review_count": 134, "categories": [{"alias": "coffee", "title": "Coffee & Tea"}, {"alias": "waffles", "title": "Waffles"}], "rating": 3.0, "coordinates": {"latitude": 44.948244, "longitude": -93.192579}, "transactions": ["pickup", "delivery"], "price": "$", "location": {"address1": "2180 Marshall Ave", "address2": null, "address3": "", "city": "Saint Paul", "zip_code": "55104", "country": "US", "state": "MN", "display_address": ["2180 Marshall Ave", "Saint Paul, MN 55104"]}, "phone": "+16513135693", "display_phone": "(651) 313-5693", "distance": 2228.102862308404}, {"id": "IyBB_NWViDeP8N0dIv7uMA", "alias": "taste-of-rondo-bar-and-grill-saint-paul", "name": "Taste of Rondo Bar & Grill", "image_url": "https://s3-media4.fl.yelpcdn.com/bphoto/cb5YmcwPij0U-AAs4lMiKA/o.jpg", "is_closed": false, "url": "https://www.yelp.com/biz/taste-of-rondo-bar-and-grill-saint-paul?adjust_creative=a2JdNtFqB-C38ga_06BHvw&utm_campaign=yelp_api_v3&utm_medium=api_v3_business_search&utm_source=a2JdNtFqB-C38ga_06BHvw", "review_count": 20, "categories": [{"alias": "soulfood", "title": "Soul Food"}, {"alias": "sportsbars", "title": "Sports Bars"}], "rating": 3.5, "coordinates": {"latitude": 44.950996, "longitude": -93.141281}, "transactions": ["pickup", "delivery"], "location": {"address1": "976 Concordia Ave", "address2": "", "address3": null, "city": "Saint Paul", "zip_code": "55104", "country": "US", "state": "MN", "display_address": ["976 Concordia Ave", "Saint Paul, MN 55104"]}, "phone": "+16513482615", "display_phone": "(651) 348-2615", "distance": 1881.3792742736719}, {"id": "THE3IXeLW2l2Md8LbMliJw", "alias": "the-original-gabes-by-the-park-saint-paul-2", "name": "The Original Gabe's by the Park", "image_url": "https://s3-media4.fl.yelpcdn.com/bphoto/nhmwIH3KWPbh-t7qYklV_Q/o.jpg", "is_closed": false, "url": "https://www.yelp.com/biz/the-original-gabes-by-the-park-saint-paul-2?adjust_creative=a2JdNtFqB-C38ga_06BHvw&utm_campaign=yelp_api_v3&utm_medium=api_v3_business_search&utm_source=a2JdNtFqB-C38ga_06BHvw", "review_count": 109, "categories": [{"alias": "tradamerican", "title": "American (Traditional)"}, {"alias": "sportsbars", "title": "Sports Bars"}], "rating": 3.0, "coordinates": {"latitude": 44.9707287, "longitude": -93.1469547}, "transactions": ["pickup", "delivery"], "price": "$$", "location": {"address1": "991 N Lexington Pkwy", "address2": "", "address3": "", "city": "Saint Paul", "zip_code": "55103", "country": "US", "state": "MN", "display_address": ["991 N Lexington Pkwy", "Saint Paul, MN 55103"]}, "phone": "+16516463066", "display_phone": "(651) 646-3066", "distance": 2449.471402450081}, {"id": "svx1_i6LfOI_xcbDzkQTIg", "alias": "china-one-saint-paul", "name": "China One", "image_url": "https://s3-media3.fl.yelpcdn.com/bphoto/pas-64RwnbQi1UFzKrhpfQ/o.jpg", "is_closed": false, "url": "https://www.yelp.com/biz/china-one-saint-paul?adjust_creative=a2JdNtFqB-C38ga_06BHvw&utm_campaign=yelp_api_v3&utm_medium=api_v3_business_search&utm_source=a2JdNtFqB-C38ga_06BHvw", "review_count": 25, "categories": [{"alias": "chinese", "title": "Chinese"}], "rating": 3.5, "coordinates": {"latitude": 44.9555217, "longitude": -93.1303958}, "transactions": ["delivery"], "price": "$", "location": {"address1": "712 University Ave", "address2": "Ste 101", "address3": null, "city": "Saint Paul", "zip_code": "55104", "country": "US", "state": "MN", "display_address": ["712 University Ave", "Ste 101", "Saint Paul, MN 55104"]}, "phone": "+16512989888", "display_phone": "(651) 298-9888", "distance": 2737.8103746796774}, {"id": "1JLwsb3A8gSUcD0kK_EiSg", "alias": "west-indies-soul-saint-paul-4", "name": "West Indies Soul ", "image_url": "https://s3-media1.fl.yelpcdn.com/bphoto/Qmh0ZS5aHa3UquCrwllz5Q/o.jpg", "is_closed": false, "url": "https://www.yelp.com/biz/west-indies-soul-saint-paul-4?adjust_creative=a2JdNtFqB-C38ga_06BHvw&utm_campaign=yelp_api_v3&utm_medium=api_v3_business_search&utm_source=a2JdNtFqB-C38ga_06BHvw", "review_count": 7, "categories": [{"alias": "foodtrucks", "title": "Food Trucks"}, {"alias": "caribbean", "title": "Caribbean"}], "rating": 4.5, "coordinates": {"latitude": 44.954360813106454, "longitude": -93.14985384305473}, "transactions": ["pickup", "delivery"], "price": "$", "location": {"address1": "1166 University Ave", "address2": "", "address3": "", "city": "Saint Paul", "zip_code": "55102", "country": "US", "state": "MN", "display_address": ["1166 University Ave", "Saint Paul, MN 55102"]}, "phone": "+16517264120", "display_phone": "(651) 726-4120", "distance": 1204.7803515272099}, {"id": "QOp4Al2v33NShr7evteDtA", "alias": "toppers-pizza-saint-paul", "name": "Toppers Pizza", "image_url": "https://s3-media2.fl.yelpcdn.com/bphoto/h-a1kI24guzoMgr--C2XJw/o.jpg", "is_closed": false, "url": "https://www.yelp.com/biz/toppers-pizza-saint-paul?adjust_creative=a2JdNtFqB-C38ga_06BHvw&utm_campaign=yelp_api_v3&utm_medium=api_v3_business_search&utm_source=a2JdNtFqB-C38ga_06BHvw", "review_count": 54, "categories": [{"alias": "pizza", "title": "Pizza"}], "rating": 3.0, "coordinates": {"latitude": 44.939886, "longitude": -93.148994}, "transactions": ["pickup", "delivery"], "price": "$", "location": {"address1": "1154 Grand Ave", "address2": "", "address3": "", "city": "Saint Paul", "zip_code": "55105", "country": "US", "state": "MN", "display_address": ["1154 Grand Ave", "Saint Paul, MN 55105"]}, "phone": "+16512219000", "display_phone": "(651) 221-9000", "distance": 1908.3427278301526}, {"id": "ZDKa8KuDco_lgX7Xs4iHng", "alias": "brueggers-bagels-saint-paul-16", "name": "Bruegger's Bagels", "image_url": "https://s3-media2.fl.yelpcdn.com/bphoto/Z6X6xmB2vMKAiLOz7BicBA/o.jpg", "is_closed": false, "url": "https://www.yelp.com/biz/brueggers-bagels-saint-paul-16?adjust_creative=a2JdNtFqB-C38ga_06BHvw&utm_campaign=yelp_api_v3&utm_medium=api_v3_business_search&utm_source=a2JdNtFqB-C38ga_06BHvw", "review_count": 17, "categories": [{"alias": "bagels", "title": "Bagels"}, {"alias": "breakfast_brunch", "title": "Breakfast & Brunch"}, {"alias": "sandwiches", "title": "Sandwiches"}], "rating": 3.5, "coordinates": {"latitude": 44.9397494504746, "longitude": -93.1336650252342}, "transactions": ["delivery"], "price": "$", "location": {"address1": "800 Grand Ave", "address2": "", "address3": "", "city": "Saint Paul", "zip_code": "55105", "country": "US", "state": "MN", "display_address": ["800 Grand Ave", "Saint Paul, MN 55105"]}, "phone": "+16512211909", "display_phone": "(651) 221-1909", "distance": 2860.1160000385275}, {"id": "Oy45JndjDSlOl2Jg-ZjXgQ", "alias": "pinoy-fusion-saint-paul", "name": "Pinoy Fusion", "image_url": "https://s3-media3.fl.yelpcdn.com/bphoto/xUWqRykVhDWXPZhRbfi7YQ/o.jpg", "is_closed": false, "url": "https://www.yelp.com/biz/pinoy-fusion-saint-paul?adjust_creative=a2JdNtFqB-C38ga_06BHvw&utm_campaign=yelp_api_v3&utm_medium=api_v3_business_search&utm_source=a2JdNtFqB-C38ga_06BHvw", "review_count": 9, "categories": [{"alias": "foodtrucks", "title": "Food Trucks"}, {"alias": "filipino", "title": "Filipino"}], "rating": 4.0, "coordinates": {"latitude": 44.9560546875, "longitude": -93.1334457397461}, "transactions": [], "location": {"address1": "789 University Ave W", "address2": "", "address3": "", "city": "Saint Paul", "zip_code": "55104", "country": "US", "state": "MN", "display_address": ["789 University Ave W", "Saint Paul, MN 55104"]}, "phone": "+16512458091", "display_phone": "(651) 245-8091", "distance": 2508.3050034447488}, {"id": "_XSUtCRbU4OF0lfbj0vzFQ", "alias": "plums-neighborhood-bar-and-grill-saint-paul", "name": "Plum's Neighborhood Bar & Grill", "image_url": "https://s3-media4.fl.yelpcdn.com/bphoto/qt6AZ0EoBNPuRZSvmPEW1g/o.jpg", "is_closed": false, "url": "https://www.yelp.com/biz/plums-neighborhood-bar-and-grill-saint-paul?adjust_creative=a2JdNtFqB-C38ga_06BHvw&utm_campaign=yelp_api_v3&utm_medium=api_v3_business_search&utm_source=a2JdNtFqB-C38ga_06BHvw", "review_count": 50, "categories": [{"alias": "bars", "title": "Bars"}, {"alias": "tradamerican", "title": "American (Traditional)"}], "rating": 3.0, "coordinates": {"latitude": 44.9271583557129, "longitude": -93.1665954589844}, "transactions": ["delivery"], "price": "$$", "location": {"address1": "480 Snelling Ave S", "address2": "", "address3": "", "city": "Saint Paul", "zip_code": "55105", "country": "US", "state": "MN", "display_address": ["480 Snelling Ave S", "Saint Paul, MN 55105"]}, "phone": "+16516992227", "display_phone": "(651) 699-2227", "distance": 2849.5338338601478}, {"id": "WAmgPlpjg10GkZuQwZPp7g", "alias": "billys-on-grand-saint-paul-2", "name": "Billy's On Grand", "image_url": "https://s3-media3.fl.yelpcdn.com/bphoto/UDuguIYVzjFYkJH3jO6B-A/o.jpg", "is_closed": false, "url": "https://www.yelp.com/biz/billys-on-grand-saint-paul-2?adjust_creative=a2JdNtFqB-C38ga_06BHvw&utm_campaign=yelp_api_v3&utm_medium=api_v3_business_search&utm_source=a2JdNtFqB-C38ga_06BHvw", "review_count": 107, "categories": [{"alias": "sportsbars", "title": "Sports Bars"}, {"alias": "tradamerican", "title": "American (Traditional)"}], "rating": 2.5, "coordinates": {"latitude": 44.94027, "longitude": -93.1359499}, "transactions": ["pickup", "delivery"], "price": "$$", "location": {"address1": "857 Grand Ave", "address2": "", "address3": "", "city": "Saint Paul", "zip_code": "55105", "country": "US", "state": "MN", "display_address": ["857 Grand Ave", "Saint Paul, MN 55105"]}, "phone": "+16512929140", "display_phone": "(651) 292-9140", "distance": 2664.41079111788}, {"id": "kG3gzmflzJHplY7iuviW1w", "alias": "white-castle-st-paul-4", "name": "White Castle", "image_url": "https://s3-media2.fl.yelpcdn.com/bphoto/4gkzFsdoIHdQ31bs4J-_nA/o.jpg", "is_closed": false, "url": "https://www.yelp.com/biz/white-castle-st-paul-4?adjust_creative=a2JdNtFqB-C38ga_06BHvw&utm_campaign=yelp_api_v3&utm_medium=api_v3_business_search&utm_source=a2JdNtFqB-C38ga_06BHvw", "review_count": 33, "categories": [{"alias": "hotdogs", "title": "Fast Food"}, {"alias": "burgers", "title": "Burgers"}], "rating": 3.0, "coordinates": {"latitude": 44.9552879333496, "longitude": -93.1473236083984}, "transactions": ["pickup", "delivery"], "price": "$", "location": {"address1": "1120 University Ave W", "address2": "", "address3": "", "city": "St. Paul", "zip_code": "55104", "country": "US", "state": "MN", "display_address": ["1120 University Ave W", "St. Paul, MN 55104"]}, "phone": "+16516454881", "display_phone": "(651) 645-4881", "distance": 1437.9583842534264}, {"id": "vZD7ExHs9m-huPcklz4Ytg", "alias": "the-copper-dome-saint-paul", "name": "The Copper Dome", "image_url": "https://s3-media2.fl.yelpcdn.com/bphoto/OyLNRV5utH5UXe6P-7-diw/o.jpg", "is_closed": false, "url": "https://www.yelp.com/biz/the-copper-dome-saint-paul?adjust_creative=a2JdNtFqB-C38ga_06BHvw&utm_campaign=yelp_api_v3&utm_medium=api_v3_business_search&utm_source=a2JdNtFqB-C38ga_06BHvw", "review_count": 71, "categories": [{"alias": "breakfast_brunch", "title": "Breakfast & Brunch"}], "rating": 2.5, "coordinates": {"latitude": 44.927078, "longitude": -93.156505}, "transactions": ["delivery"], "price": "$", "location": {"address1": "1333 Randolph Ave", "address2": "", "address3": "", "city": "Saint Paul", "zip_code": "55105", "country": "US", "state": "MN", "display_address": ["1333 Randolph Ave", "Saint Paul, MN 55105"]}, "phone": "+16516900993", "display_phone": "(651) 690-0993", "distance": 2934.886035559062}, {"id": "CYPyH902s-2tRXprtkcTmg", "alias": "green-mill-restaurant-and-bar-saint-paul-7", "name": "Green Mill Restaurant & Bar", "image_url": "https://s3-media3.fl.yelpcdn.com/bphoto/SmPG33utLc5KqTC8icqYjw/o.jpg", "is_closed": false, "url": "https://www.yelp.com/biz/green-mill-restaurant-and-bar-saint-paul-7?adjust_creative=a2JdNtFqB-C38ga_06BHvw&utm_campaign=yelp_api_v3&utm_medium=api_v3_business_search&utm_source=a2JdNtFqB-C38ga_06BHvw", "review_count": 98, "categories": [{"alias": "pizza", "title": "Pizza"}, {"alias": "tradamerican", "title": "American (Traditional)"}, {"alias": "wine_bars", "title": "Wine Bars"}], "rating": 2.5, "coordinates": {"latitude": 44.93966326, "longitude": -93.15705223}, "transactions": ["delivery"], "price": "$$", "location": {"address1": "57 Hamline Ave S", "address2": "", "address3": "", "city": "Saint Paul", "zip_code": "55105", "country": "US", "state": "MN", "display_address": ["57 Hamline Ave S", "Saint Paul, MN 55105"]}, "phone": "+16516980353", "display_phone": "(651) 698-0353", "distance": 1586.7744624236398}, {"id": "Dpgd3aCEXujyAT44uoqodg", "alias": "hardees-saint-paul-2", "name": "Hardee's", "image_url": "https://s3-media1.fl.yelpcdn.com/bphoto/c05iSBeHlYnBZ9_6BaUeOg/o.jpg", "is_closed": false, "url": "https://www.yelp.com/biz/hardees-saint-paul-2?adjust_creative=a2JdNtFqB-C38ga_06BHvw&utm_campaign=yelp_api_v3&utm_medium=api_v3_business_search&utm_source=a2JdNtFqB-C38ga_06BHvw", "review_count": 37, "categories": [{"alias": "hotdogs", "title": "Fast Food"}, {"alias": "burgers", "title": "Burgers"}], "rating": 3.0, "coordinates": {"latitude": 44.95246086363335, "longitude": -93.1576914}, "transactions": ["delivery"], "price": "$", "location": {"address1": "369 Hamline Ave N", "address2": "", "address3": "", "city": "Saint Paul", "zip_code": "55104", "country": "US", "state": "MN", "display_address": ["369 Hamline Ave N", "Saint Paul, MN 55104"]}, "phone": "+16516462332", "display_phone": "(651) 646-2332", "distance": 576.205465884264}, {"id": "S5MjUhKdMgPKPv-r3baItw", "alias": "myriel-saint-paul", "name": "Myriel", "image_url": "", "is_closed": false, "url": "https://www.yelp.com/biz/myriel-saint-paul?adjust_creative=a2JdNtFqB-C38ga_06BHvw&utm_campaign=yelp_api_v3&utm_medium=api_v3_business_search&utm_source=a2JdNtFqB-C38ga_06BHvw", "review_count": 4, "categories": [{"alias": "salad", "title": "Salad"}, {"alias": "gluten_free", "title": "Gluten-Free"}, {"alias": "sandwiches", "title": "Sandwiches"}], "rating": 5.0, "coordinates": {"latitude": 44.927419, "longitude": -93.187154}, "transactions": [], "location": {"address1": "470 Cleveland Ave S", "address2": "", "address3": null, "city": "Saint Paul", "zip_code": "55104", "country": "US", "state": "MN", "display_address": ["470 Cleveland Ave S", "Saint Paul, MN 55104"]}, "phone": "+16513403568", "display_phone": "(651) 340-3568", "distance": 3309.0062353461826}, {"id": "1zTSwJwrqKYfpnjYd6HhmQ", "alias": "king-cajun-saint-paul", "name": "King Cajun", "image_url": "https://s3-media2.fl.yelpcdn.com/bphoto/hBIpCkx2UgKPvKFMOl5wpg/o.jpg", "is_closed": false, "url": "https://www.yelp.com/biz/king-cajun-saint-paul?adjust_creative=a2JdNtFqB-C38ga_06BHvw&utm_campaign=yelp_api_v3&utm_medium=api_v3_business_search&utm_source=a2JdNtFqB-C38ga_06BHvw", "review_count": 7, "categories": [{"alias": "seafood", "title": "Seafood"}, {"alias": "cajun", "title": "Cajun/Creole"}, {"alias": "sandwiches", "title": "Sandwiches"}], "rating": 4.0, "coordinates": {"latitude": 44.955443, "longitude": -93.130401}, "transactions": ["pickup", "delivery"], "location": {"address1": "712 University Ave W", "address2": null, "address3": "", "city": "Saint Paul", "zip_code": "55104", "country": "US", "state": "MN", "display_address": ["712 University Ave W", "Saint Paul, MN 55104"]}, "phone": "+16514938575", "display_phone": "(651) 493-8575", "distance": 2737.845406855988}, {"id": "y9O1bAQxeApbqe1TLRY9mw", "alias": "snelling-cafe-saint-paul", "name": "Snelling Cafe", "image_url": "https://s3-media1.fl.yelpcdn.com/bphoto/alUn13rSkVNFdSDO6zS0Yg/o.jpg", "is_closed": false, "url": "https://www.yelp.com/biz/snelling-cafe-saint-paul?adjust_creative=a2JdNtFqB-C38ga_06BHvw&utm_campaign=yelp_api_v3&utm_medium=api_v3_business_search&utm_source=a2JdNtFqB-C38ga_06BHvw", "review_count": 7, "categories": [{"alias": "cafes", "title": "Cafes"}, {"alias": "mediterranean", "title": "Mediterranean"}, {"alias": "african", "title": "African"}], "rating": 4.0, "coordinates": {"latitude": 44.960414, "longitude": -93.166755}, "transactions": ["pickup", "delivery"], "location": {"address1": "638 Snelling Ave N", "address2": null, "address3": null, "city": "Saint Paul", "zip_code": "55104", "country": "US", "state": "MN", "display_address": ["638 Snelling Ave N", "Saint Paul, MN 55104"]}, "phone": "+16516441933", "display_phone": "(651) 644-1933", "distance": 859.3216129019569}, {"id": "HQl2sQEvlOuHZiq7CimQTw", "alias": "hamburguesas-el-gordo-saint-paul-2", "name": "Hamburguesas el Gordo", "image_url": "https://s3-media2.fl.yelpcdn.com/bphoto/BU9OF3E962fVuBle8VqhpA/o.jpg", "is_closed": false, "url": "https://www.yelp.com/biz/hamburguesas-el-gordo-saint-paul-2?adjust_creative=a2JdNtFqB-C38ga_06BHvw&utm_campaign=yelp_api_v3&utm_medium=api_v3_business_search&utm_source=a2JdNtFqB-C38ga_06BHvw", "review_count": 8, "categories": [{"alias": "tacos", "title": "Tacos"}, {"alias": "burgers", "title": "Burgers"}, {"alias": "hotdog", "title": "Hot Dogs"}], "rating": 4.0, "coordinates": {"latitude": 44.946315, "longitude": -93.136647}, "transactions": ["delivery"], "location": {"address1": "161 Victoria St", "address2": null, "address3": null, "city": "Saint Paul", "zip_code": "55104", "country": "US", "state": "MN", "display_address": ["161 Victoria St", "Saint Paul, MN 55104"]}, "phone": "+16513401483", "display_phone": "(651) 340-1483", "distance": 2346.9360439595753}, {"id": "FTfdPVU8BrzYQAcV0MotAw", "alias": "golden-gate-café-saint-paul-2", "name": "Golden Gate Café", "image_url": "https://s3-media3.fl.yelpcdn.com/bphoto/pHK5E2dwkfHicVOoyEfaNA/o.jpg", "is_closed": false, "url": "https://www.yelp.com/biz/golden-gate-caf%C3%A9-saint-paul-2?adjust_creative=a2JdNtFqB-C38ga_06BHvw&utm_campaign=yelp_api_v3&utm_medium=api_v3_business_search&utm_source=a2JdNtFqB-C38ga_06BHvw", "review_count": 16, "categories": [{"alias": "chinese", "title": "Chinese"}, {"alias": "cafes", "title": "Cafes"}], "rating": 3.0, "coordinates": {"latitude": 44.955089, "longitude": -93.162411}, "transactions": ["delivery"], "price": "$", "location": {"address1": "1464 1/2 University Ave W", "address2": "", "address3": "", "city": "Saint Paul", "zip_code": "55104", "country": "US", "state": "MN", "display_address": ["1464 1/2 University Ave W", "Saint Paul, MN 55104"]}, "phone": "+16516461091", "display_phone": "(651) 646-1091", "distance": 327.93175667367495}, {"id": "kTei5c4q5_S9YoNchswelg", "alias": "taco-bell-saint-paul-10", "name": "Taco Bell", "image_url": "https://s3-media1.fl.yelpcdn.com/bphoto/eVJ6WP4f2NAU13iE33nIYA/o.jpg", "is_closed": false, "url": "https://www.yelp.com/biz/taco-bell-saint-paul-10?adjust_creative=a2JdNtFqB-C38ga_06BHvw&utm_campaign=yelp_api_v3&utm_medium=api_v3_business_search&utm_source=a2JdNtFqB-C38ga_06BHvw", "review_count": 35, "categories": [{"alias": "hotdogs", "title": "Fast Food"}, {"alias": "mexican", "title": "Mexican"}], "rating": 2.5, "coordinates": {"latitude": 44.957842, "longitude": -93.166873}, "transactions": ["pickup", "delivery"], "price": "$", "location": {"address1": "565 No Snelling", "address2": "", "address3": "", "city": "Saint Paul", "zip_code": "55104", "country": "US", "state": "MN", "display_address": ["565 No Snelling", "Saint Paul, MN 55104"]}, "phone": "+16516465900", "display_phone": "(651) 646-5900", "distance": 582.0588265741596}, {"id": "OyTCUTU-OI6ZYc98HaNabQ", "alias": "border-taco-truck-saint-paul", "name": "Border Taco Truck", "image_url": "https://s3-media2.fl.yelpcdn.com/bphoto/XXmH5LqRTEm0R39NITs9aQ/o.jpg", "is_closed": false, "url": "https://www.yelp.com/biz/border-taco-truck-saint-paul?adjust_creative=a2JdNtFqB-C38ga_06BHvw&utm_campaign=yelp_api_v3&utm_medium=api_v3_business_search&utm_source=a2JdNtFqB-C38ga_06BHvw", "review_count": 5, "categories": [{"alias": "mexican", "title": "Mexican"}, {"alias": "streetvendors", "title": "Street Vendors"}, {"alias": "foodtrucks", "title": "Food Trucks"}], "rating": 4.0, "coordinates": {"latitude": 44.9558553078048, "longitude": -93.1569076050724}, "transactions": [], "price": "$", "location": {"address1": "University & Hamline", "address2": "", "address3": "", "city": "Saint Paul", "zip_code": "55104", "country": "US", "state": "MN", "display_address": ["University & Hamline", "Saint Paul, MN 55104"]}, "phone": "+16513660675", "display_phone": "(651) 366-0675", "distance": 722.898491689489}, {"id": "CQWFLQ_T2TIVC5EefYOSTg", "alias": "culvers-saint-paul-5", "name": "Culver's", "image_url": "https://s3-media4.fl.yelpcdn.com/bphoto/z6hjyrb_uIG4qY3jJ2xiRg/o.jpg", "is_closed": false, "url": "https://www.yelp.com/biz/culvers-saint-paul-5?adjust_creative=a2JdNtFqB-C38ga_06BHvw&utm_campaign=yelp_api_v3&utm_medium=api_v3_business_search&utm_source=a2JdNtFqB-C38ga_06BHvw", "review_count": 41, "categories": [{"alias": "icecream", "title": "Ice Cream & Frozen Yogurt"}, {"alias": "hotdogs", "title": "Fast Food"}, {"alias": "burgers", "title": "Burgers"}], "rating": 2.5, "coordinates": {"latitude": 44.9560508728027, "longitude": -93.163397}, "transactions": ["delivery"], "price": "$", "location": {"address1": "1491 University Ave W", "address2": "", "address3": null, "city": "Saint Paul", "zip_code": "55104", "country": "US", "state": "MN", "display_address": ["1491 University Ave W", "Saint Paul, MN 55104"]}, "phone": "+16517973467", "display_phone": "(651) 797-3467", "distance": 385.16674985564975}, {"id": "Wpj0XcDOnbmLREpMFEvGkg", "alias": "erbert-and-gerberts-sandwich-shop-st-paul", "name": "Erbert and Gerbert's Sandwich Shop", "image_url": "https://s3-media3.fl.yelpcdn.com/bphoto/v0wkiZJjobVNK4vHTWeJBQ/o.jpg", "is_closed": false, "url": "https://www.yelp.com/biz/erbert-and-gerberts-sandwich-shop-st-paul?adjust_creative=a2JdNtFqB-C38ga_06BHvw&utm_campaign=yelp_api_v3&utm_medium=api_v3_business_search&utm_source=a2JdNtFqB-C38ga_06BHvw", "review_count": 10, "categories": [{"alias": "sandwiches", "title": "Sandwiches"}, {"alias": "soup", "title": "Soup"}, {"alias": "salad", "title": "Salad"}], "rating": 3.5, "coordinates": {"latitude": 44.9747461429952, "longitude": -93.1947030499577}, "transactions": ["pickup", "delivery"], "price": "$", "location": {"address1": "2233 Energy Park Dr", "address2": "", "address3": "", "city": "St. Paul", "zip_code": "55108", "country": "US", "state": "MN", "display_address": ["2233 Energy Park Dr", "St. Paul, MN 55108"]}, "phone": "+16512046400", "display_phone": "(651) 204-6400", "distance": 3380.5650302841186}, {"id": "2KQANrIsoL5WBPynpW3CVw", "alias": "buffalo-wild-wings-saint-paul-6", "name": "Buffalo Wild Wings", "image_url": "https://s3-media2.fl.yelpcdn.com/bphoto/eLthWrIJkoIOYLO8J1-1ag/o.jpg", "is_closed": false, "url": "https://www.yelp.com/biz/buffalo-wild-wings-saint-paul-6?adjust_creative=a2JdNtFqB-C38ga_06BHvw&utm_campaign=yelp_api_v3&utm_medium=api_v3_business_search&utm_source=a2JdNtFqB-C38ga_06BHvw", "review_count": 69, "categories": [{"alias": "chicken_wings", "title": "Chicken Wings"}, {"alias": "tradamerican", "title": "American (Traditional)"}, {"alias": "sportsbars", "title": "Sports Bars"}], "rating": 2.0, "coordinates": {"latitude": 44.943715, "longitude": -93.1659192629559}, "transactions": ["delivery"], "price": "$$", "location": {"address1": "80 N Snelling Ave", "address2": "", "address3": "", "city": "Saint Paul", "zip_code": "55104", "country": "US", "state": "MN", "display_address": ["80 N Snelling Ave", "Saint Paul, MN 55104"]}, "phone": "+16516442638", "display_phone": "(651) 644-2638", "distance": 1010.3518305188081}, {"id": "wo5T0hW_D0HEGCtl-qN2kA", "alias": "minnehaha-grocery-store-saint-paul", "name": "Minnehaha Grocery Store", "image_url": "https://s3-media1.fl.yelpcdn.com/bphoto/zx6FyAKQwB9_psznvHXbmA/o.jpg", "is_closed": false, "url": "https://www.yelp.com/biz/minnehaha-grocery-store-saint-paul?adjust_creative=a2JdNtFqB-C38ga_06BHvw&utm_campaign=yelp_api_v3&utm_medium=api_v3_business_search&utm_source=a2JdNtFqB-C38ga_06BHvw", "review_count": 5, "categories": [{"alias": "grocery", "title": "Grocery"}, {"alias": "delis", "title": "Delis"}], "rating": 4.0, "coordinates": {"latitude": 44.9626045227051, "longitude": -93.1770248413086}, "transactions": [], "price": "$$", "location": {"address1": "1818 Minnehaha Ave W", "address2": "", "address3": "", "city": "Saint Paul", "zip_code": "55104", "country": "US", "state": "MN", "display_address": ["1818 Minnehaha Ave W", "Saint Paul, MN 55104"]}, "phone": "+16516441233", "display_phone": "(651) 644-1233", "distance": 1451.4079558414999}, {"id": "f7BCCYvrvam4eVG52w_OjQ", "alias": "rusty-taco-truck-saint-paul", "name": "Rusty Taco Truck", "image_url": "https://s3-media3.fl.yelpcdn.com/bphoto/WoMeyXu4jqvyOKKIgdRUuA/o.jpg", "is_closed": false, "url": "https://www.yelp.com/biz/rusty-taco-truck-saint-paul?adjust_creative=a2JdNtFqB-C38ga_06BHvw&utm_campaign=yelp_api_v3&utm_medium=api_v3_business_search&utm_source=a2JdNtFqB-C38ga_06BHvw", "review_count": 12, "categories": [{"alias": "mexican", "title": "Mexican"}, {"alias": "foodtrucks", "title": "Food Trucks"}], "rating": 3.0, "coordinates": {"latitude": 44.92611, "longitude": -93.146325}, "transactions": [], "price": "$", "location": {"address1": "508 Lexington Pkwy S", "address2": "", "address3": "", "city": "Saint Paul", "zip_code": "55105", "country": "US", "state": "MN", "display_address": ["508 Lexington Pkwy S", "Saint Paul, MN 55105"]}, "phone": "+16516982777", "display_phone": "(651) 698-2777", "distance": 3309.663631552039}, {"id": "CnD7C_SKxhWBsVt_BAV3SQ", "alias": "fortune-wok-st-paul-3", "name": "Fortune Wok", "image_url": "https://s3-media2.fl.yelpcdn.com/bphoto/LMeTu-5n_yGSlETadPdZfw/o.jpg", "is_closed": false, "url": "https://www.yelp.com/biz/fortune-wok-st-paul-3?adjust_creative=a2JdNtFqB-C38ga_06BHvw&utm_campaign=yelp_api_v3&utm_medium=api_v3_business_search&utm_source=a2JdNtFqB-C38ga_06BHvw", "review_count": 76, "categories": [{"alias": "chinese", "title": "Chinese"}], "rating": 2.0, "coordinates": {"latitude": 44.957317, "longitude": -93.175862}, "transactions": ["pickup", "delivery"], "price": "$", "location": {"address1": "1821 University Ave W", "address2": "", "address3": "Ste S 125", "city": "St Paul", "zip_code": "55104", "country": "US", "state": "MN", "display_address": ["1821 University Ave W", "Ste S 125", "St Paul, MN 55104"]}, "phone": "+16512871881", "display_phone": "(651) 287-1881", "distance": 991.0716248094549}, {"id": "vQ_McW7PEhI-_TvHI9yJXw", "alias": "reds-savoy-pizza-st-paul-4", "name": "Red's Savoy Pizza", "image_url": "https://s3-media4.fl.yelpcdn.com/bphoto/YYF4x9oEkRGNha4ho8cVqA/o.jpg", "is_closed": false, "url": "https://www.yelp.com/biz/reds-savoy-pizza-st-paul-4?adjust_creative=a2JdNtFqB-C38ga_06BHvw&utm_campaign=yelp_api_v3&utm_medium=api_v3_business_search&utm_source=a2JdNtFqB-C38ga_06BHvw", "review_count": 12, "categories": [{"alias": "pizza", "title": "Pizza"}], "rating": 3.0, "coordinates": {"latitude": 44.9456218, "longitude": -93.1673178}, "transactions": ["delivery"], "location": {"address1": "143 Snelling Ave N", "address2": null, "address3": null, "city": "St Paul", "zip_code": "55104", "country": "US", "state": "MN", "display_address": ["143 Snelling Ave N", "St Paul, MN 55104"]}, "phone": "+16516466400", "display_phone": "(651) 646-6400", "distance": 816.3702550000129}, {"id": "WLhOBFS4TRWqxrA0cnaESQ", "alias": "chipotle-mexican-grill-saint-paul-13", "name": "Chipotle Mexican Grill", "image_url": "https://s3-media3.fl.yelpcdn.com/bphoto/PPOeDjrM2HHKucGjAcdj4A/o.jpg", "is_closed": false, "url": "https://www.yelp.com/biz/chipotle-mexican-grill-saint-paul-13?adjust_creative=a2JdNtFqB-C38ga_06BHvw&utm_campaign=yelp_api_v3&utm_medium=api_v3_business_search&utm_source=a2JdNtFqB-C38ga_06BHvw", "review_count": 110, "categories": [{"alias": "mexican", "title": "Mexican"}, {"alias": "hotdogs", "title": "Fast Food"}], "rating": 2.0, "coordinates": {"latitude": 44.9400941, "longitude": -93.1368197}, "transactions": ["delivery"], "price": "$", "location": {"address1": "867 Grand Ave", "address2": null, "address3": null, "city": "Saint Paul", "zip_code": "55105", "country": "US", "state": "MN", "display_address": ["867 Grand Ave", "Saint Paul, MN 55105"]}, "phone": "+16516020560", "display_phone": "(651) 602-0560", "distance": 2628.265931529839}, {"id": "PNOB-OwiC8QMh99w6R1zwQ", "alias": "selby-ave-bar-and-grill-st-paul", "name": "Selby Ave Bar and Grill", "image_url": "https://s3-media2.fl.yelpcdn.com/bphoto/uzGWG5wRBmte5NxH2NaCCg/o.jpg", "is_closed": false, "url": "https://www.yelp.com/biz/selby-ave-bar-and-grill-st-paul?adjust_creative=a2JdNtFqB-C38ga_06BHvw&utm_campaign=yelp_api_v3&utm_medium=api_v3_business_search&utm_source=a2JdNtFqB-C38ga_06BHvw", "review_count": 4, "categories": [{"alias": "bars", "title": "Bars"}, {"alias": "burgers", "title": "Burgers"}, {"alias": "newamerican", "title": "American (New)"}], "rating": 4.0, "coordinates": {"latitude": 44.946689, "longitude": -93.166733}, "transactions": ["delivery"], "location": {"address1": "1575 Selby Ave", "address2": null, "address3": null, "city": "St. Paul", "zip_code": "55104", "country": "US", "state": "MN", "display_address": ["1575 Selby Ave", "St. Paul, MN 55104"]}, "phone": "+16516900197", "display_phone": "(651) 690-0197", "distance": 690.6638578963463}, {"id": "36vvLUDoqrxfY23VJuiRqw", "alias": "thomas-avenue-deli-and-convenience-and-saint-paul", "name": "Thomas Avenue Deli & Convenience and", "image_url": "https://s3-media1.fl.yelpcdn.com/bphoto/wTUZ7aZ2NOqfbMwqvwI-hw/o.jpg", "is_closed": false, "url": "https://www.yelp.com/biz/thomas-avenue-deli-and-convenience-and-saint-paul?adjust_creative=a2JdNtFqB-C38ga_06BHvw&utm_campaign=yelp_api_v3&utm_medium=api_v3_business_search&utm_source=a2JdNtFqB-C38ga_06BHvw", "review_count": 4, "categories": [{"alias": "grocery", "title": "Grocery"}, {"alias": "delis", "title": "Delis"}], "rating": 4.0, "coordinates": {"latitude": 44.9590912, "longitude": -93.1391983}, "transactions": [], "price": "$", "location": {"address1": "922 Thomas Ave S", "address2": "", "address3": "", "city": "Saint Paul", "zip_code": "55104", "country": "US", "state": "MN", "display_address": ["922 Thomas Ave S", "Saint Paul, MN 55104"]}, "phone": "+16516460577", "display_phone": "(651) 646-0577", "distance": 2150.777443705731}, {"id": "LNGupLiUmLWHgPCay-LkeA", "alias": "noodles-and-company-saint-paul-13", "name": "Noodles & Company", "image_url": "https://s3-media2.fl.yelpcdn.com/bphoto/9DyDycHHcTGGQIG580ga5g/o.jpg", "is_closed": false, "url": "https://www.yelp.com/biz/noodles-and-company-saint-paul-13?adjust_creative=a2JdNtFqB-C38ga_06BHvw&utm_campaign=yelp_api_v3&utm_medium=api_v3_business_search&utm_source=a2JdNtFqB-C38ga_06BHvw", "review_count": 36, "categories": [{"alias": "noodles", "title": "Noodles"}, {"alias": "salad", "title": "Salad"}, {"alias": "pastashops", "title": "Pasta Shops"}], "rating": 2.0, "coordinates": {"latitude": 44.9549815, "longitude": -93.1563022}, "transactions": [], "price": "$", "location": {"address1": "470 Hamline Ave N", "address2": "", "address3": "", "city": "Saint Paul", "zip_code": "55104", "country": "US", "state": "MN", "display_address": ["470 Hamline Ave N", "Saint Paul, MN 55104"]}, "phone": "+16516468285", "display_phone": "(651) 646-8285", "distance": 726.9637862628409}, {"id": "3NzG24W1A2DPpRD7uXcTMg", "alias": "subway-st-paul-25", "name": "Subway", "image_url": "https://s3-media2.fl.yelpcdn.com/bphoto/zjmlUgG0kgByaG_6BuwMHA/o.jpg", "is_closed": false, "url": "https://www.yelp.com/biz/subway-st-paul-25?adjust_creative=a2JdNtFqB-C38ga_06BHvw&utm_campaign=yelp_api_v3&utm_medium=api_v3_business_search&utm_source=a2JdNtFqB-C38ga_06BHvw", "review_count": 17, "categories": [{"alias": "sandwiches", "title": "Sandwiches"}], "rating": 2.5, "coordinates": {"latitude": 44.9399207837208, "longitude": -93.1774060508816}, "transactions": ["delivery", "pickup"], "price": "$", "location": {"address1": "1820 Grand Ave", "address2": "", "address3": "", "city": "St Paul", "zip_code": "55105", "country": "US", "state": "MN", "display_address": ["1820 Grand Ave", "St Paul, MN 55105"]}, "phone": "+16516903380", "display_phone": "(651) 690-3380", "distance": 1731.239799253429}, {"id": "9ft_kk8b6t7JH6wF1Owo_Q", "alias": "dunkin-saint-paul", "name": "Dunkin'", "image_url": "https://s3-media3.fl.yelpcdn.com/bphoto/2K0-EgyTfAZA2QschCsMXw/o.jpg", "is_closed": false, "url": "https://www.yelp.com/biz/dunkin-saint-paul?adjust_creative=a2JdNtFqB-C38ga_06BHvw&utm_campaign=yelp_api_v3&utm_medium=api_v3_business_search&utm_source=a2JdNtFqB-C38ga_06BHvw", "review_count": 19, "categories": [{"alias": "coffee", "title": "Coffee & Tea"}, {"alias": "donuts", "title": "Donuts"}, {"alias": "breakfast_brunch", "title": "Breakfast & Brunch"}], "rating": 2.5, "coordinates": {"latitude": 44.94552, "longitude": -93.16738}, "transactions": ["delivery"], "price": "$", "location": {"address1": "143 Snelling Ave N", "address2": null, "address3": null, "city": "Saint Paul", "zip_code": "55104", "country": "US", "state": "MN", "display_address": ["143 Snelling Ave N", "Saint Paul, MN 55104"]}, "phone": "+16512078595", "display_phone": "(651) 207-8595", "distance": 826.6432324869605}, {"id": "fVNHKP8eUHv9TGp9sSkfLQ", "alias": "popeyes-louisiana-kitchen-saint-paul-2", "name": "Popeyes Louisiana Kitchen", "image_url": "https://s3-media1.fl.yelpcdn.com/bphoto/0MVs_bOueyJ6qtaGtPVpRA/o.jpg", "is_closed": false, "url": "https://www.yelp.com/biz/popeyes-louisiana-kitchen-saint-paul-2?adjust_creative=a2JdNtFqB-C38ga_06BHvw&utm_campaign=yelp_api_v3&utm_medium=api_v3_business_search&utm_source=a2JdNtFqB-C38ga_06BHvw", "review_count": 18, "categories": [{"alias": "hotdogs", "title": "Fast Food"}, {"alias": "chicken_wings", "title": "Chicken Wings"}], "rating": 2.5, "coordinates": {"latitude": 44.9560263, "longitude": -93.146166}, "transactions": ["delivery"], "price": "$", "location": {"address1": "1089 University Ave W", "address2": "", "address3": "", "city": "Saint Paul", "zip_code": "55104", "country": "US", "state": "MN", "display_address": ["1089 University Ave W", "Saint Paul, MN 55104"]}, "phone": "+16512023362", "display_phone": "(651) 202-3362", "distance": 1525.4108530415026}, {"id": "XFtRSaeVlHv9nZxcH0ra1g", "alias": "subway-st-paul-29", "name": "Subway", "image_url": "https://s3-media2.fl.yelpcdn.com/bphoto/mp1kyDcjq_dATrHByuaIaQ/o.jpg", "is_closed": false, "url": "https://www.yelp.com/biz/subway-st-paul-29?adjust_creative=a2JdNtFqB-C38ga_06BHvw&utm_campaign=yelp_api_v3&utm_medium=api_v3_business_search&utm_source=a2JdNtFqB-C38ga_06BHvw", "review_count": 3, "categories": [{"alias": "sandwiches", "title": "Sandwiches"}], "rating": 4.0, "coordinates": {"latitude": 44.960587, "longitude": -93.188407}, "transactions": ["delivery", "pickup"], "price": "$", "location": {"address1": "2121 University Ave W", "address2": "", "address3": "", "city": "St Paul", "zip_code": "55114", "country": "US", "state": "MN", "display_address": ["2121 University Ave W", "St Paul, MN 55114"]}, "phone": "+16516463096", "display_phone": "(651) 646-3096", "distance": 2036.2271063518638}, {"id": "_Tact8A_2rPk8QntBItvFA", "alias": "dominos-pizza-saint-paul-26", "name": "Domino's Pizza", "image_url": "https://s3-media3.fl.yelpcdn.com/bphoto/a4nmLKoZSKcl-fjpnXgYcg/o.jpg", "is_closed": false, "url": "https://www.yelp.com/biz/dominos-pizza-saint-paul-26?adjust_creative=a2JdNtFqB-C38ga_06BHvw&utm_campaign=yelp_api_v3&utm_medium=api_v3_business_search&utm_source=a2JdNtFqB-C38ga_06BHvw", "review_count": 26, "categories": [{"alias": "pizza", "title": "Pizza"}, {"alias": "chicken_wings", "title": "Chicken Wings"}, {"alias": "sandwiches", "title": "Sandwiches"}], "rating": 2.0, "coordinates": {"latitude": 44.96773, "longitude": -93.15223}, "transactions": [], "price": "$", "location": {"address1": "1231 Pierce Butler Rte", "address2": "", "address3": "", "city": "Saint Paul", "zip_code": "55104", "country": "US", "state": "MN", "display_address": ["1231 Pierce Butler Rte", "Saint Paul, MN 55104"]}, "phone": "+16516443030", "display_phone": "(651) 644-3030", "distance": 1945.442923617901}, {"id": "lE6MjPZ8zmHSeSByH08SRw", "alias": "jimmy-johns-st-paul-11", "name": "Jimmy John's", "image_url": "https://s3-media4.fl.yelpcdn.com/bphoto/yxQ0ntR-bSyS4VfMm31l5g/o.jpg", "is_closed": false, "url": "https://www.yelp.com/biz/jimmy-johns-st-paul-11?adjust_creative=a2JdNtFqB-C38ga_06BHvw&utm_campaign=yelp_api_v3&utm_medium=api_v3_business_search&utm_source=a2JdNtFqB-C38ga_06BHvw", "review_count": 14, "categories": [{"alias": "sandwiches", "title": "Sandwiches"}, {"alias": "delis", "title": "Delis"}, {"alias": "hotdogs", "title": "Fast Food"}], "rating": 2.5, "coordinates": {"latitude": 44.96409, "longitude": -93.19972}, "transactions": ["delivery"], "price": "$", "location": {"address1": "2446 University Ave", "address2": "", "address3": "", "city": "St. Paul", "zip_code": "55114", "country": "US", "state": "MN", "display_address": ["2446 University Ave", "St. Paul, MN 55114"]}, "phone": "+16516464777", "display_phone": "(651) 646-4777", "distance": 2991.5549235137087}, {"id": "pZ2DrOYLj4C9eo_RXiwsVw", "alias": "mcdonalds-st-paul-14", "name": "McDonald's", "image_url": "https://s3-media2.fl.yelpcdn.com/bphoto/S4unxr86KGuIBJ-j94XT1w/o.jpg", "is_closed": false, "url": "https://www.yelp.com/biz/mcdonalds-st-paul-14?adjust_creative=a2JdNtFqB-C38ga_06BHvw&utm_campaign=yelp_api_v3&utm_medium=api_v3_business_search&utm_source=a2JdNtFqB-C38ga_06BHvw", "review_count": 8, "categories": [{"alias": "hotdogs", "title": "Fast Food"}, {"alias": "burgers", "title": "Burgers"}, {"alias": "coffee", "title": "Coffee & Tea"}], "rating": 3.0, "coordinates": {"latitude": 44.9620585, "longitude": -93.1913617}, "transactions": ["delivery"], "price": "$", "location": {"address1": "2213 University Ave", "address2": "", "address3": "", "city": "St. Paul", "zip_code": "55114", "country": "US", "state": "MN", "display_address": ["2213 University Ave", "St. Paul, MN 55114"]}, "phone": "+16516448333", "display_phone": "(651) 644-8333", "distance": 2316.7878510528094}, {"id": "rUBakNOyUDoCUVj9zeh6_Q", "alias": "art-songs-wings-saint-paul-2", "name": "Art Song's Wings", "image_url": "https://s3-media3.fl.yelpcdn.com/bphoto/cU6Cz5ReanxdcdxJC95dmw/o.jpg", "is_closed": false, "url": "https://www.yelp.com/biz/art-songs-wings-saint-paul-2?adjust_creative=a2JdNtFqB-C38ga_06BHvw&utm_campaign=yelp_api_v3&utm_medium=api_v3_business_search&utm_source=a2JdNtFqB-C38ga_06BHvw", "review_count": 2, "categories": [{"alias": "bbq", "title": "Barbeque"}, {"alias": "chicken_wings", "title": "Chicken Wings"}], "rating": 4.5, "coordinates": {"latitude": 44.95605, "longitude": -93.12748}, "transactions": ["delivery"], "location": {"address1": "647 University Ave W", "address2": null, "address3": null, "city": "Saint Paul", "zip_code": "55104", "country": "US", "state": "MN", "display_address": ["647 University Ave W", "Saint Paul, MN 55104"]}, "phone": "+16512249464", "display_phone": "(651) 224-9464", "distance": 2973.30458299991}, {"id": "PsVmkTVDKgoUPNjDbYvCBA", "alias": "7th-street-parlor-saint-paul", "name": "7th Street Parlor", "image_url": "", "is_closed": false, "url": "https://www.yelp.com/biz/7th-street-parlor-saint-paul?adjust_creative=a2JdNtFqB-C38ga_06BHvw&utm_campaign=yelp_api_v3&utm_medium=api_v3_business_search&utm_source=a2JdNtFqB-C38ga_06BHvw", "review_count": 2, "categories": [{"alias": "pizza", "title": "Pizza"}, {"alias": "salad", "title": "Salad"}, {"alias": "sandwiches", "title": "Sandwiches"}], "rating": 4.5, "coordinates": {"latitude": 44.926574, "longitude": -93.128936}, "transactions": ["delivery", "pickup"], "location": {"address1": "1017 7th St W", "address2": "", "address3": null, "city": "Saint Paul", "zip_code": "55102", "country": "US", "state": "MN", "display_address": ["1017 7th St W", "Saint Paul, MN 55102"]}, "phone": "+16516901893", "display_phone": "(651) 690-1893", "distance": 4068.669749120275}, {"id": "Yh54Q78WxSYJUgZf3PsRUA", "alias": "jimmy-johns-st-paul-9", "name": "Jimmy John's", "image_url": "https://s3-media3.fl.yelpcdn.com/bphoto/K3bfvtontdAAx8Pjg3qaxg/o.jpg", "is_closed": false, "url": "https://www.yelp.com/biz/jimmy-johns-st-paul-9?adjust_creative=a2JdNtFqB-C38ga_06BHvw&utm_campaign=yelp_api_v3&utm_medium=api_v3_business_search&utm_source=a2JdNtFqB-C38ga_06BHvw", "review_count": 17, "categories": [{"alias": "delis", "title": "Delis"}, {"alias": "sandwiches", "title": "Sandwiches"}, {"alias": "hotdogs", "title": "Fast Food"}], "rating": 2.0, "coordinates": {"latitude": 44.94012, "longitude": -93.14127}, "transactions": [], "price": "$", "location": {"address1": "975 Grand Ave", "address2": "", "address3": "", "city": "St. Paul", "zip_code": "55105", "country": "US", "state": "MN", "display_address": ["975 Grand Ave", "St. Paul, MN 55105"]}, "phone": "+16512222221", "display_phone": "(651) 222-2221", "distance": 2338.550477936621}, {"id": "7qo-Q1_b30gxuHTKWmg1yA", "alias": "dominos-pizza-saint-paul-27", "name": "Domino's Pizza", "image_url": "https://s3-media4.fl.yelpcdn.com/bphoto/WdQlV_ISLMXXMy4atU4FTg/o.jpg", "is_closed": false, "url": "https://www.yelp.com/biz/dominos-pizza-saint-paul-27?adjust_creative=a2JdNtFqB-C38ga_06BHvw&utm_campaign=yelp_api_v3&utm_medium=api_v3_business_search&utm_source=a2JdNtFqB-C38ga_06BHvw", "review_count": 30, "categories": [{"alias": "pizza", "title": "Pizza"}, {"alias": "chicken_wings", "title": "Chicken Wings"}, {"alias": "sandwiches", "title": "Sandwiches"}], "rating": 2.0, "coordinates": {"latitude": 44.940141, "longitude": -93.1411487}, "transactions": [], "price": "$", "location": {"address1": "975 Grand Ave", "address2": "", "address3": "", "city": "Saint Paul", "zip_code": "55105", "country": "US", "state": "MN", "display_address": ["975 Grand Ave", "Saint Paul, MN 55105"]}, "phone": "+16512243030", "display_phone": "(651) 224-3030", "distance": 2344.780762351945}, {"id": "Q_ZC13AYhPMKHsY3F7Rtsw", "alias": "dennys-saint-paul-5", "name": "Denny's", "image_url": "https://s3-media2.fl.yelpcdn.com/bphoto/okGRIx1VjIA1_LgU24y2RA/o.jpg", "is_closed": false, "url": "https://www.yelp.com/biz/dennys-saint-paul-5?adjust_creative=a2JdNtFqB-C38ga_06BHvw&utm_campaign=yelp_api_v3&utm_medium=api_v3_business_search&utm_source=a2JdNtFqB-C38ga_06BHvw", "review_count": 31, "categories": [{"alias": "diners", "title": "Diners"}, {"alias": "tradamerican", "title": "American (Traditional)"}, {"alias": "breakfast_brunch", "title": "Breakfast & Brunch"}], "rating": 2.0, "coordinates": {"latitude": 44.95537, "longitude": -93.17056}, "transactions": [], "price": "$$", "location": {"address1": "1664 University Ave W", "address2": "", "address3": null, "city": "Saint Paul", "zip_code": "55104", "country": "US", "state": "MN", "display_address": ["1664 University Ave W", "Saint Paul, MN 55104"]}, "phone": "+16513402972", "display_phone": "(651) 340-2972", "distance": 523.9156837888751}, {"id": "Ib1gm2glGURemha4tHttZg", "alias": "mcdonalds-st-paul-13", "name": "McDonald's", "image_url": "https://s3-media1.fl.yelpcdn.com/bphoto/8VYpLS9aPkUb18c906_vRg/o.jpg", "is_closed": false, "url": "https://www.yelp.com/biz/mcdonalds-st-paul-13?adjust_creative=a2JdNtFqB-C38ga_06BHvw&utm_campaign=yelp_api_v3&utm_medium=api_v3_business_search&utm_source=a2JdNtFqB-C38ga_06BHvw", "review_count": 24, "categories": [{"alias": "burgers", "title": "Burgers"}, {"alias": "hotdogs", "title": "Fast Food"}, {"alias": "coffee", "title": "Coffee & Tea"}], "rating": 2.0, "coordinates": {"latitude": 44.9553956621563, "longitude": -93.1653036959869}, "transactions": ["delivery"], "price": "$", "location": {"address1": "1570 W University Ave", "address2": "", "address3": "", "city": "St. Paul", "zip_code": "55104", "country": "US", "state": "MN", "display_address": ["1570 W University Ave", "St. Paul, MN 55104"]}, "phone": "+16516471777", "display_phone": "(651) 647-1777", "distance": 292.0498158757082}, {"id": "3REfY3mNN_pYTjP_QadJ5g", "alias": "arbys-saint-paul-12", "name": "Arby's", "image_url": "https://s3-media1.fl.yelpcdn.com/bphoto/Rae-jiJCaRU7jWtRonDGkw/o.jpg", "is_closed": false, "url": "https://www.yelp.com/biz/arbys-saint-paul-12?adjust_creative=a2JdNtFqB-C38ga_06BHvw&utm_campaign=yelp_api_v3&utm_medium=api_v3_business_search&utm_source=a2JdNtFqB-C38ga_06BHvw", "review_count": 3, "categories": [{"alias": "hotdogs", "title": "Fast Food"}, {"alias": "sandwiches", "title": "Sandwiches"}], "rating": 3.5, "coordinates": {"latitude": 44.9551963806152, "longitude": -93.1768264770508}, "transactions": ["delivery", "pickup"], "price": "$", "location": {"address1": "1810 University Ave W", "address2": "", "address3": "", "city": "Saint Paul", "zip_code": "55104", "country": "US", "state": "MN", "display_address": ["1810 University Ave W", "Saint Paul, MN 55104"]}, "phone": "+16516463003", "display_phone": "(651) 646-3003", "distance": 969.3971770943776}, {"id": "_vcZjwQqTtVytFO2VCkpOg", "alias": "subway-saint-paul-80", "name": "Subway", "image_url": "https://s3-media2.fl.yelpcdn.com/bphoto/TyLk7JrbicSAFNhxMq3MjA/o.jpg", "is_closed": false, "url": "https://www.yelp.com/biz/subway-saint-paul-80?adjust_creative=a2JdNtFqB-C38ga_06BHvw&utm_campaign=yelp_api_v3&utm_medium=api_v3_business_search&utm_source=a2JdNtFqB-C38ga_06BHvw", "review_count": 12, "categories": [{"alias": "sandwiches", "title": "Sandwiches"}], "rating": 2.0, "coordinates": {"latitude": 44.9469524, "longitude": -93.1360615779252}, "transactions": ["delivery", "pickup"], "price": "$", "location": {"address1": "857 Selby Ave", "address2": "", "address3": "", "city": "Saint Paul", "zip_code": "55104", "country": "US", "state": "MN", "display_address": ["857 Selby Ave", "Saint Paul, MN 55104"]}, "phone": "+16512246420", "display_phone": "(651) 224-6420", "distance": 2367.6570142018827}, {"id": "fYnostNMyuDNAT_d_t2_mw", "alias": "jimmy-johns-st-paul-12", "name": "Jimmy John's", "image_url": "https://s3-media2.fl.yelpcdn.com/bphoto/ofm6RjMWqzzxkWGavaQg9g/o.jpg", "is_closed": false, "url": "https://www.yelp.com/biz/jimmy-johns-st-paul-12?adjust_creative=a2JdNtFqB-C38ga_06BHvw&utm_campaign=yelp_api_v3&utm_medium=api_v3_business_search&utm_source=a2JdNtFqB-C38ga_06BHvw", "review_count": 7, "categories": [{"alias": "delis", "title": "Delis"}, {"alias": "sandwiches", "title": "Sandwiches"}, {"alias": "hotdogs", "title": "Fast Food"}], "rating": 2.5, "coordinates": {"latitude": 44.955425, "longitude": -93.1631808}, "transactions": [], "price": "$", "location": {"address1": "1532 W University Ave", "address2": null, "address3": null, "city": "St. Paul", "zip_code": "55104", "country": "US", "state": "MN", "display_address": ["1532 W University Ave", "St. Paul, MN 55104"]}, "phone": "+16514599100", "display_phone": "(651) 459-9100", "distance": 327.298356960809}, {"id": "-SW1XWd289Gf7nZqcsdntA", "alias": "el-fuego-taqueria-saint-paul", "name": "El Fuego Taqueria", "image_url": "https://s3-media1.fl.yelpcdn.com/bphoto/nSD74XC0jLHvzDd0CE0rMg/o.jpg", "is_closed": false, "url": "https://www.yelp.com/biz/el-fuego-taqueria-saint-paul?adjust_creative=a2JdNtFqB-C38ga_06BHvw&utm_campaign=yelp_api_v3&utm_medium=api_v3_business_search&utm_source=a2JdNtFqB-C38ga_06BHvw", "review_count": 2, "categories": [{"alias": "foodtrucks", "title": "Food Trucks"}, {"alias": "mexican", "title": "Mexican"}], "rating": 4.0, "coordinates": {"latitude": 44.97994, "longitude": -93.18408}, "transactions": [], "location": {"address1": null, "address2": null, "address3": null, "city": "Saint Paul", "zip_code": "55108", "country": "US", "state": "MN", "display_address": ["Saint Paul, MN 55108"]}, "phone": "+16514600570", "display_phone": "(651) 460-0570", "distance": 3336.6588808972547}, {"id": "--A0TBPmcD4aaWPh4P28lQ", "alias": "little-caesars-pizza-saint-paul-3", "name": "Little Caesar's Pizza", "image_url": "https://s3-media3.fl.yelpcdn.com/bphoto/X4uilwBr_L3SKIwczC1rsQ/o.jpg", "is_closed": false, "url": "https://www.yelp.com/biz/little-caesars-pizza-saint-paul-3?adjust_creative=a2JdNtFqB-C38ga_06BHvw&utm_campaign=yelp_api_v3&utm_medium=api_v3_business_search&utm_source=a2JdNtFqB-C38ga_06BHvw", "review_count": 18, "categories": [{"alias": "pizza", "title": "Pizza"}], "rating": 2.0, "coordinates": {"latitude": 44.9553986, "longitude": -93.1631393}, "transactions": ["pickup"], "price": "$", "location": {"address1": "1532 University Ave W", "address2": "Ste 103", "address3": "", "city": "Saint Paul", "zip_code": "55104", "country": "US", "state": "MN", "display_address": ["1532 University Ave W", "Ste 103", "Saint Paul, MN 55104"]}, "phone": "+16516452525", "display_phone": "(651) 645-2525", "distance": 321.6118299438314}, {"id": "qxS7mBZ4oIUsCQbMQu-Wqg", "alias": "subway-restaurants-st-paul-6", "name": "Subway Restaurants", "image_url": "https://s3-media1.fl.yelpcdn.com/bphoto/jFug_rzWFkz4rYlJElZQAA/o.jpg", "is_closed": false, "url": "https://www.yelp.com/biz/subway-restaurants-st-paul-6?adjust_creative=a2JdNtFqB-C38ga_06BHvw&utm_campaign=yelp_api_v3&utm_medium=api_v3_business_search&utm_source=a2JdNtFqB-C38ga_06BHvw", "review_count": 3, "categories": [{"alias": "sandwiches", "title": "Sandwiches"}], "rating": 3.5, "coordinates": {"latitude": 44.955881, "longitude": -93.154129}, "transactions": ["delivery", "pickup"], "price": "$", "location": {"address1": "1277 University Ave.", "address2": "", "address3": "", "city": "St Paul", "zip_code": "55104", "country": "US", "state": "MN", "display_address": ["1277 University Ave.", "St Paul, MN 55104"]}, "phone": "+16516479476", "display_phone": "(651) 647-9476", "distance": 921.9198223305726}, {"id": "-alE4qP6ON3jl68VJ20PMg", "alias": "hodma-st-paul", "name": "Hodma", "image_url": "https://s3-media4.fl.yelpcdn.com/bphoto/ltMsWY_OgIGfln-kdF2bJw/o.jpg", "is_closed": false, "url": "https://www.yelp.com/biz/hodma-st-paul?adjust_creative=a2JdNtFqB-C38ga_06BHvw&utm_campaign=yelp_api_v3&utm_medium=api_v3_business_search&utm_source=a2JdNtFqB-C38ga_06BHvw", "review_count": 1, "categories": [{"alias": "mediterranean", "title": "Mediterranean"}, {"alias": "steak", "title": "Steakhouses"}, {"alias": "sandwiches", "title": "Sandwiches"}], "rating": 5.0, "coordinates": {"latitude": 44.9561381466841, "longitude": -93.1507309153676}, "transactions": [], "location": {"address1": "1197 University Ave W", "address2": "", "address3": null, "city": "St Paul", "zip_code": "55104", "country": "US", "state": "MN", "display_address": ["1197 University Ave W", "St Paul, MN 55104"]}, "phone": "+16512074604", "display_phone": "(651) 207-4604", "distance": 1183.3541530411753}, {"id": "SedIXGVsupvgSp8IJuaeDA", "alias": "jimmy-johns-st-paul-16", "name": "Jimmy John's", "image_url": "https://s3-media3.fl.yelpcdn.com/bphoto/uVfATtXt18Atx4-b7bSAHA/o.jpg", "is_closed": false, "url": "https://www.yelp.com/biz/jimmy-johns-st-paul-16?adjust_creative=a2JdNtFqB-C38ga_06BHvw&utm_campaign=yelp_api_v3&utm_medium=api_v3_business_search&utm_source=a2JdNtFqB-C38ga_06BHvw", "review_count": 5, "categories": [{"alias": "sandwiches", "title": "Sandwiches"}, {"alias": "hotdogs", "title": "Fast Food"}, {"alias": "delis", "title": "Delis"}], "rating": 2.5, "coordinates": {"latitude": 44.9435663, "longitude": -93.1658865}, "transactions": [], "price": "$", "location": {"address1": "80 Snelling Ave N", "address2": "Ste C", "address3": "", "city": "St. Paul", "zip_code": "55104", "country": "US", "state": "MN", "display_address": ["80 Snelling Ave N", "Ste C", "St. Paul, MN 55104"]}, "phone": "+16512224444", "display_phone": "(651) 222-4444", "distance": 1026.6663152339331}, {"id": "rH-xKL8Ey7bzrPw18-3WDg", "alias": "brueggers-bagels-saint-paul-17", "name": "Bruegger's Bagels", "image_url": "https://s3-media3.fl.yelpcdn.com/bphoto/4YxaZA2SUJWaOKiJQTi0fw/o.jpg", "is_closed": false, "url": "https://www.yelp.com/biz/brueggers-bagels-saint-paul-17?adjust_creative=a2JdNtFqB-C38ga_06BHvw&utm_campaign=yelp_api_v3&utm_medium=api_v3_business_search&utm_source=a2JdNtFqB-C38ga_06BHvw", "review_count": 9, "categories": [{"alias": "bagels", "title": "Bagels"}, {"alias": "breakfast_brunch", "title": "Breakfast & Brunch"}, {"alias": "sandwiches", "title": "Sandwiches"}], "rating": 2.0, "coordinates": {"latitude": 44.974713, "longitude": -93.194481}, "transactions": ["delivery"], "price": "$$", "location": {"address1": "2233 Energy Park Dr", "address2": "Ste 100", "address3": "", "city": "Saint Paul", "zip_code": "55108", "country": "US", "state": "MN", "display_address": ["2233 Energy Park Dr", "Ste 100", "Saint Paul, MN 55108"]}, "phone": "+16516468632", "display_phone": "(651) 646-8632", "distance": 3365.840853705668}, {"id": "Bz_hBriuaf2QfuZNgpXvmg", "alias": "central-school-cafeteria-saint-paul", "name": "Central School Cafeteria", "image_url": "https://s3-media1.fl.yelpcdn.com/bphoto/T7I2cGDl4A1lN_C7FJ_sJw/o.jpg", "is_closed": false, "url": "https://www.yelp.com/biz/central-school-cafeteria-saint-paul?adjust_creative=a2JdNtFqB-C38ga_06BHvw&utm_campaign=yelp_api_v3&utm_medium=api_v3_business_search&utm_source=a2JdNtFqB-C38ga_06BHvw", "review_count": 3, "categories": [{"alias": "cafeteria", "title": "Cafeteria"}], "rating": 2.5, "coordinates": {"latitude": 44.9489377074068, "longitude": -93.1481407771753}, "transactions": [], "location": {"address1": "275 Lexington Pkwy N", "address2": "", "address3": "", "city": "Saint Paul", "zip_code": "55104", "country": "US", "state": "MN", "display_address": ["275 Lexington Pkwy N", "Saint Paul, MN 55104"]}, "phone": "+16516326000", "display_phone": "(651) 632-6000", "distance": 1393.747478632118}, {"id": "PzGVb5AQk2Oxqd7mWRcQlQ", "alias": "netza-tacos-truck-saint-paul", "name": "Netza Tacos Truck", "image_url": "https://s3-media1.fl.yelpcdn.com/bphoto/EcVQLAyGSkm9ivUX-D4BIg/o.jpg", "is_closed": false, "url": "https://www.yelp.com/biz/netza-tacos-truck-saint-paul?adjust_creative=a2JdNtFqB-C38ga_06BHvw&utm_campaign=yelp_api_v3&utm_medium=api_v3_business_search&utm_source=a2JdNtFqB-C38ga_06BHvw", "review_count": 2, "categories": [{"alias": "foodtrucks", "title": "Food Trucks"}, {"alias": "mexican", "title": "Mexican"}], "rating": 3.0, "coordinates": {"latitude": 44.948801, "longitude": -93.1865567}, "transactions": [], "location": {"address1": "2045 Marshall Ave", "address2": "", "address3": null, "city": "Saint Paul", "zip_code": "55104", "country": "US", "state": "MN", "display_address": ["2045 Marshall Ave", "Saint Paul, MN 55104"]}, "phone": "", "display_phone": "", "distance": 1753.0780325128585}, {"id": "5aYHPfRh2Yd9p0Zq01bVDw", "alias": "thai-esan-saint-paul-2", "name": "Thai Esan", "image_url": "", "is_closed": false, "url": "https://www.yelp.com/biz/thai-esan-saint-paul-2?adjust_creative=a2JdNtFqB-C38ga_06BHvw&utm_campaign=yelp_api_v3&utm_medium=api_v3_business_search&utm_source=a2JdNtFqB-C38ga_06BHvw", "review_count": 1, "categories": [{"alias": "thai", "title": "Thai"}], "rating": 4.0, "coordinates": {"latitude": 44.9643078446388, "longitude": -93.1278768181801}, "transactions": [], "location": {"address1": "630 Pierce Butler Rt", "address2": "", "address3": "", "city": "Saint Paul", "zip_code": "55104", "country": "US", "state": "MN", "display_address": ["630 Pierce Butler Rt", "Saint Paul, MN 55104"]}, "phone": "", "display_phone": "", "distance": 3238.9732282682166}, {"id": "98qWrs818JUCI2-xNp0Szw", "alias": "eliseas-snack-shop-saint-paul", "name": "Elisea's Snack Shop", "image_url": "https://s3-media4.fl.yelpcdn.com/bphoto/RUB4Bgy4yEKUnjMR3zYlyw/o.jpg", "is_closed": false, "url": "https://www.yelp.com/biz/eliseas-snack-shop-saint-paul?adjust_creative=a2JdNtFqB-C38ga_06BHvw&utm_campaign=yelp_api_v3&utm_medium=api_v3_business_search&utm_source=a2JdNtFqB-C38ga_06BHvw", "review_count": 1, "categories": [{"alias": "hotdogs", "title": "Fast Food"}, {"alias": "convenience", "title": "Convenience Stores"}], "rating": 4.0, "coordinates": {"latitude": 44.957394, "longitude": -93.17952}, "transactions": [], "location": {"address1": "1885 University Ave W", "address2": "Ste 100", "address3": "", "city": "Saint Paul", "zip_code": "55104", "country": "US", "state": "MN", "display_address": ["1885 University Ave W", "Ste 100", "Saint Paul, MN 55104"]}, "phone": "+16512078574", "display_phone": "(651) 207-8574", "distance": 1253.4594860985233}, {"id": "wfv5jmdVBjd1ntOiNCZPlA", "alias": "mike-s-tav-on-the-ave-saint-paul", "name": "Mike’s Tav on The Ave", "image_url": "", "is_closed": false, "url": "https://www.yelp.com/biz/mike-s-tav-on-the-ave-saint-paul?adjust_creative=a2JdNtFqB-C38ga_06BHvw&utm_campaign=yelp_api_v3&utm_medium=api_v3_business_search&utm_source=a2JdNtFqB-C38ga_06BHvw", "review_count": 1, "categories": [{"alias": "chicken_wings", "title": "Chicken Wings"}, {"alias": "tradamerican", "title": "American (Traditional)"}, {"alias": "beerbar", "title": "Beer Bar"}], "rating": 4.0, "coordinates": {"latitude": 44.92741207206333, "longitude": -93.16671}, "transactions": [], "location": {"address1": "472 Snelling Ave S", "address2": "", "address3": null, "city": "Saint Paul", "zip_code": "55105", "country": "US", "state": "MN", "display_address": ["472 Snelling Ave S", "Saint Paul, MN 55105"]}, "phone": "+16517887369", "display_phone": "(651) 788-7369", "distance": 2823.7687846782037}, {"id": "VsqimUp3E6xL_7EHsS-f-A", "alias": "fresh-seasons-cafe-saint-paul", "name": "Fresh Seasons Cafe", "image_url": "https://s3-media4.fl.yelpcdn.com/bphoto/oqHfGAGiDUgYOA8KIjOmHA/o.jpg", "is_closed": false, "url": "https://www.yelp.com/biz/fresh-seasons-cafe-saint-paul?adjust_creative=a2JdNtFqB-C38ga_06BHvw&utm_campaign=yelp_api_v3&utm_medium=api_v3_business_search&utm_source=a2JdNtFqB-C38ga_06BHvw", "review_count": 1, "categories": [{"alias": "cafes", "title": "Cafes"}], "rating": 4.0, "coordinates": {"latitude": 44.942138, "longitude": -93.137702}, "transactions": [], "location": {"address1": "875 Summit Ave", "address2": "", "address3": "William Mitchell College", "city": "Saint Paul", "zip_code": "55104", "country": "US", "state": "MN", "display_address": ["875 Summit Ave", "William Mitchell College", "Saint Paul, MN 55104"]}, "phone": "", "display_phone": "", "distance": 2439.209438016466}, {"id": "wODvblm2PO5Dpe3UYk5NcA", "alias": "cajun-kitchen-saint-paul", "name": "Cajun Kitchen", "image_url": "https://s3-media1.fl.yelpcdn.com/bphoto/XeNzNIi33qqecmRVDiOTRw/o.jpg", "is_closed": false, "url": "https://www.yelp.com/biz/cajun-kitchen-saint-paul?adjust_creative=a2JdNtFqB-C38ga_06BHvw&utm_campaign=yelp_api_v3&utm_medium=api_v3_business_search&utm_source=a2JdNtFqB-C38ga_06BHvw", "review_count": 1, "categories": [{"alias": "seafood", "title": "Seafood"}, {"alias": "desserts", "title": "Desserts"}, {"alias": "cajun", "title": "Cajun/Creole"}], "rating": 4.0, "coordinates": {"latitude": 44.95478395066979, "longitude": -93.15838781983754}, "transactions": [], "location": {"address1": "1360 University Ave W", "address2": "Ste 101", "address3": "", "city": "Saint Paul", "zip_code": "55104", "country": "US", "state": "MN", "display_address": ["1360 University Ave W", "Ste 101", "Saint Paul, MN 55104"]}, "phone": "+16516456666", "display_phone": "(651) 645-6666", "distance": 566.1068186409382}, {"id": "vL1gTfWfwavNwpH55pUT3A", "alias": "midway-cafe-and-grill-saint-paul-2", "name": "Midway Cafe and Grill", "image_url": "", "is_closed": false, "url": "https://www.yelp.com/biz/midway-cafe-and-grill-saint-paul-2?adjust_creative=a2JdNtFqB-C38ga_06BHvw&utm_campaign=yelp_api_v3&utm_medium=api_v3_business_search&utm_source=a2JdNtFqB-C38ga_06BHvw", "review_count": 1, "categories": [{"alias": "breakfast_brunch", "title": "Breakfast & Brunch"}, {"alias": "tradamerican", "title": "American (Traditional)"}], "rating": 4.0, "coordinates": {"latitude": 44.95749, "longitude": -93.18312}, "transactions": ["delivery", "pickup"], "location": {"address1": "1964 University Ave W", "address2": null, "address3": "", "city": "Saint Paul", "zip_code": "55104", "country": "US", "state": "MN", "display_address": ["1964 University Ave W", "Saint Paul, MN 55104"]}, "phone": "+16516469522", "display_phone": "(651) 646-9522", "distance": 1510.8244899226258}, {"id": "HiK3-1Pu8jZHRFWh672nkA", "alias": "wendys-st-paul-4", "name": "Wendy's", "image_url": "https://s3-media3.fl.yelpcdn.com/bphoto/0KWsb_QnfRnSsEzNuEmwjg/o.jpg", "is_closed": false, "url": "https://www.yelp.com/biz/wendys-st-paul-4?adjust_creative=a2JdNtFqB-C38ga_06BHvw&utm_campaign=yelp_api_v3&utm_medium=api_v3_business_search&utm_source=a2JdNtFqB-C38ga_06BHvw", "review_count": 11, "categories": [{"alias": "hotdogs", "title": "Fast Food"}, {"alias": "burgers", "title": "Burgers"}], "rating": 1.5, "coordinates": {"latitude": 44.95532, "longitude": -93.17549}, "transactions": ["delivery"], "price": "$", "location": {"address1": "1770 University Ave W.", "address2": "", "address3": "", "city": "St.Paul", "zip_code": "55104", "country": "US", "state": "MN", "display_address": ["1770 University Ave W.", "St.Paul, MN 55104"]}, "phone": "+16516470751", "display_phone": "(651) 647-0751", "distance": 876.9950253217759}, {"id": "Jx2l-lv1A5K4dTwppMxPcA", "alias": "the-shanty-at-o-garas-saint-paul", "name": "The Shanty at O'Gara's", "image_url": "https://s3-media2.fl.yelpcdn.com/bphoto/O8m6W_sPmUn18n4iayoQDA/o.jpg", "is_closed": false, "url": "https://www.yelp.com/biz/the-shanty-at-o-garas-saint-paul?adjust_creative=a2JdNtFqB-C38ga_06BHvw&utm_campaign=yelp_api_v3&utm_medium=api_v3_business_search&utm_source=a2JdNtFqB-C38ga_06BHvw", "review_count": 3, "categories": [{"alias": "bars", "title": "Bars"}, {"alias": "tradamerican", "title": "American (Traditional)"}, {"alias": "musicvenues", "title": "Music Venues"}], "rating": 2.0, "coordinates": {"latitude": 44.9461403, "longitude": -93.1663818}, "transactions": [], "price": "$$", "location": {"address1": "164 N Snelling Ave", "address2": "", "address3": "", "city": "Saint Paul", "zip_code": "55104", "country": "US", "state": "MN", "display_address": ["164 N Snelling Ave", "Saint Paul, MN 55104"]}, "phone": "+16516443333", "display_phone": "(651) 644-3333", "distance": 754.2220804058232}, {"id": "ttIBk_eqDol7MiWjnPPJUw", "alias": "the-piper-grill-saint-paul", "name": "The Piper Grill", "image_url": "https://s3-media3.fl.yelpcdn.com/bphoto/7YW66BAU6upD6OAWLCfmHQ/o.jpg", "is_closed": false, "url": "https://www.yelp.com/biz/the-piper-grill-saint-paul?adjust_creative=a2JdNtFqB-C38ga_06BHvw&utm_campaign=yelp_api_v3&utm_medium=api_v3_business_search&utm_source=a2JdNtFqB-C38ga_06BHvw", "review_count": 1, "categories": [{"alias": "cafeteria", "title": "Cafeteria"}], "rating": 3.0, "coordinates": {"latitude": 44.9645566151115, "longitude": -93.1665792808568}, "transactions": [], "location": {"address1": "1536 Hewitt Ave", "address2": "", "address3": null, "city": "Saint Paul", "zip_code": "55104", "country": "US", "state": "MN", "display_address": ["1536 Hewitt Ave", "Saint Paul, MN 55104"]}, "phone": "", "display_phone": "", "distance": 1315.6024664179563}, {"id": "rvdFNLIxQPNR1nl1En9mZw", "alias": "fortune-family-saint-paul", "name": "Fortune Family", "image_url": "https://s3-media1.fl.yelpcdn.com/bphoto/ltStzz8kOwYrpkyI-x_1kg/o.jpg", "is_closed": false, "url": "https://www.yelp.com/biz/fortune-family-saint-paul?adjust_creative=a2JdNtFqB-C38ga_06BHvw&utm_campaign=yelp_api_v3&utm_medium=api_v3_business_search&utm_source=a2JdNtFqB-C38ga_06BHvw", "review_count": 1, "categories": [{"alias": "delis", "title": "Delis"}, {"alias": "asianfusion", "title": "Asian Fusion"}], "rating": 1.0, "coordinates": {"latitude": 44.9559517280153, "longitude": -93.1424385309219}, "transactions": [], "location": {"address1": "995 University Ave W", "address2": "Ste 101", "address3": null, "city": "Saint Paul", "zip_code": "55104", "country": "US", "state": "MN", "display_address": ["995 University Ave W", "Ste 101", "Saint Paul, MN 55104"]}, "phone": "+17158291889", "display_phone": "(715) 829-1889", "distance": 1810.078985954928}], "absolute total": 174, "total": 174}