{"league": "MLS", "team": "Philadelphia Union", "stadium": "Subaru Park", "stadium latitude": 39.832221999999994, "stadium longitude": -75.378889, "radius": "3000 meters", "city": "Chester", "state": "Pennsylvania", "businesses": [{"id": "3TkP4w6zJc473_jgaTTfKA", "alias": "upland-diner-upland", "name": "Upland Diner", "image_url": "https://s3-media3.fl.yelpcdn.com/bphoto/iLeLx_7b4NX8Pz9Uy247hg/o.jpg", "is_closed": false, "url": "https://www.yelp.com/biz/upland-diner-upland?adjust_creative=a2JdNtFqB-C38ga_06BHvw&utm_campaign=yelp_api_v3&utm_medium=api_v3_business_search&utm_source=a2JdNtFqB-C38ga_06BHvw", "review_count": 50, "categories": [{"alias": "diners", "title": "Diners"}, {"alias": "burgers", "title": "Burgers"}, {"alias": "breakfast_brunch", "title": "Breakfast & Brunch"}], "rating": 4.0, "coordinates": {"latitude": 39.858138, "longitude": -75.371862}, "transactions": ["pickup", "delivery"], "price": "$", "location": {"address1": "1000 Upland Ave", "address2": "", "address3": "", "city": "Upland", "zip_code": "19013", "country": "US", "state": "PA", "display_address": ["1000 Upland Ave", "Upland, PA 19013"]}, "phone": "+16108726545", "display_phone": "(610) 872-6545", "distance": 2940.6531373245116}, {"id": "qFmv6Q2AYgUhpEaeyki7Vw", "alias": "just-pizza-chester", "name": "Just Pizza", "image_url": "https://s3-media3.fl.yelpcdn.com/bphoto/x-lw6S6lNpE-aT1ze_YMaA/o.jpg", "is_closed": false, "url": "https://www.yelp.com/biz/just-pizza-chester?adjust_creative=a2JdNtFqB-C38ga_06BHvw&utm_campaign=yelp_api_v3&utm_medium=api_v3_business_search&utm_source=a2JdNtFqB-C38ga_06BHvw", "review_count": 16, "categories": [{"alias": "pizza", "title": "Pizza"}], "rating": 4.5, "coordinates": {"latitude": 39.8357429504395, "longitude": -75.3951110839844}, "transactions": ["pickup", "delivery"], "price": "$$", "location": {"address1": "2801 W 9th St", "address2": "", "address3": "", "city": "Chester", "zip_code": "19013", "country": "US", "state": "PA", "display_address": ["2801 W 9th St", "Chester, PA 19013"]}, "phone": "+16104941111", "display_phone": "(610) 494-1111", "distance": 1439.413976471975}, {"id": "3Wy07WnKVgYGSosYgx4pxw", "alias": "furillos-sandwich-shop-chester", "name": "Furillo's Sandwich Shop", "image_url": "https://s3-media3.fl.yelpcdn.com/bphoto/LDSbOSlSdi7s45STNjFveQ/o.jpg", "is_closed": false, "url": "https://www.yelp.com/biz/furillos-sandwich-shop-chester?adjust_creative=a2JdNtFqB-C38ga_06BHvw&utm_campaign=yelp_api_v3&utm_medium=api_v3_business_search&utm_source=a2JdNtFqB-C38ga_06BHvw", "review_count": 14, "categories": [{"alias": "grocery", "title": "Grocery"}, {"alias": "sandwiches", "title": "Sandwiches"}, {"alias": "cheesesteaks", "title": "Cheesesteaks"}], "rating": 4.5, "coordinates": {"latitude": 39.84931, "longitude": -75.37169}, "transactions": [], "location": {"address1": "927 Kerlin St", "address2": "", "address3": "", "city": "Chester", "zip_code": "19013", "country": "US", "state": "PA", "display_address": ["927 Kerlin St", "Chester, PA 19013"]}, "phone": "+16108766474", "display_phone": "(610) 876-6474", "distance": 1991.4343447002261}, {"id": "ASEt7HnmxVXYr3fezrahCA", "alias": "obs-jamaican-restaurant-chester", "name": "Ob's Jamaican Restaurant", "image_url": "https://s3-media1.fl.yelpcdn.com/bphoto/onzq1Yh0xEclXt6VQ1qfcg/o.jpg", "is_closed": false, "url": "https://www.yelp.com/biz/obs-jamaican-restaurant-chester?adjust_creative=a2JdNtFqB-C38ga_06BHvw&utm_campaign=yelp_api_v3&utm_medium=api_v3_business_search&utm_source=a2JdNtFqB-C38ga_06BHvw", "review_count": 24, "categories": [{"alias": "caribbean", "title": "Caribbean"}], "rating": 3.5, "coordinates": {"latitude": 39.84072, "longitude": -75.37164}, "transactions": ["pickup", "delivery"], "price": "$", "location": {"address1": "1000 W 2nd St", "address2": null, "address3": null, "city": "Chester", "zip_code": "19013", "country": "US", "state": "PA", "display_address": ["1000 W 2nd St", "Chester, PA 19013"]}, "phone": "+16108744530", "display_phone": "(610) 874-4530", "distance": 1130.3324262212548}, {"id": "7jCKXwau87h2YJI3fn5bIw", "alias": "two-js-sandwich-shop-chester", "name": "Two J's Sandwich Shop", "image_url": "https://s3-media2.fl.yelpcdn.com/bphoto/QQ83Hb4ErcbdamBZZhU3Ig/o.jpg", "is_closed": false, "url": "https://www.yelp.com/biz/two-js-sandwich-shop-chester?adjust_creative=a2JdNtFqB-C38ga_06BHvw&utm_campaign=yelp_api_v3&utm_medium=api_v3_business_search&utm_source=a2JdNtFqB-C38ga_06BHvw", "review_count": 11, "categories": [{"alias": "delis", "title": "Delis"}], "rating": 4.0, "coordinates": {"latitude": 39.83516, "longitude": -75.39361}, "transactions": ["pickup", "delivery"], "location": {"address1": "619 Highland Ave", "address2": "", "address3": "", "city": "Chester", "zip_code": "19013", "country": "US", "state": "PA", "display_address": ["619 Highland Ave", "Chester, PA 19013"]}, "phone": "+16104942974", "display_phone": "(610) 494-2974", "distance": 1302.6416243314666}, {"id": "6wpBGLsJaaox7ab4wrGXLA", "alias": "guy-fieris-philly-kitchen-bar-chester-2", "name": "Guy Fieri's Philly Kitchen + Bar", "image_url": "https://s3-media1.fl.yelpcdn.com/bphoto/i1wPOEobAHu_2MKDfXsFEg/o.jpg", "is_closed": false, "url": "https://www.yelp.com/biz/guy-fieris-philly-kitchen-bar-chester-2?adjust_creative=a2JdNtFqB-C38ga_06BHvw&utm_campaign=yelp_api_v3&utm_medium=api_v3_business_search&utm_source=a2JdNtFqB-C38ga_06BHvw", "review_count": 128, "categories": [{"alias": "desserts", "title": "Desserts"}, {"alias": "bars", "title": "Bars"}, {"alias": "newamerican", "title": "American (New)"}], "rating": 2.5, "coordinates": {"latitude": 39.8511737, "longitude": -75.3484632}, "transactions": [], "price": "$$", "location": {"address1": "777 Harrahs Blvd", "address2": null, "address3": "", "city": "Chester", "zip_code": "19013", "country": "US", "state": "PA", "display_address": ["777 Harrahs Blvd", "Chester, PA 19013"]}, "phone": "+14844901715", "display_phone": "(484) 490-1715", "distance": 3344.958449539496}, {"id": "nCZR84HJcR1MTjDrJfHkcg", "alias": "the-munchy-machine-trainer", "name": "The Munchy Machine", "image_url": "https://s3-media3.fl.yelpcdn.com/bphoto/3Bs2m2QQCYzpWtTRg3R3nQ/o.jpg", "is_closed": false, "url": "https://www.yelp.com/biz/the-munchy-machine-trainer?adjust_creative=a2JdNtFqB-C38ga_06BHvw&utm_campaign=yelp_api_v3&utm_medium=api_v3_business_search&utm_source=a2JdNtFqB-C38ga_06BHvw", "review_count": 5, "categories": [{"alias": "foodtrucks", "title": "Food Trucks"}, {"alias": "comfortfood", "title": "Comfort Food"}], "rating": 4.5, "coordinates": {"latitude": 39.8310654, "longitude": -75.4063156}, "transactions": ["delivery"], "location": {"address1": "4002 W 9th St", "address2": null, "address3": "", "city": "Trainer", "zip_code": "19061", "country": "US", "state": "PA", "display_address": ["4002 W 9th St", "Trainer, PA 19061"]}, "phone": "+14845216019", "display_phone": "(484) 521-6019", "distance": 2345.480797323382}, {"id": "V3eL0gjVdVaC-Bd1WdCYEw", "alias": "chef-reekys-chester", "name": "Chef Reeky's", "image_url": "https://s3-media2.fl.yelpcdn.com/bphoto/zli4VnSGrcSvHfhYyoZfUw/o.jpg", "is_closed": false, "url": "https://www.yelp.com/biz/chef-reekys-chester?adjust_creative=a2JdNtFqB-C38ga_06BHvw&utm_campaign=yelp_api_v3&utm_medium=api_v3_business_search&utm_source=a2JdNtFqB-C38ga_06BHvw", "review_count": 8, "categories": [{"alias": "breakfast_brunch", "title": "Breakfast & Brunch"}, {"alias": "comfortfood", "title": "Comfort Food"}], "rating": 4.0, "coordinates": {"latitude": 39.858241, "longitude": -75.360943}, "transactions": ["pickup", "delivery"], "location": {"address1": "1300 Providence Ave", "address2": "", "address3": null, "city": "Chester", "zip_code": "19013", "country": "US", "state": "PA", "display_address": ["1300 Providence Ave", "Chester, PA 19013"]}, "phone": "+14844808846", "display_phone": "(484) 480-8846", "distance": 3268.6866410928524}, {"id": "BXVmIZlRe4n7v_WH8zzVjg", "alias": "the-cove-steakhouse-and-raw-bar-chester-3", "name": "The Cove Steakhouse & Raw Bar", "image_url": "https://s3-media2.fl.yelpcdn.com/bphoto/far7E0-t3xt9_hP3EkNiuA/o.jpg", "is_closed": false, "url": "https://www.yelp.com/biz/the-cove-steakhouse-and-raw-bar-chester-3?adjust_creative=a2JdNtFqB-C38ga_06BHvw&utm_campaign=yelp_api_v3&utm_medium=api_v3_business_search&utm_source=a2JdNtFqB-C38ga_06BHvw", "review_count": 37, "categories": [{"alias": "steak", "title": "Steakhouses"}], "rating": 3.0, "coordinates": {"latitude": 39.8510834, "longitude": -75.3482976}, "transactions": ["pickup", "delivery"], "price": "$$$", "location": {"address1": "777 Harrah's Blvd", "address2": null, "address3": "", "city": "Chester", "zip_code": "19013", "country": "US", "state": "PA", "display_address": ["777 Harrah's Blvd", "Chester, PA 19013"]}, "phone": "+14844901816", "display_phone": "(484) 490-1816", "distance": 3349.655515828325}, {"id": "vA0q8FHsVc7kSF8sZfzeqg", "alias": "brothers-restaurant-and-juice-bar-chester", "name": "Brothers Restaurant and Juice Bar", "image_url": "https://s3-media3.fl.yelpcdn.com/bphoto/yj0SooBsOv7kHKP7p1sigA/o.jpg", "is_closed": false, "url": "https://www.yelp.com/biz/brothers-restaurant-and-juice-bar-chester?adjust_creative=a2JdNtFqB-C38ga_06BHvw&utm_campaign=yelp_api_v3&utm_medium=api_v3_business_search&utm_source=a2JdNtFqB-C38ga_06BHvw", "review_count": 6, "categories": [{"alias": "juicebars", "title": "Juice Bars & Smoothies"}, {"alias": "breakfast_brunch", "title": "Breakfast & Brunch"}, {"alias": "chicken_wings", "title": "Chicken Wings"}], "rating": 4.0, "coordinates": {"latitude": 39.84804, "longitude": -75.36069}, "transactions": [], "location": {"address1": "16 W 5th St", "address2": null, "address3": null, "city": "Chester", "zip_code": "19013", "country": "US", "state": "PA", "display_address": ["16 W 5th St", "Chester, PA 19013"]}, "phone": "+16108743868", "display_phone": "(610) 874-3868", "distance": 2345.2513061406744}, {"id": "ELNFupeJzlQcJyH4sLn12A", "alias": "ginns-restaurant-and-bar-chester", "name": "Ginn's Restaurant & Bar", "image_url": "", "is_closed": false, "url": "https://www.yelp.com/biz/ginns-restaurant-and-bar-chester?adjust_creative=a2JdNtFqB-C38ga_06BHvw&utm_campaign=yelp_api_v3&utm_medium=api_v3_business_search&utm_source=a2JdNtFqB-C38ga_06BHvw", "review_count": 3, "categories": [{"alias": "bbq", "title": "Barbeque"}], "rating": 5.0, "coordinates": {"latitude": 39.84213, "longitude": -75.36799}, "transactions": ["delivery"], "location": {"address1": "700 W 2nd St", "address2": "", "address3": "", "city": "Chester", "zip_code": "19013", "country": "US", "state": "PA", "display_address": ["700 W 2nd St", "Chester, PA 19013"]}, "phone": "+16108765448", "display_phone": "(610) 876-5448", "distance": 1446.5840014908226}, {"id": "wI1HoJPetmjK49lr3avo_A", "alias": "aunt-b-s-country-kitchen-chester", "name": "Aunt B’s Country Kitchen", "image_url": "https://s3-media1.fl.yelpcdn.com/bphoto/UFJqutPZz4nvkaVWJiN4ig/o.jpg", "is_closed": false, "url": "https://www.yelp.com/biz/aunt-b-s-country-kitchen-chester?adjust_creative=a2JdNtFqB-C38ga_06BHvw&utm_campaign=yelp_api_v3&utm_medium=api_v3_business_search&utm_source=a2JdNtFqB-C38ga_06BHvw", "review_count": 6, "categories": [{"alias": "breakfast_brunch", "title": "Breakfast & Brunch"}, {"alias": "burgers", "title": "Burgers"}, {"alias": "sandwiches", "title": "Sandwiches"}], "rating": 3.5, "coordinates": {"latitude": 39.835588, "longitude": -75.387378}, "transactions": ["pickup", "delivery"], "location": {"address1": "2300 W 4th St", "address2": null, "address3": "", "city": "Chester", "zip_code": "19013", "country": "US", "state": "PA", "display_address": ["2300 W 4th St", "Chester, PA 19013"]}, "phone": "+14844746779", "display_phone": "(484) 474-6779", "distance": 817.2585827264904}, {"id": "giDsHBlGhHwqNZkmOV9aYQ", "alias": "philly-tap-and-tavern-chester-3", "name": "Philly Tap & Tavern", "image_url": "https://s3-media1.fl.yelpcdn.com/bphoto/uQS39gF_FCRT8KXHpTe-rw/o.jpg", "is_closed": false, "url": "https://www.yelp.com/biz/philly-tap-and-tavern-chester-3?adjust_creative=a2JdNtFqB-C38ga_06BHvw&utm_campaign=yelp_api_v3&utm_medium=api_v3_business_search&utm_source=a2JdNtFqB-C38ga_06BHvw", "review_count": 17, "categories": [{"alias": "newamerican", "title": "American (New)"}], "rating": 2.5, "coordinates": {"latitude": 39.8515396, "longitude": -75.3488693}, "transactions": [], "price": "$$", "location": {"address1": "777 Harrahs Blvd", "address2": "", "address3": "", "city": "Chester", "zip_code": "19013", "country": "US", "state": "PA", "display_address": ["777 Harrahs Blvd", "Chester, PA 19013"]}, "phone": "+14844901715", "display_phone": "(484) 490-1715", "distance": 3324.3184833841387}, {"id": "xntpvUMDhIocGw1FAvEVeg", "alias": "mien-noodles-chester-2", "name": "Mien Noodles", "image_url": "https://s3-media3.fl.yelpcdn.com/bphoto/zvm6hzcohN9dEBk0SVaXIg/o.jpg", "is_closed": false, "url": "https://www.yelp.com/biz/mien-noodles-chester-2?adjust_creative=a2JdNtFqB-C38ga_06BHvw&utm_campaign=yelp_api_v3&utm_medium=api_v3_business_search&utm_source=a2JdNtFqB-C38ga_06BHvw", "review_count": 8, "categories": [{"alias": "noodles", "title": "Noodles"}, {"alias": "panasian", "title": "Pan Asian"}], "rating": 3.5, "coordinates": {"latitude": 39.851538, "longitude": -75.3488676}, "transactions": ["delivery"], "price": "$$", "location": {"address1": "777 Harrah's Blvd", "address2": "", "address3": "", "city": "Chester", "zip_code": "19013", "country": "US", "state": "PA", "display_address": ["777 Harrah's Blvd", "Chester, PA 19013"]}, "phone": "+14844901800", "display_phone": "(484) 490-1800", "distance": 3324.3184833841387}, {"id": "ydpTeUOS3fvu3uP47s-_Nw", "alias": "tm-cafe-chester", "name": "TM Cafe", "image_url": "https://s3-media2.fl.yelpcdn.com/bphoto/MGF-ybuBgj_EYZ2cx6h8tQ/o.jpg", "is_closed": false, "url": "https://www.yelp.com/biz/tm-cafe-chester?adjust_creative=a2JdNtFqB-C38ga_06BHvw&utm_campaign=yelp_api_v3&utm_medium=api_v3_business_search&utm_source=a2JdNtFqB-C38ga_06BHvw", "review_count": 4, "categories": [{"alias": "diners", "title": "Diners"}, {"alias": "cafes", "title": "Cafes"}], "rating": 4.0, "coordinates": {"latitude": 39.8406647158852, "longitude": -75.3715160116553}, "transactions": ["delivery"], "location": {"address1": "1000 W 2nd St", "address2": "", "address3": null, "city": "Chester", "zip_code": "19013", "country": "US", "state": "PA", "display_address": ["1000 W 2nd St", "Chester, PA 19013"]}, "phone": "+16108741110", "display_phone": "(610) 874-1110", "distance": 1130.3241039613422}, {"id": "rSTPYjAZUNWJQXa_slcuOQ", "alias": "chester-pizzeria-chester", "name": "Chester Pizzeria", "image_url": "", "is_closed": false, "url": "https://www.yelp.com/biz/chester-pizzeria-chester?adjust_creative=a2JdNtFqB-C38ga_06BHvw&utm_campaign=yelp_api_v3&utm_medium=api_v3_business_search&utm_source=a2JdNtFqB-C38ga_06BHvw", "review_count": 4, "categories": [{"alias": "pizza", "title": "Pizza"}, {"alias": "sandwiches", "title": "Sandwiches"}], "rating": 4.0, "coordinates": {"latitude": 39.85078, "longitude": -75.36111}, "transactions": [], "price": "$", "location": {"address1": "34 E 7th St", "address2": "", "address3": "", "city": "Chester", "zip_code": "19013", "country": "US", "state": "PA", "display_address": ["34 E 7th St", "Chester, PA 19013"]}, "phone": "+16108767222", "display_phone": "(610) 876-7222", "distance": 2569.2055177076886}, {"id": "E8fxeLEZ1zEaHFIgEAcilA", "alias": "liberty-bell-chester-diner-chester-2", "name": "Liberty Bell Chester Diner", "image_url": "https://s3-media3.fl.yelpcdn.com/bphoto/sdTo7tr_w-JCEZd2d9zF7w/o.jpg", "is_closed": false, "url": "https://www.yelp.com/biz/liberty-bell-chester-diner-chester-2?adjust_creative=a2JdNtFqB-C38ga_06BHvw&utm_campaign=yelp_api_v3&utm_medium=api_v3_business_search&utm_source=a2JdNtFqB-C38ga_06BHvw", "review_count": 11, "categories": [{"alias": "tradamerican", "title": "American (Traditional)"}, {"alias": "breakfast_brunch", "title": "Breakfast & Brunch"}, {"alias": "mediterranean", "title": "Mediterranean"}], "rating": 2.5, "coordinates": {"latitude": 39.8580137, "longitude": -75.3613349}, "transactions": ["pickup", "delivery"], "price": "$", "location": {"address1": "1301 Edgmont Ave", "address2": null, "address3": "", "city": "Chester", "zip_code": "19013", "country": "US", "state": "PA", "display_address": ["1301 Edgmont Ave", "Chester, PA 19013"]}, "phone": "+14844805132", "display_phone": "(484) 480-5132", "distance": 3236.914880990626}, {"id": "m1lYfqMwQHmtmTaYXnrXtw", "alias": "happy-house-chester", "name": "Happy House", "image_url": "https://s3-media2.fl.yelpcdn.com/bphoto/Zp-jAB5JTwXOdDKA3y_cvg/o.jpg", "is_closed": false, "url": "https://www.yelp.com/biz/happy-house-chester?adjust_creative=a2JdNtFqB-C38ga_06BHvw&utm_campaign=yelp_api_v3&utm_medium=api_v3_business_search&utm_source=a2JdNtFqB-C38ga_06BHvw", "review_count": 2, "categories": [{"alias": "restaurants", "title": "Restaurants"}], "rating": 4.5, "coordinates": {"latitude": 39.8472480773926, "longitude": -75.3736724853516}, "transactions": ["delivery"], "price": "$", "location": {"address1": "901 W 9th St", "address2": "", "address3": "", "city": "Chester", "zip_code": "19013", "country": "US", "state": "PA", "display_address": ["901 W 9th St", "Chester, PA 19013"]}, "phone": "+16108763388", "display_phone": "(610) 876-3388", "distance": 1734.8360636766947}, {"id": "YLgKp0nVuSPueUpE4cFJ0A", "alias": "b-and-c-restaurant-chester", "name": "B & C Restaurant", "image_url": "https://s3-media3.fl.yelpcdn.com/bphoto/3mSArKjIsIDRCoPai56yHQ/o.jpg", "is_closed": false, "url": "https://www.yelp.com/biz/b-and-c-restaurant-chester?adjust_creative=a2JdNtFqB-C38ga_06BHvw&utm_campaign=yelp_api_v3&utm_medium=api_v3_business_search&utm_source=a2JdNtFqB-C38ga_06BHvw", "review_count": 4, "categories": [{"alias": "soulfood", "title": "Soul Food"}], "rating": 3.0, "coordinates": {"latitude": 39.8408, "longitude": -75.3733}, "transactions": [], "price": "$$", "location": {"address1": "1105 W 3rd St", "address2": "", "address3": "", "city": "Chester", "zip_code": "19013", "country": "US", "state": "PA", "display_address": ["1105 W 3rd St", "Chester, PA 19013"]}, "phone": "+16108723510", "display_phone": "(610) 872-3510", "distance": 1066.767335861185}, {"id": "1ztwu-Bv9A_C9kAqt-AwPQ", "alias": "new-york-fried-chicken-and-grill-chester", "name": "New York Fried Chicken &Grill", "image_url": "https://s3-media4.fl.yelpcdn.com/bphoto/xsTIE3NZ2ngz2xkZ5t1c7w/o.jpg", "is_closed": false, "url": "https://www.yelp.com/biz/new-york-fried-chicken-and-grill-chester?adjust_creative=a2JdNtFqB-C38ga_06BHvw&utm_campaign=yelp_api_v3&utm_medium=api_v3_business_search&utm_source=a2JdNtFqB-C38ga_06BHvw", "review_count": 1, "categories": [{"alias": "tradamerican", "title": "American (Traditional)"}, {"alias": "chickenshop", "title": "Chicken Shop"}], "rating": 5.0, "coordinates": {"latitude": 39.8340424027592, "longitude": -75.397983379662}, "transactions": ["pickup", "delivery"], "location": {"address1": "3105 W 9th St", "address2": "", "address3": null, "city": "Chester", "zip_code": "19013", "country": "US", "state": "PA", "display_address": ["3105 W 9th St", "Chester, PA 19013"]}, "phone": "+16104971420", "display_phone": "(610) 497-1420", "distance": 1642.9473779681557}, {"id": "lW3MQKxeJoDSPzGj14OzQg", "alias": "madison-grille-chester", "name": "Madison Grille", "image_url": "", "is_closed": false, "url": "https://www.yelp.com/biz/madison-grille-chester?adjust_creative=a2JdNtFqB-C38ga_06BHvw&utm_campaign=yelp_api_v3&utm_medium=api_v3_business_search&utm_source=a2JdNtFqB-C38ga_06BHvw", "review_count": 1, "categories": [{"alias": "restaurants", "title": "Restaurants"}], "rating": 5.0, "coordinates": {"latitude": 39.85668, "longitude": -75.36044}, "transactions": ["delivery"], "location": {"address1": "301 E 12th St", "address2": "", "address3": "", "city": "Chester", "zip_code": "19013", "country": "US", "state": "PA", "display_address": ["301 E 12th St", "Chester, PA 19013"]}, "phone": "+16108747662", "display_phone": "(610) 874-7662", "distance": 3141.679728500504}, {"id": "K7fLZk4my9E8Dd9jYkzBFA", "alias": "humdiggidys-chester", "name": "Humdiggidy's", "image_url": "https://s3-media4.fl.yelpcdn.com/bphoto/eJMdQ7tXM3tnXCL1kzoibA/o.jpg", "is_closed": false, "url": "https://www.yelp.com/biz/humdiggidys-chester?adjust_creative=a2JdNtFqB-C38ga_06BHvw&utm_campaign=yelp_api_v3&utm_medium=api_v3_business_search&utm_source=a2JdNtFqB-C38ga_06BHvw", "review_count": 1, "categories": [{"alias": "hotdog", "title": "Hot Dogs"}], "rating": 5.0, "coordinates": {"latitude": 39.83251, "longitude": -75.39033}, "transactions": ["delivery"], "location": {"address1": "2704 W 3rd St", "address2": "", "address3": null, "city": "Chester", "zip_code": "19013", "country": "US", "state": "PA", "display_address": ["2704 W 3rd St", "Chester, PA 19013"]}, "phone": "+16107264087", "display_phone": "(610) 726-4087", "distance": 973.5089532579983}, {"id": "Dr5GCKsg7Rx4LTtGMhKCDg", "alias": "seafood-from-the-soul-chester", "name": "Seafood From The Soul", "image_url": "", "is_closed": false, "url": "https://www.yelp.com/biz/seafood-from-the-soul-chester?adjust_creative=a2JdNtFqB-C38ga_06BHvw&utm_campaign=yelp_api_v3&utm_medium=api_v3_business_search&utm_source=a2JdNtFqB-C38ga_06BHvw", "review_count": 1, "categories": [{"alias": "soulfood", "title": "Soul Food"}, {"alias": "seafood", "title": "Seafood"}], "rating": 5.0, "coordinates": {"latitude": 39.83403, "longitude": -75.39908}, "transactions": ["delivery"], "location": {"address1": "3118 W 9th St", "address2": null, "address3": null, "city": "Chester", "zip_code": "19013", "country": "US", "state": "PA", "display_address": ["3118 W 9th St", "Chester, PA 19013"]}, "phone": "+14846259297", "display_phone": "(484) 625-9297", "distance": 1736.166926180467}, {"id": "rawSNQRZMbQfpwIfTkkj4Q", "alias": "n-y-fried-chicken-chester", "name": "N Y Fried Chicken", "image_url": "", "is_closed": false, "url": "https://www.yelp.com/biz/n-y-fried-chicken-chester?adjust_creative=a2JdNtFqB-C38ga_06BHvw&utm_campaign=yelp_api_v3&utm_medium=api_v3_business_search&utm_source=a2JdNtFqB-C38ga_06BHvw", "review_count": 1, "categories": [{"alias": "chicken_wings", "title": "Chicken Wings"}], "rating": 5.0, "coordinates": {"latitude": 39.85043, "longitude": -75.37243}, "transactions": ["delivery"], "location": {"address1": "1039 Kerlin St", "address2": "", "address3": "", "city": "Chester", "zip_code": "19013", "country": "US", "state": "PA", "display_address": ["1039 Kerlin St", "Chester, PA 19013"]}, "phone": "+16108763754", "display_phone": "(610) 876-3754", "distance": 2087.363978894747}, {"id": "U0WyCjxfhlIUsT6P26WMtQ", "alias": "red-brick-cafe-chester", "name": "Red Brick Cafe", "image_url": "https://s3-media4.fl.yelpcdn.com/bphoto/xTPO2Qlu-QqTK-Zu0IfOSw/o.jpg", "is_closed": false, "url": "https://www.yelp.com/biz/red-brick-cafe-chester?adjust_creative=a2JdNtFqB-C38ga_06BHvw&utm_campaign=yelp_api_v3&utm_medium=api_v3_business_search&utm_source=a2JdNtFqB-C38ga_06BHvw", "review_count": 1, "categories": [{"alias": "seafood", "title": "Seafood"}, {"alias": "soulfood", "title": "Soul Food"}, {"alias": "comfortfood", "title": "Comfort Food"}], "rating": 5.0, "coordinates": {"latitude": 39.84411, "longitude": -75.36624}, "transactions": [], "location": {"address1": "514 W Union St", "address2": "", "address3": null, "city": "Chester", "zip_code": "19013", "country": "US", "state": "PA", "display_address": ["514 W Union St", "Chester, PA 19013"]}, "phone": "+14844806496", "display_phone": "(484) 480-6496", "distance": 1742.063981150036}, {"id": "b3v5FOe8bwE5_32KEj7pdA", "alias": "tinytims-bbq-chester-2", "name": "TinyTim's Bbq", "image_url": "https://s3-media2.fl.yelpcdn.com/bphoto/hKUT2wXsOUiqMJrsdLLLFQ/o.jpg", "is_closed": false, "url": "https://www.yelp.com/biz/tinytims-bbq-chester-2?adjust_creative=a2JdNtFqB-C38ga_06BHvw&utm_campaign=yelp_api_v3&utm_medium=api_v3_business_search&utm_source=a2JdNtFqB-C38ga_06BHvw", "review_count": 1, "categories": [{"alias": "bbq", "title": "Barbeque"}, {"alias": "foodstands", "title": "Food Stands"}, {"alias": "sandwiches", "title": "Sandwiches"}], "rating": 5.0, "coordinates": {"latitude": 39.83298, "longitude": -75.38175}, "transactions": [], "location": {"address1": "15 Engle St", "address2": "Unit G", "address3": "", "city": "Chester", "zip_code": "19013", "country": "US", "state": "PA", "display_address": ["15 Engle St", "Unit G", "Chester, PA 19013"]}, "phone": "+14844560407", "display_phone": "(484) 456-0407", "distance": 258.42798344909113}, {"id": "7XC1bvgBkFa425SJf8vIbw", "alias": "caffe-napoli-chester", "name": "Caffe Napoli", "image_url": "", "is_closed": false, "url": "https://www.yelp.com/biz/caffe-napoli-chester?adjust_creative=a2JdNtFqB-C38ga_06BHvw&utm_campaign=yelp_api_v3&utm_medium=api_v3_business_search&utm_source=a2JdNtFqB-C38ga_06BHvw", "review_count": 4, "categories": [{"alias": "italian", "title": "Italian"}], "rating": 3.0, "coordinates": {"latitude": 39.8515396, "longitude": -75.3488693}, "transactions": [], "price": "$", "location": {"address1": "777 Harrahs Blvd", "address2": "", "address3": "", "city": "Chester", "zip_code": "19013", "country": "US", "state": "PA", "display_address": ["777 Harrahs Blvd", "Chester, PA 19013"]}, "phone": "", "display_phone": "", "distance": 3349.655515828325}, {"id": "HMXYEhymeyrZkYZ5UTd0pg", "alias": "coccos-pizza-chester", "name": "Cocco's Pizza", "image_url": "", "is_closed": false, "url": "https://www.yelp.com/biz/coccos-pizza-chester?adjust_creative=a2JdNtFqB-C38ga_06BHvw&utm_campaign=yelp_api_v3&utm_medium=api_v3_business_search&utm_source=a2JdNtFqB-C38ga_06BHvw", "review_count": 2, "categories": [{"alias": "pizza", "title": "Pizza"}], "rating": 3.5, "coordinates": {"latitude": 39.8488007, "longitude": -75.3719635}, "transactions": ["pickup", "delivery"], "location": {"address1": "916 Kerlin St", "address2": "", "address3": "", "city": "Chester", "zip_code": "19013", "country": "US", "state": "PA", "display_address": ["916 Kerlin St", "Chester, PA 19013"]}, "phone": "+16108769614", "display_phone": "(610) 876-9614", "distance": 1936.1140817682654}, {"id": "GfyVrq9JQr2RSIDvs-KjkQ", "alias": "the-market-chester", "name": "The Market", "image_url": "https://s3-media1.fl.yelpcdn.com/bphoto/jOneX2M1VwNPmcfgxmG0vQ/o.jpg", "is_closed": false, "url": "https://www.yelp.com/biz/the-market-chester?adjust_creative=a2JdNtFqB-C38ga_06BHvw&utm_campaign=yelp_api_v3&utm_medium=api_v3_business_search&utm_source=a2JdNtFqB-C38ga_06BHvw", "review_count": 4, "categories": [{"alias": "pizza", "title": "Pizza"}, {"alias": "tradamerican", "title": "American (Traditional)"}, {"alias": "sandwiches", "title": "Sandwiches"}], "rating": 2.5, "coordinates": {"latitude": 39.851538, "longitude": -75.3488676}, "transactions": [], "price": "$$", "location": {"address1": "777 Harrah's Blvd", "address2": "", "address3": null, "city": "Chester", "zip_code": "19013", "country": "US", "state": "PA", "display_address": ["777 Harrah's Blvd", "Chester, PA 19013"]}, "phone": "+18004808020", "display_phone": "(800) 480-8020", "distance": 3324.3184833841387}, {"id": "9nh1g18nJUMwUjQBp95TsA", "alias": "mrs-marys-kitchen-brookhaven", "name": "Mrs. Mary's Kitchen", "image_url": "", "is_closed": false, "url": "https://www.yelp.com/biz/mrs-marys-kitchen-brookhaven?adjust_creative=a2JdNtFqB-C38ga_06BHvw&utm_campaign=yelp_api_v3&utm_medium=api_v3_business_search&utm_source=a2JdNtFqB-C38ga_06BHvw", "review_count": 2, "categories": [{"alias": "soulfood", "title": "Soul Food"}], "rating": 3.0, "coordinates": {"latitude": 39.8573747662996, "longitude": -75.3900504628262}, "transactions": ["pickup", "delivery"], "location": {"address1": "1127 Powell Rd", "address2": "", "address3": null, "city": "Brookhaven", "zip_code": "19015", "country": "US", "state": "PA", "display_address": ["1127 Powell Rd", "Brookhaven, PA 19015"]}, "phone": "+14844806110", "display_phone": "(484) 480-6110", "distance": 2944.8864633346875}, {"id": "CC8-SNZ7JD5hZdLtg7z3FQ", "alias": "caribbean-way-chester", "name": "Caribbean Way", "image_url": "https://s3-media1.fl.yelpcdn.com/bphoto/j4hjUS2DD57pGfPnvk_aXw/o.jpg", "is_closed": false, "url": "https://www.yelp.com/biz/caribbean-way-chester?adjust_creative=a2JdNtFqB-C38ga_06BHvw&utm_campaign=yelp_api_v3&utm_medium=api_v3_business_search&utm_source=a2JdNtFqB-C38ga_06BHvw", "review_count": 2, "categories": [{"alias": "caribbean", "title": "Caribbean"}], "rating": 3.0, "coordinates": {"latitude": 39.8486132, "longitude": -75.3709665}, "transactions": ["pickup", "delivery"], "location": {"address1": "610 W 9th", "address2": null, "address3": "", "city": "Chester", "zip_code": "19013", "country": "US", "state": "PA", "display_address": ["610 W 9th", "Chester, PA 19013"]}, "phone": "+14844747732", "display_phone": "(484) 474-7732", "distance": 1941.5880704504084}, {"id": "nL7P5dzmLKd9Nf9X94mETw", "alias": "g-and-g-pizza-chester", "name": "G & G Pizza", "image_url": "https://s3-media2.fl.yelpcdn.com/bphoto/matR3-7IRo1ism9lX2k88g/o.jpg", "is_closed": false, "url": "https://www.yelp.com/biz/g-and-g-pizza-chester?adjust_creative=a2JdNtFqB-C38ga_06BHvw&utm_campaign=yelp_api_v3&utm_medium=api_v3_business_search&utm_source=a2JdNtFqB-C38ga_06BHvw", "review_count": 2, "categories": [{"alias": "pizza", "title": "Pizza"}], "rating": 3.0, "coordinates": {"latitude": 39.8571612685919, "longitude": -75.374720916152}, "transactions": ["delivery"], "location": {"address1": "871 Upland Ave", "address2": "", "address3": "", "city": "Chester", "zip_code": "19013", "country": "US", "state": "PA", "display_address": ["871 Upland Ave", "Chester, PA 19013"]}, "phone": "+16108747999", "display_phone": "(610) 874-7999", "distance": 2794.5229321067964}, {"id": "DxXxZqaMWDywDHbcSV79LQ", "alias": "showells-seafood-chester-2", "name": "Showell's Seafood", "image_url": "https://s3-media2.fl.yelpcdn.com/bphoto/lQz0731c9kbTR_UHJivbFA/o.jpg", "is_closed": false, "url": "https://www.yelp.com/biz/showells-seafood-chester-2?adjust_creative=a2JdNtFqB-C38ga_06BHvw&utm_campaign=yelp_api_v3&utm_medium=api_v3_business_search&utm_source=a2JdNtFqB-C38ga_06BHvw", "review_count": 2, "categories": [{"alias": "restaurants", "title": "Restaurants"}], "rating": 3.0, "coordinates": {"latitude": 39.850772857666, "longitude": -75.3601531982422}, "transactions": ["delivery"], "location": {"address1": "627 Welsh St", "address2": null, "address3": null, "city": "Chester", "zip_code": "19013", "country": "US", "state": "PA", "display_address": ["627 Welsh St", "Chester, PA 19013"]}, "phone": "+16108724996", "display_phone": "(610) 872-4996", "distance": 2599.8989760721306}, {"id": "OKsi3U8hrKNlWnCODse2jg", "alias": "bridgewater-inn-brookhaven", "name": "Bridgewater Inn", "image_url": "https://s3-media3.fl.yelpcdn.com/bphoto/vr8MCb8m2oHRu-ImgXXRTQ/o.jpg", "is_closed": false, "url": "https://www.yelp.com/biz/bridgewater-inn-brookhaven?adjust_creative=a2JdNtFqB-C38ga_06BHvw&utm_campaign=yelp_api_v3&utm_medium=api_v3_business_search&utm_source=a2JdNtFqB-C38ga_06BHvw", "review_count": 2, "categories": [{"alias": "restaurants", "title": "Restaurants"}], "rating": 3.0, "coordinates": {"latitude": 39.857615, "longitude": -75.3897587}, "transactions": ["delivery"], "location": {"address1": "1117 Powell Rd", "address2": "", "address3": "", "city": "Brookhaven", "zip_code": "19015", "country": "US", "state": "PA", "display_address": ["1117 Powell Rd", "Brookhaven, PA 19015"]}, "phone": "+16108742169", "display_phone": "(610) 874-2169", "distance": 2972.153515909855}, {"id": "lOKUSaOFX9vlj2g1ea43MA", "alias": "gold-room-chester", "name": "Gold Room", "image_url": "https://s3-media1.fl.yelpcdn.com/bphoto/FlWFmN38ULS2kg-Flv-bwQ/o.jpg", "is_closed": false, "url": "https://www.yelp.com/biz/gold-room-chester?adjust_creative=a2JdNtFqB-C38ga_06BHvw&utm_campaign=yelp_api_v3&utm_medium=api_v3_business_search&utm_source=a2JdNtFqB-C38ga_06BHvw", "review_count": 1, "categories": [{"alias": "bars", "title": "Bars"}, {"alias": "seafood", "title": "Seafood"}], "rating": 4.0, "coordinates": {"latitude": 39.8482482658078, "longitude": -75.361258890612}, "transactions": [], "price": "$$", "location": {"address1": "520 Edgmont Ave", "address2": "", "address3": "", "city": "Chester", "zip_code": "19013", "country": "US", "state": "PA", "display_address": ["520 Edgmont Ave", "Chester, PA 19013"]}, "phone": "", "display_phone": "", "distance": 2332.6841350875798}, {"id": "74c3KxukjUCsU4o3-h6E1A", "alias": "lee-seafood-chester", "name": "Lee Seafood", "image_url": "https://s3-media2.fl.yelpcdn.com/bphoto/ClcFlAniZfQrRkpkAXrTPg/o.jpg", "is_closed": false, "url": "https://www.yelp.com/biz/lee-seafood-chester?adjust_creative=a2JdNtFqB-C38ga_06BHvw&utm_campaign=yelp_api_v3&utm_medium=api_v3_business_search&utm_source=a2JdNtFqB-C38ga_06BHvw", "review_count": 1, "categories": [{"alias": "restaurants", "title": "Restaurants"}], "rating": 4.0, "coordinates": {"latitude": 39.8478507, "longitude": -75.3709374}, "transactions": ["delivery"], "location": {"address1": "823 Kerlin St", "address2": "", "address3": "", "city": "Chester", "zip_code": "19013", "country": "US", "state": "PA", "display_address": ["823 Kerlin St", "Chester, PA 19013"]}, "phone": "+16104478780", "display_phone": "(610) 447-8780", "distance": 1872.5606026435546}, {"id": "LyFKqEUNPTafYEqNBQDSzQ", "alias": "boots-and-bonnets-chester", "name": "Boots & Bonnets", "image_url": "https://s3-media1.fl.yelpcdn.com/bphoto/t7O4jryU0e8wC_va2r2qpQ/o.jpg", "is_closed": false, "url": "https://www.yelp.com/biz/boots-and-bonnets-chester?adjust_creative=a2JdNtFqB-C38ga_06BHvw&utm_campaign=yelp_api_v3&utm_medium=api_v3_business_search&utm_source=a2JdNtFqB-C38ga_06BHvw", "review_count": 1, "categories": [{"alias": "tradamerican", "title": "American (Traditional)"}, {"alias": "sportsbars", "title": "Sports Bars"}], "rating": 4.0, "coordinates": {"latitude": 39.844756, "longitude": -75.394315}, "transactions": [], "location": {"address1": "1521 Townsend St", "address2": null, "address3": null, "city": "Chester", "zip_code": "19013", "country": "US", "state": "PA", "display_address": ["1521 Townsend St", "Chester, PA 19013"]}, "phone": "+14844839850", "display_phone": "(484) 483-9850", "distance": 1910.2955602693805}, {"id": "R2C5Q1riVNmXVcuP9lxhkA", "alias": "ming-house-chester", "name": "Ming House", "image_url": "", "is_closed": false, "url": "https://www.yelp.com/biz/ming-house-chester?adjust_creative=a2JdNtFqB-C38ga_06BHvw&utm_campaign=yelp_api_v3&utm_medium=api_v3_business_search&utm_source=a2JdNtFqB-C38ga_06BHvw", "review_count": 1, "categories": [{"alias": "restaurants", "title": "Restaurants"}], "rating": 4.0, "coordinates": {"latitude": 39.84765, "longitude": -75.36941}, "transactions": ["delivery"], "location": {"address1": "715 Parker St", "address2": "", "address3": "", "city": "Chester", "zip_code": "19013", "country": "US", "state": "PA", "display_address": ["715 Parker St", "Chester, PA 19013"]}, "phone": "+16108767696", "display_phone": "(610) 876-7696", "distance": 1892.7881145209121}, {"id": "CMTX-wuRAdJOLOqw53BxRw", "alias": "philly-steak-shack-chester-2", "name": "Philly Steak Shack", "image_url": "https://s3-media3.fl.yelpcdn.com/bphoto/nqz8_oLxK96dmbras4tmhg/o.jpg", "is_closed": false, "url": "https://www.yelp.com/biz/philly-steak-shack-chester-2?adjust_creative=a2JdNtFqB-C38ga_06BHvw&utm_campaign=yelp_api_v3&utm_medium=api_v3_business_search&utm_source=a2JdNtFqB-C38ga_06BHvw", "review_count": 2, "categories": [{"alias": "cheesesteaks", "title": "Cheesesteaks"}, {"alias": "burgers", "title": "Burgers"}], "rating": 2.5, "coordinates": {"latitude": 39.851538, "longitude": -75.3488676}, "transactions": ["pickup"], "location": {"address1": "777 Harrah's Blvd", "address2": null, "address3": "", "city": "Chester", "zip_code": "19013", "country": "US", "state": "PA", "display_address": ["777 Harrah's Blvd", "Chester, PA 19013"]}, "phone": "+14844873470", "display_phone": "(484) 487-3470", "distance": 3324.3184833841387}, {"id": "qacm31rbo_HdTFb2dFfgPg", "alias": "ginos-pizza-chester", "name": "Gino's Pizza", "image_url": "https://s3-media1.fl.yelpcdn.com/bphoto/zjv02fbQiWZnjdGTxz1d6A/o.jpg", "is_closed": false, "url": "https://www.yelp.com/biz/ginos-pizza-chester?adjust_creative=a2JdNtFqB-C38ga_06BHvw&utm_campaign=yelp_api_v3&utm_medium=api_v3_business_search&utm_source=a2JdNtFqB-C38ga_06BHvw", "review_count": 3, "categories": [{"alias": "pizza", "title": "Pizza"}], "rating": 2.0, "coordinates": {"latitude": 39.85122, "longitude": -75.3648599}, "transactions": ["delivery"], "location": {"address1": "56 W 9th St", "address2": "", "address3": "", "city": "Chester", "zip_code": "19013", "country": "US", "state": "PA", "display_address": ["56 W 9th St", "Chester, PA 19013"]}, "phone": "+16104906000", "display_phone": "(610) 490-6000", "distance": 2429.834393437873}, {"id": "psAadt_3qzS9LK9n_9Y9Ng", "alias": "chester-jamaican-kitchen-chester-2", "name": "Chester Jamaican kitchen", "image_url": "https://s3-media1.fl.yelpcdn.com/bphoto/dpAZwJTHyyPBUQdyUfHg9g/o.jpg", "is_closed": false, "url": "https://www.yelp.com/biz/chester-jamaican-kitchen-chester-2?adjust_creative=a2JdNtFqB-C38ga_06BHvw&utm_campaign=yelp_api_v3&utm_medium=api_v3_business_search&utm_source=a2JdNtFqB-C38ga_06BHvw", "review_count": 3, "categories": [{"alias": "caribbean", "title": "Caribbean"}, {"alias": "newamerican", "title": "American (New)"}], "rating": 2.0, "coordinates": {"latitude": 39.8486132, "longitude": -75.3709665}, "transactions": ["delivery"], "location": {"address1": "610 W 9th St", "address2": null, "address3": "", "city": "Chester", "zip_code": "19013", "country": "US", "state": "PA", "display_address": ["610 W 9th St", "Chester, PA 19013"]}, "phone": "+14844808343", "display_phone": "(484) 480-8343", "distance": 1941.5880704504084}, {"id": "r5dDkiMqkU-PEFAIBEPfuw", "alias": "kims-deli-market-chester", "name": "Kim's Deli Market", "image_url": "", "is_closed": false, "url": "https://www.yelp.com/biz/kims-deli-market-chester?adjust_creative=a2JdNtFqB-C38ga_06BHvw&utm_campaign=yelp_api_v3&utm_medium=api_v3_business_search&utm_source=a2JdNtFqB-C38ga_06BHvw", "review_count": 1, "categories": [{"alias": "delis", "title": "Delis"}, {"alias": "grocery", "title": "Grocery"}], "rating": 3.0, "coordinates": {"latitude": 39.835251, "longitude": -75.398824}, "transactions": [], "location": {"address1": "3101 W 10th St", "address2": "", "address3": "", "city": "Chester", "zip_code": "19013", "country": "US", "state": "PA", "display_address": ["3101 W 10th St", "Chester, PA 19013"]}, "phone": "+16104948366", "display_phone": "(610) 494-8366", "distance": 1735.1959229521556}, {"id": "kiG4KHGT2lFBHHv71ZP2_g", "alias": "vittles-food-court-chester", "name": "Vittles Food Court", "image_url": "", "is_closed": false, "url": "https://www.yelp.com/biz/vittles-food-court-chester?adjust_creative=a2JdNtFqB-C38ga_06BHvw&utm_campaign=yelp_api_v3&utm_medium=api_v3_business_search&utm_source=a2JdNtFqB-C38ga_06BHvw", "review_count": 1, "categories": [{"alias": "food_court", "title": "Food Court"}], "rating": 3.0, "coordinates": {"latitude": 39.851984, "longitude": -75.362748}, "transactions": [], "location": {"address1": "801 Sproul St", "address2": null, "address3": "", "city": "Chester", "zip_code": "19013", "country": "US", "state": "PA", "display_address": ["801 Sproul St", "Chester, PA 19013"]}, "phone": "", "display_phone": "", "distance": 2593.795459077754}, {"id": "JIa5v2KwOwGrMjcB7xafcw", "alias": "aprils-kitchen-chester", "name": "April's Kitchen", "image_url": "", "is_closed": false, "url": "https://www.yelp.com/biz/aprils-kitchen-chester?adjust_creative=a2JdNtFqB-C38ga_06BHvw&utm_campaign=yelp_api_v3&utm_medium=api_v3_business_search&utm_source=a2JdNtFqB-C38ga_06BHvw", "review_count": 1, "categories": [{"alias": "restaurants", "title": "Restaurants"}], "rating": 3.0, "coordinates": {"latitude": 39.835376739502, "longitude": -75.3954925537109}, "transactions": [], "location": {"address1": "2817 W 9th St", "address2": "", "address3": "", "city": "Chester", "zip_code": "19013", "country": "US", "state": "PA", "display_address": ["2817 W 9th St", "Chester, PA 19013"]}, "phone": "+16104942920", "display_phone": "(610) 494-2920", "distance": 1464.5980394511244}, {"id": "4hS_-EoNthSzCOWPdjIDgQ", "alias": "ginos-pizza-chester-2", "name": "Ginos Pizza", "image_url": "https://s3-media3.fl.yelpcdn.com/bphoto/v9gZ2CKBl7yMepfUQ-DVNw/o.jpg", "is_closed": false, "url": "https://www.yelp.com/biz/ginos-pizza-chester-2?adjust_creative=a2JdNtFqB-C38ga_06BHvw&utm_campaign=yelp_api_v3&utm_medium=api_v3_business_search&utm_source=a2JdNtFqB-C38ga_06BHvw", "review_count": 6, "categories": [{"alias": "pizza", "title": "Pizza"}], "rating": 1.0, "coordinates": {"latitude": 39.83576, "longitude": -75.39593}, "transactions": ["pickup", "delivery"], "location": {"address1": "2810 W 9th St", "address2": null, "address3": null, "city": "Chester", "zip_code": "19013", "country": "US", "state": "PA", "display_address": ["2810 W 9th St", "Chester, PA 19013"]}, "phone": "+16103478354", "display_phone": "(610) 347-8354", "distance": 1493.986875504884}, {"id": "MJF_Z1Lwee6z-P3RsKdlSg", "alias": "carter-s-corner-chester", "name": "Carter’s Corner", "image_url": "https://s3-media1.fl.yelpcdn.com/bphoto/0CAtkJOTC21mo_hvIBfgLQ/o.jpg", "is_closed": false, "url": "https://www.yelp.com/biz/carter-s-corner-chester?adjust_creative=a2JdNtFqB-C38ga_06BHvw&utm_campaign=yelp_api_v3&utm_medium=api_v3_business_search&utm_source=a2JdNtFqB-C38ga_06BHvw", "review_count": 1, "categories": [{"alias": "juicebars", "title": "Juice Bars & Smoothies"}, {"alias": "seafood", "title": "Seafood"}, {"alias": "breakfast_brunch", "title": "Breakfast & Brunch"}], "rating": 2.0, "coordinates": {"latitude": 39.84914, "longitude": -75.36089}, "transactions": [], "location": {"address1": "540 Avenue Of The States", "address2": "", "address3": "", "city": "Chester", "zip_code": "19013", "country": "US", "state": "PA", "display_address": ["540 Avenue Of The States", "Chester, PA 19013"]}, "phone": "+16108762916", "display_phone": "(610) 876-2916", "distance": 2421.4880645893118}, {"id": "Qi4lFtfO6v1GxYObmpCAqA", "alias": "great-wall-chinese-restaurant-chester", "name": "Great Wall Chinese Restaurant", "image_url": "https://s3-media1.fl.yelpcdn.com/bphoto/0KHnBoU-Q9dcs44xCJa75A/o.jpg", "is_closed": false, "url": "https://www.yelp.com/biz/great-wall-chinese-restaurant-chester?adjust_creative=a2JdNtFqB-C38ga_06BHvw&utm_campaign=yelp_api_v3&utm_medium=api_v3_business_search&utm_source=a2JdNtFqB-C38ga_06BHvw", "review_count": 3, "categories": [{"alias": "chinese", "title": "Chinese"}], "rating": 1.0, "coordinates": {"latitude": 39.8571992, "longitude": -75.3748983}, "transactions": ["delivery"], "location": {"address1": "863 Upland Ave", "address2": "", "address3": "", "city": "Chester", "zip_code": "19013", "country": "US", "state": "PA", "display_address": ["863 Upland Ave", "Chester, PA 19013"]}, "phone": "+16108720330", "display_phone": "(610) 872-0330", "distance": 2908.907448444997}, {"id": "jOFI6xYTg84obyp5QYH0jA", "alias": "just-wing-it-trainer", "name": "Just Wing It", "image_url": "", "is_closed": false, "url": "https://www.yelp.com/biz/just-wing-it-trainer?adjust_creative=a2JdNtFqB-C38ga_06BHvw&utm_campaign=yelp_api_v3&utm_medium=api_v3_business_search&utm_source=a2JdNtFqB-C38ga_06BHvw", "review_count": 1, "categories": [{"alias": "chicken_wings", "title": "Chicken Wings"}, {"alias": "fooddeliveryservices", "title": "Food Delivery Services"}], "rating": 1.0, "coordinates": {"latitude": 39.8310582, "longitude": -75.4063128}, "transactions": ["delivery"], "location": {"address1": "4002 W 9th St", "address2": "", "address3": null, "city": "Trainer", "zip_code": "19061", "country": "US", "state": "PA", "display_address": ["4002 W 9th St", "Trainer, PA 19061"]}, "phone": "+12674483737", "display_phone": "(267) 448-3737", "distance": 2345.480797323382}, {"id": "E81iy6Mj0fO1fQ6btbhhlA", "alias": "bridgewater-diner-and-family-restaurant-brookhaven", "name": "Bridgewater Diner & Family Restaurant", "image_url": "", "is_closed": false, "url": "https://www.yelp.com/biz/bridgewater-diner-and-family-restaurant-brookhaven?adjust_creative=a2JdNtFqB-C38ga_06BHvw&utm_campaign=yelp_api_v3&utm_medium=api_v3_business_search&utm_source=a2JdNtFqB-C38ga_06BHvw", "review_count": 1, "categories": [{"alias": "restaurants", "title": "Restaurants"}], "rating": 1.0, "coordinates": {"latitude": 39.8583030700684, "longitude": -75.3901748657227}, "transactions": [], "location": {"address1": "1100 Powell Rd", "address2": "", "address3": "", "city": "Brookhaven", "zip_code": "19015", "country": "US", "state": "PA", "display_address": ["1100 Powell Rd", "Brookhaven, PA 19015"]}, "phone": "+16108728505", "display_phone": "(610) 872-8505", "distance": 3054.9476801355804}], "absolute total": 49, "total": 49}