{"league": "MLS", "team": "Real Salt Lake", "stadium": "Rio Tinto Stadium", "stadium latitude": 40.582923, "stadium longitude": -111.893156, "radius": "3000 meters", "city": "Sandy", "state": "Utah", "businesses": [{"id": "JF_o-pVRYEeu6iVQ2yQihQ", "alias": "potstickers-plus-1-sandy-3", "name": "PotStickers Plus 1", "image_url": "https://s3-media2.fl.yelpcdn.com/bphoto/GNZvsqWdEYby7-uOH8T3uw/o.jpg", "is_closed": false, "url": "https://www.yelp.com/biz/potstickers-plus-1-sandy-3?adjust_creative=a2JdNtFqB-C38ga_06BHvw&utm_campaign=yelp_api_v3&utm_medium=api_v3_business_search&utm_source=a2JdNtFqB-C38ga_06BHvw", "review_count": 368, "categories": [{"alias": "korean", "title": "Korean"}, {"alias": "chinese", "title": "Chinese"}, {"alias": "japanese", "title": "Japanese"}], "rating": 4.5, "coordinates": {"latitude": 40.58496, "longitude": -111.87194}, "transactions": ["pickup"], "price": "$", "location": {"address1": "9197 700th E", "address2": "", "address3": null, "city": "Sandy", "zip_code": "84070", "country": "US", "state": "UT", "display_address": ["9197 700th E", "Sandy, UT 84070"]}, "phone": "+18019878620", "display_phone": "(801) 987-8620", "distance": 1832.0912190870731}, {"id": "6sYL0H_J0U-FhsPJA5jGIw", "alias": "slackwater-sandy", "name": "Slackwater", "image_url": "https://s3-media2.fl.yelpcdn.com/bphoto/zMtpFgSDgKURRcTjfvfNDw/o.jpg", "is_closed": false, "url": "https://www.yelp.com/biz/slackwater-sandy?adjust_creative=a2JdNtFqB-C38ga_06BHvw&utm_campaign=yelp_api_v3&utm_medium=api_v3_business_search&utm_source=a2JdNtFqB-C38ga_06BHvw", "review_count": 383, "categories": [{"alias": "pizza", "title": "Pizza"}, {"alias": "beerbar", "title": "Beer Bar"}, {"alias": "pubs", "title": "Pubs"}], "rating": 4.5, "coordinates": {"latitude": 40.564504, "longitude": -111.892005}, "transactions": ["delivery", "restaurant_reservation"], "price": "$$", "location": {"address1": "10290 State St", "address2": "", "address3": null, "city": "Sandy", "zip_code": "84070", "country": "US", "state": "UT", "display_address": ["10290 State St", "Sandy, UT 84070"]}, "phone": "+18019305147", "display_phone": "(801) 930-5147", "distance": 2058.640928495224}, {"id": "h9435wclChgl92JrMfOykQ", "alias": "mint-tapas-and-sushi-sandy-sandy", "name": "Mint Tapas and Sushi - Sandy", "image_url": "https://s3-media2.fl.yelpcdn.com/bphoto/6WT_u7roTgOLcx47MiZmkQ/o.jpg", "is_closed": false, "url": "https://www.yelp.com/biz/mint-tapas-and-sushi-sandy-sandy?adjust_creative=a2JdNtFqB-C38ga_06BHvw&utm_campaign=yelp_api_v3&utm_medium=api_v3_business_search&utm_source=a2JdNtFqB-C38ga_06BHvw", "review_count": 97, "categories": [{"alias": "sushi", "title": "Sushi Bars"}, {"alias": "asianfusion", "title": "Asian Fusion"}, {"alias": "tapasmallplates", "title": "Tapas/Small Plates"}], "rating": 5.0, "coordinates": {"latitude": 40.598807, "longitude": -111.8718101}, "transactions": ["delivery", "restaurant_reservation", "pickup"], "price": "$$", "location": {"address1": "8391 S 700th E", "address2": null, "address3": "", "city": "Sandy", "zip_code": "84070", "country": "US", "state": "UT", "display_address": ["8391 S 700th E", "Sandy, UT 84070"]}, "phone": "+13854348022", "display_phone": "(385) 434-8022", "distance": 2523.536027424624}, {"id": "GPQnYftR_AhnEI8vBalVRA", "alias": "namaste-kitchen-sandy", "name": "Namaste Kitchen", "image_url": "https://s3-media2.fl.yelpcdn.com/bphoto/NhCNZUuDd3UPG1xV_b91BA/o.jpg", "is_closed": false, "url": "https://www.yelp.com/biz/namaste-kitchen-sandy?adjust_creative=a2JdNtFqB-C38ga_06BHvw&utm_campaign=yelp_api_v3&utm_medium=api_v3_business_search&utm_source=a2JdNtFqB-C38ga_06BHvw", "review_count": 125, "categories": [{"alias": "indpak", "title": "Indian"}, {"alias": "himalayan", "title": "Himalayan/Nepalese"}, {"alias": "buffets", "title": "Buffets"}], "rating": 4.5, "coordinates": {"latitude": 40.5807249, "longitude": -111.8671208}, "transactions": ["delivery", "pickup"], "price": "$$", "location": {"address1": "863 E 9400 S", "address2": "", "address3": null, "city": "Sandy", "zip_code": "84094", "country": "US", "state": "UT", "display_address": ["863 E 9400 S", "Sandy, UT 84094"]}, "phone": "+18019818943", "display_phone": "(801) 981-8943", "distance": 2168.0112211104815}, {"id": "5F6sbF74gNbZKCUuGRSjWw", "alias": "bumblebees-bbq-and-grill-midvale", "name": "Bumblebee's BBQ & Grill", "image_url": "https://s3-media3.fl.yelpcdn.com/bphoto/gUGvSZWCFj0lNKOpLgVo2Q/o.jpg", "is_closed": false, "url": "https://www.yelp.com/biz/bumblebees-bbq-and-grill-midvale?adjust_creative=a2JdNtFqB-C38ga_06BHvw&utm_campaign=yelp_api_v3&utm_medium=api_v3_business_search&utm_source=a2JdNtFqB-C38ga_06BHvw", "review_count": 706, "categories": [{"alias": "newamerican", "title": "American (New)"}, {"alias": "korean", "title": "Korean"}, {"alias": "asianfusion", "title": "Asian Fusion"}], "rating": 4.5, "coordinates": {"latitude": 40.6066255, "longitude": -111.8910751}, "transactions": ["delivery", "pickup"], "price": "$", "location": {"address1": "7962 S State St", "address2": "", "address3": "", "city": "Midvale", "zip_code": "84047", "country": "US", "state": "UT", "display_address": ["7962 S State St", "Midvale, UT 84047"]}, "phone": "+18015610608", "display_phone": "(801) 561-0608", "distance": 2641.444651138344}, {"id": "I1Ut3g_uHzsWaSOaljc0DQ", "alias": "corelife-eatery-sandy-2", "name": "CoreLife Eatery", "image_url": "https://s3-media2.fl.yelpcdn.com/bphoto/5A9nwVG3AZVSr8tMPW0-RQ/o.jpg", "is_closed": false, "url": "https://www.yelp.com/biz/corelife-eatery-sandy-2?adjust_creative=a2JdNtFqB-C38ga_06BHvw&utm_campaign=yelp_api_v3&utm_medium=api_v3_business_search&utm_source=a2JdNtFqB-C38ga_06BHvw", "review_count": 521, "categories": [{"alias": "newamerican", "title": "American (New)"}], "rating": 4.5, "coordinates": {"latitude": 40.5625260759733, "longitude": -111.889988742744}, "transactions": ["delivery", "pickup"], "price": "$$", "location": {"address1": "10395 S State St", "address2": "", "address3": null, "city": "Sandy", "zip_code": "84070", "country": "US", "state": "UT", "display_address": ["10395 S State St", "Sandy, UT 84070"]}, "phone": "+13852373570", "display_phone": "(385) 237-3570", "distance": 2283.7537475144436}, {"id": "xIXolVjUHAa8fFUycQ9SUg", "alias": "ginza-japanese-shabu-shabu-sandy-2", "name": "Ginza Japanese Shabu Shabu", "image_url": "https://s3-media2.fl.yelpcdn.com/bphoto/H8DirMjdC7yfqjg_7vCJcA/o.jpg", "is_closed": false, "url": "https://www.yelp.com/biz/ginza-japanese-shabu-shabu-sandy-2?adjust_creative=a2JdNtFqB-C38ga_06BHvw&utm_campaign=yelp_api_v3&utm_medium=api_v3_business_search&utm_source=a2JdNtFqB-C38ga_06BHvw", "review_count": 258, "categories": [{"alias": "japanese", "title": "Japanese"}, {"alias": "hotpot", "title": "Hot Pot"}, {"alias": "sushi", "title": "Sushi Bars"}], "rating": 4.5, "coordinates": {"latitude": 40.5798628900801, "longitude": -111.874205068735}, "transactions": ["delivery", "pickup"], "price": "$$", "location": {"address1": "9460 S Union Sq", "address2": "Ste 106", "address3": "", "city": "Sandy", "zip_code": "84070", "country": "US", "state": "UT", "display_address": ["9460 S Union Sq", "Ste 106", "Sandy, UT 84070"]}, "phone": "+18014328736", "display_phone": "(801) 432-8736", "distance": 1636.188818737963}, {"id": "r4dZpyAGR-JNf-qbcNHfhA", "alias": "lee-sushi-sandy-2", "name": "Lee Sushi", "image_url": "https://s3-media1.fl.yelpcdn.com/bphoto/IAfRFknWi6bF5VHurvH1Gw/o.jpg", "is_closed": false, "url": "https://www.yelp.com/biz/lee-sushi-sandy-2?adjust_creative=a2JdNtFqB-C38ga_06BHvw&utm_campaign=yelp_api_v3&utm_medium=api_v3_business_search&utm_source=a2JdNtFqB-C38ga_06BHvw", "review_count": 140, "categories": [{"alias": "asianfusion", "title": "Asian Fusion"}, {"alias": "japanese", "title": "Japanese"}, {"alias": "sushi", "title": "Sushi Bars"}], "rating": 4.5, "coordinates": {"latitude": 40.5583239, "longitude": -111.8927873}, "transactions": ["delivery", "pickup"], "price": "$$", "location": {"address1": "71 W 10600th S", "address2": null, "address3": "", "city": "Sandy", "zip_code": "84070", "country": "US", "state": "UT", "display_address": ["71 W 10600th S", "Sandy, UT 84070"]}, "phone": "+18016194888", "display_phone": "(801) 619-4888", "distance": 2735.4693594464525}, {"id": "ZaCUECN6YJoIfXknILmnmg", "alias": "house-of-corn-sandy", "name": "House Of Corn", "image_url": "https://s3-media4.fl.yelpcdn.com/bphoto/TvpN7P5d-UzjN5eEr_G5lQ/o.jpg", "is_closed": false, "url": "https://www.yelp.com/biz/house-of-corn-sandy?adjust_creative=a2JdNtFqB-C38ga_06BHvw&utm_campaign=yelp_api_v3&utm_medium=api_v3_business_search&utm_source=a2JdNtFqB-C38ga_06BHvw", "review_count": 62, "categories": [{"alias": "mexican", "title": "Mexican"}], "rating": 4.5, "coordinates": {"latitude": 40.578802, "longitude": -111.8690909}, "transactions": [], "location": {"address1": "816 E 9400th S", "address2": "Ste 43", "address3": null, "city": "Sandy", "zip_code": "84094", "country": "US", "state": "UT", "display_address": ["816 E 9400th S", "Ste 43", "Sandy, UT 84094"]}, "phone": "+18019309286", "display_phone": "(801) 930-9286", "distance": 2083.3454814858555}, {"id": "39FaduO5S0kIdw1g9iTvRA", "alias": "everest-curry-kitchen-sandy", "name": "Everest Curry Kitchen", "image_url": "https://s3-media3.fl.yelpcdn.com/bphoto/_I8GcjRNJv1MYunjwHkGPw/o.jpg", "is_closed": false, "url": "https://www.yelp.com/biz/everest-curry-kitchen-sandy?adjust_creative=a2JdNtFqB-C38ga_06BHvw&utm_campaign=yelp_api_v3&utm_medium=api_v3_business_search&utm_source=a2JdNtFqB-C38ga_06BHvw", "review_count": 262, "categories": [{"alias": "indpak", "title": "Indian"}, {"alias": "buffets", "title": "Buffets"}, {"alias": "himalayan", "title": "Himalayan/Nepalese"}], "rating": 4.5, "coordinates": {"latitude": 40.557981, "longitude": -111.889468}, "transactions": ["delivery", "pickup"], "price": "$$", "location": {"address1": "68 E 10600th S", "address2": null, "address3": "", "city": "Sandy", "zip_code": "84070", "country": "US", "state": "UT", "display_address": ["68 E 10600th S", "Sandy, UT 84070"]}, "phone": "+18015714015", "display_phone": "(801) 571-4015", "distance": 2790.85970006036}, {"id": "ZF0s1zVEC95jhJ0MnwZW-A", "alias": "pulp-lifestyle-kitchen-sandy-sandy", "name": "Pulp Lifestyle Kitchen-Sandy", "image_url": "https://s3-media2.fl.yelpcdn.com/bphoto/QuW87eL6FT0JkehYK0x39Q/o.jpg", "is_closed": false, "url": "https://www.yelp.com/biz/pulp-lifestyle-kitchen-sandy-sandy?adjust_creative=a2JdNtFqB-C38ga_06BHvw&utm_campaign=yelp_api_v3&utm_medium=api_v3_business_search&utm_source=a2JdNtFqB-C38ga_06BHvw", "review_count": 170, "categories": [{"alias": "juicebars", "title": "Juice Bars & Smoothies"}, {"alias": "healthmarkets", "title": "Health Markets"}, {"alias": "breakfast_brunch", "title": "Breakfast & Brunch"}], "rating": 4.5, "coordinates": {"latitude": 40.57625, "longitude": -111.89038}, "transactions": ["delivery", "pickup"], "price": "$", "location": {"address1": "9645 S State", "address2": null, "address3": "", "city": "Sandy", "zip_code": "84070", "country": "US", "state": "UT", "display_address": ["9645 S State", "Sandy, UT 84070"]}, "phone": "+13855574986", "display_phone": "(385) 557-4986", "distance": 778.8697157236205}, {"id": "Y9MJWvmNHmc_EZVWLGCCjw", "alias": "taqueria-el-gallo-loco-sandy", "name": "Taqueria El Gallo Loco", "image_url": "https://s3-media1.fl.yelpcdn.com/bphoto/7vUKvX27T5izvdADuYUu9w/o.jpg", "is_closed": false, "url": "https://www.yelp.com/biz/taqueria-el-gallo-loco-sandy?adjust_creative=a2JdNtFqB-C38ga_06BHvw&utm_campaign=yelp_api_v3&utm_medium=api_v3_business_search&utm_source=a2JdNtFqB-C38ga_06BHvw", "review_count": 213, "categories": [{"alias": "mexican", "title": "Mexican"}], "rating": 4.5, "coordinates": {"latitude": 40.5580333036406, "longitude": -111.871682144701}, "transactions": ["delivery", "pickup"], "price": "$$", "location": {"address1": "10643 S 700th E", "address2": "", "address3": "", "city": "Sandy", "zip_code": "84070", "country": "US", "state": "UT", "display_address": ["10643 S 700th E", "Sandy, UT 84070"]}, "phone": "+18015420361", "display_phone": "(801) 542-0361", "distance": 3308.9897485743963}, {"id": "v8rPTMJygNuWfSuUx2HaBw", "alias": "saffron-valley-indian-street-foods-south-jordan", "name": "Saffron Valley Indian Street Foods", "image_url": "https://s3-media3.fl.yelpcdn.com/bphoto/kWZNoUz95LAYlzYOeAtrfQ/o.jpg", "is_closed": false, "url": "https://www.yelp.com/biz/saffron-valley-indian-street-foods-south-jordan?adjust_creative=a2JdNtFqB-C38ga_06BHvw&utm_campaign=yelp_api_v3&utm_medium=api_v3_business_search&utm_source=a2JdNtFqB-C38ga_06BHvw", "review_count": 294, "categories": [{"alias": "indpak", "title": "Indian"}, {"alias": "coffee", "title": "Coffee & Tea"}, {"alias": "sandwiches", "title": "Sandwiches"}], "rating": 4.0, "coordinates": {"latitude": 40.56155, "longitude": -111.92275}, "transactions": ["delivery", "pickup"], "price": "$$", "location": {"address1": "1098 W S Jordan Pkwy", "address2": "Ste 102", "address3": "", "city": "South Jordan", "zip_code": "84095", "country": "US", "state": "UT", "display_address": ["1098 W S Jordan Pkwy", "Ste 102", "South Jordan, UT 84095"]}, "phone": "+18014384823", "display_phone": "(801) 438-4823", "distance": 3442.1344167514885}, {"id": "fnlk32igIk56-eryQGi0eQ", "alias": "los-garcia-mexican-food-sandy", "name": "Los Garcia Mexican Food", "image_url": "https://s3-media2.fl.yelpcdn.com/bphoto/RwJjvTWor1XomoF7xUAJqg/o.jpg", "is_closed": false, "url": "https://www.yelp.com/biz/los-garcia-mexican-food-sandy?adjust_creative=a2JdNtFqB-C38ga_06BHvw&utm_campaign=yelp_api_v3&utm_medium=api_v3_business_search&utm_source=a2JdNtFqB-C38ga_06BHvw", "review_count": 350, "categories": [{"alias": "mexican", "title": "Mexican"}], "rating": 4.0, "coordinates": {"latitude": 40.5924511, "longitude": -111.8716616}, "transactions": ["delivery"], "price": "$", "location": {"address1": "8745 S 700th E", "address2": "", "address3": "", "city": "Sandy", "zip_code": "84070", "country": "US", "state": "UT", "display_address": ["8745 S 700th E", "Sandy, UT 84070"]}, "phone": "+18015727746", "display_phone": "(801) 572-7746", "distance": 2101.6342929835514}, {"id": "3sWUJZ_WmJEGf-tL1TUu1g", "alias": "tiburon-sandy", "name": "Tiburon", "image_url": "https://s3-media1.fl.yelpcdn.com/bphoto/2rG0qAj91NOWyZGlNldxXg/o.jpg", "is_closed": false, "url": "https://www.yelp.com/biz/tiburon-sandy?adjust_creative=a2JdNtFqB-C38ga_06BHvw&utm_campaign=yelp_api_v3&utm_medium=api_v3_business_search&utm_source=a2JdNtFqB-C38ga_06BHvw", "review_count": 220, "categories": [{"alias": "newamerican", "title": "American (New)"}], "rating": 4.0, "coordinates": {"latitude": 40.6011, "longitude": -111.87249}, "transactions": ["delivery"], "price": "$$$", "location": {"address1": "8256 S 700th E", "address2": "", "address3": "", "city": "Sandy", "zip_code": "84070", "country": "US", "state": "UT", "display_address": ["8256 S 700th E", "Sandy, UT 84070"]}, "phone": "+18012551200", "display_phone": "(801) 255-1200", "distance": 2666.8813633472137}, {"id": "krFAGGk3rx-SmhMnFhzwXw", "alias": "bonsai-japanese-steakhouse-sandy", "name": "Bonsai Japanese Steakhouse", "image_url": "https://s3-media4.fl.yelpcdn.com/bphoto/HZUwi-_ZEUoBuLI-eaZ_eQ/o.jpg", "is_closed": false, "url": "https://www.yelp.com/biz/bonsai-japanese-steakhouse-sandy?adjust_creative=a2JdNtFqB-C38ga_06BHvw&utm_campaign=yelp_api_v3&utm_medium=api_v3_business_search&utm_source=a2JdNtFqB-C38ga_06BHvw", "review_count": 128, "categories": [{"alias": "steak", "title": "Steakhouses"}, {"alias": "teppanyaki", "title": "Teppanyaki"}], "rating": 4.5, "coordinates": {"latitude": 40.582032, "longitude": -111.866322}, "transactions": ["delivery"], "price": "$$", "location": {"address1": "875 E 9400 S", "address2": "", "address3": "", "city": "Sandy", "zip_code": "84094", "country": "US", "state": "UT", "display_address": ["875 E 9400 S", "Sandy, UT 84094"]}, "phone": "+18013529288", "display_phone": "(801) 352-9288", "distance": 2263.21188828062}, {"id": "Ndd4O0-zf6KLRy-lwEu-Hg", "alias": "tsunami-restaurant-and-sushi-bar-south-jordan", "name": "Tsunami Restaurant & Sushi Bar", "image_url": "https://s3-media3.fl.yelpcdn.com/bphoto/z_zeLnr60RSs2FX45stFjA/o.jpg", "is_closed": false, "url": "https://www.yelp.com/biz/tsunami-restaurant-and-sushi-bar-south-jordan?adjust_creative=a2JdNtFqB-C38ga_06BHvw&utm_campaign=yelp_api_v3&utm_medium=api_v3_business_search&utm_source=a2JdNtFqB-C38ga_06BHvw", "review_count": 488, "categories": [{"alias": "sushi", "title": "Sushi Bars"}, {"alias": "japanese", "title": "Japanese"}, {"alias": "tapasmallplates", "title": "Tapas/Small Plates"}], "rating": 4.0, "coordinates": {"latitude": 40.55669, "longitude": -111.91282}, "transactions": [], "price": "$$", "location": {"address1": "10722 S River Front Pkwy", "address2": "", "address3": "", "city": "South Jordan", "zip_code": "84095", "country": "US", "state": "UT", "display_address": ["10722 S River Front Pkwy", "South Jordan, UT 84095"]}, "phone": "+18017481178", "display_phone": "(801) 748-1178", "distance": 3368.545930842693}, {"id": "82FMLPAZX0MlveVsHyrtvA", "alias": "biscotts-bakery-and-cafe-south-jordan", "name": "Biscotts Bakery & Cafe", "image_url": "https://s3-media2.fl.yelpcdn.com/bphoto/us44E4s4qL5klnA8KNQxVQ/o.jpg", "is_closed": false, "url": "https://www.yelp.com/biz/biscotts-bakery-and-cafe-south-jordan?adjust_creative=a2JdNtFqB-C38ga_06BHvw&utm_campaign=yelp_api_v3&utm_medium=api_v3_business_search&utm_source=a2JdNtFqB-C38ga_06BHvw", "review_count": 129, "categories": [{"alias": "cafes", "title": "Cafes"}, {"alias": "bakeries", "title": "Bakeries"}, {"alias": "breakfast_brunch", "title": "Breakfast & Brunch"}], "rating": 4.5, "coordinates": {"latitude": 40.561755, "longitude": -111.922735}, "transactions": ["delivery", "pickup"], "price": "$", "location": {"address1": "1098 W South Jordan Pkwy", "address2": "Ste 110", "address3": null, "city": "South Jordan", "zip_code": "84095", "country": "US", "state": "UT", "display_address": ["1098 W South Jordan Pkwy", "Ste 110", "South Jordan, UT 84095"]}, "phone": "+18018900659", "display_phone": "(801) 890-0659", "distance": 3432.45440606486}, {"id": "8j4Q7_FYXk2WQrdidegJyA", "alias": "special-courses-sandy-2", "name": "Special Courses", "image_url": "https://s3-media1.fl.yelpcdn.com/bphoto/vkqQZUxpjJ2dOS7Cg08XqA/o.jpg", "is_closed": false, "url": "https://www.yelp.com/biz/special-courses-sandy-2?adjust_creative=a2JdNtFqB-C38ga_06BHvw&utm_campaign=yelp_api_v3&utm_medium=api_v3_business_search&utm_source=a2JdNtFqB-C38ga_06BHvw", "review_count": 92, "categories": [{"alias": "foodtrucks", "title": "Food Trucks"}, {"alias": "burgers", "title": "Burgers"}], "rating": 4.5, "coordinates": {"latitude": 40.57648849487305, "longitude": -111.8857421875}, "transactions": ["delivery", "pickup"], "price": "$", "location": {"address1": "", "address2": null, "address3": "", "city": "Sandy", "zip_code": "84070", "country": "US", "state": "UT", "display_address": ["Sandy, UT 84070"]}, "phone": "", "display_phone": "", "distance": 1045.9702197066904}, {"id": "YnXELim7xrPvS67W8FdmCw", "alias": "yings-thai-sushi-sandy", "name": "Ying's Thai-Sushi", "image_url": "https://s3-media1.fl.yelpcdn.com/bphoto/hMR1xbYSs2UW980exAW8Jw/o.jpg", "is_closed": false, "url": "https://www.yelp.com/biz/yings-thai-sushi-sandy?adjust_creative=a2JdNtFqB-C38ga_06BHvw&utm_campaign=yelp_api_v3&utm_medium=api_v3_business_search&utm_source=a2JdNtFqB-C38ga_06BHvw", "review_count": 115, "categories": [{"alias": "sushi", "title": "Sushi Bars"}, {"alias": "thai", "title": "Thai"}, {"alias": "japanese", "title": "Japanese"}], "rating": 4.5, "coordinates": {"latitude": 40.5803841, "longitude": -111.8740223}, "transactions": ["delivery", "pickup"], "price": "$$", "location": {"address1": "9414 S Union Sq", "address2": null, "address3": null, "city": "Sandy", "zip_code": "84070", "country": "US", "state": "UT", "display_address": ["9414 S Union Sq", "Sandy, UT 84070"]}, "phone": "+18019994321", "display_phone": "(801) 999-4321", "distance": 1640.3213468881168}, {"id": "aVuJpxUKRt3XXWeWExd3NA", "alias": "r-and-r-bbq-south-jordan", "name": "R&R BBQ", "image_url": "https://s3-media1.fl.yelpcdn.com/bphoto/sSH1Pd1X_N40st9qTrRfUw/o.jpg", "is_closed": false, "url": "https://www.yelp.com/biz/r-and-r-bbq-south-jordan?adjust_creative=a2JdNtFqB-C38ga_06BHvw&utm_campaign=yelp_api_v3&utm_medium=api_v3_business_search&utm_source=a2JdNtFqB-C38ga_06BHvw", "review_count": 432, "categories": [{"alias": "bbq", "title": "Barbeque"}, {"alias": "smokehouse", "title": "Smokehouse"}], "rating": 4.0, "coordinates": {"latitude": 40.55801753, "longitude": -111.90050554}, "transactions": ["pickup", "delivery"], "price": "$$", "location": {"address1": "10646 S 300th W", "address2": null, "address3": "", "city": "South Jordan", "zip_code": "84095", "country": "US", "state": "UT", "display_address": ["10646 S 300th W", "South Jordan, UT 84095"]}, "phone": "+18015239500", "display_phone": "(801) 523-9500", "distance": 2838.0818301402046}, {"id": "BE63xeyqZa1AGD4L59gWjQ", "alias": "bawarchi-salt-lake-city-south-jordan", "name": "Bawarchi - Salt Lake City", "image_url": "https://s3-media3.fl.yelpcdn.com/bphoto/Cx1jL1SGvdmIQsoy7gkk_A/o.jpg", "is_closed": false, "url": "https://www.yelp.com/biz/bawarchi-salt-lake-city-south-jordan?adjust_creative=a2JdNtFqB-C38ga_06BHvw&utm_campaign=yelp_api_v3&utm_medium=api_v3_business_search&utm_source=a2JdNtFqB-C38ga_06BHvw", "review_count": 94, "categories": [{"alias": "indpak", "title": "Indian"}], "rating": 4.5, "coordinates": {"latitude": 40.5587151, "longitude": -111.9091453}, "transactions": ["delivery"], "price": "$$", "location": {"address1": "689 W South Jordan Pkwy", "address2": null, "address3": "", "city": "South Jordan", "zip_code": "84095", "country": "US", "state": "UT", "display_address": ["689 W South Jordan Pkwy", "South Jordan, UT 84095"]}, "phone": "+18014451565", "display_phone": "(801) 445-1565", "distance": 3075.274926747542}, {"id": "OrdOVSElvfRDEjilz9HLBg", "alias": "la-fogata-sandy-2", "name": "La Fogata", "image_url": "https://s3-media4.fl.yelpcdn.com/bphoto/tDccVc-SBm-1bXNxhojVXA/o.jpg", "is_closed": false, "url": "https://www.yelp.com/biz/la-fogata-sandy-2?adjust_creative=a2JdNtFqB-C38ga_06BHvw&utm_campaign=yelp_api_v3&utm_medium=api_v3_business_search&utm_source=a2JdNtFqB-C38ga_06BHvw", "review_count": 18, "categories": [{"alias": "foodtrucks", "title": "Food Trucks"}, {"alias": "tacos", "title": "Tacos"}], "rating": 5.0, "coordinates": {"latitude": 40.5870966768571, "longitude": -111.891294814376}, "transactions": ["delivery"], "location": {"address1": "9070 S State St", "address2": null, "address3": null, "city": "Sandy", "zip_code": "84070", "country": "US", "state": "UT", "display_address": ["9070 S State St", "Sandy, UT 84070"]}, "phone": "+18015743340", "display_phone": "(801) 574-3340", "distance": 489.98255262636076}, {"id": "EO2m4Jx99QWUWLAM5fY6rw", "alias": "dog-haus-sandy-6", "name": "Dog Haus", "image_url": "https://s3-media4.fl.yelpcdn.com/bphoto/S86KHTLaFn9xN-UA9-R-YA/o.jpg", "is_closed": false, "url": "https://www.yelp.com/biz/dog-haus-sandy-6?adjust_creative=a2JdNtFqB-C38ga_06BHvw&utm_campaign=yelp_api_v3&utm_medium=api_v3_business_search&utm_source=a2JdNtFqB-C38ga_06BHvw", "review_count": 345, "categories": [{"alias": "hotdog", "title": "Hot Dogs"}, {"alias": "burgers", "title": "Burgers"}, {"alias": "icecream", "title": "Ice Cream & Frozen Yogurt"}], "rating": 4.0, "coordinates": {"latitude": 40.5647933911708, "longitude": -111.89026484659}, "transactions": ["pickup", "delivery"], "price": "$", "location": {"address1": "10261 South State St", "address2": "Ste F", "address3": "", "city": "Sandy", "zip_code": "84070", "country": "US", "state": "UT", "display_address": ["10261 South State St", "Ste F", "Sandy, UT 84070"]}, "phone": "+18019873202", "display_phone": "(801) 987-3202", "distance": 2030.65353713254}, {"id": "1_VoCgZKtc-NAK-wJ8n2rQ", "alias": "o-ku-sushi-and-poke-sandy", "name": "O-Ku Sushi & Poke", "image_url": "https://s3-media2.fl.yelpcdn.com/bphoto/6fG1TrmyjsmES7vmV6d7rA/o.jpg", "is_closed": false, "url": "https://www.yelp.com/biz/o-ku-sushi-and-poke-sandy?adjust_creative=a2JdNtFqB-C38ga_06BHvw&utm_campaign=yelp_api_v3&utm_medium=api_v3_business_search&utm_source=a2JdNtFqB-C38ga_06BHvw", "review_count": 39, "categories": [{"alias": "japanese", "title": "Japanese"}, {"alias": "sushi", "title": "Sushi Bars"}, {"alias": "poke", "title": "Poke"}], "rating": 4.5, "coordinates": {"latitude": 40.578777, "longitude": -111.872493}, "transactions": ["pickup", "delivery"], "location": {"address1": "694 E Union Sq", "address2": null, "address3": "", "city": "Sandy", "zip_code": "84070", "country": "US", "state": "UT", "display_address": ["694 E Union Sq", "Sandy, UT 84070"]}, "phone": "", "display_phone": "", "distance": 1805.841698752042}, {"id": "Qg9s8nsZxIfBWX0punhAHQ", "alias": "india-house-sandy", "name": "India House", "image_url": "https://s3-media1.fl.yelpcdn.com/bphoto/2ChP0PDBK2znHYSf4R7JqA/o.jpg", "is_closed": false, "url": "https://www.yelp.com/biz/india-house-sandy?adjust_creative=a2JdNtFqB-C38ga_06BHvw&utm_campaign=yelp_api_v3&utm_medium=api_v3_business_search&utm_source=a2JdNtFqB-C38ga_06BHvw", "review_count": 250, "categories": [{"alias": "indpak", "title": "Indian"}], "rating": 4.0, "coordinates": {"latitude": 40.594273, "longitude": -111.89112}, "transactions": ["pickup", "delivery"], "price": "$$", "location": {"address1": "8660 S State St", "address2": "", "address3": "", "city": "Sandy", "zip_code": "84070", "country": "US", "state": "UT", "display_address": ["8660 S State St", "Sandy, UT 84070"]}, "phone": "+18015690550", "display_phone": "(801) 569-0550", "distance": 1273.7171739141859}, {"id": "Q-S2tZVTK31hoVcx-rQqYw", "alias": "tushar-brazilian-express-south-jordan", "name": "Tushar Brazilian Express", "image_url": "https://s3-media3.fl.yelpcdn.com/bphoto/LTthhAAoJdpvDFX-lNrt5A/o.jpg", "is_closed": false, "url": "https://www.yelp.com/biz/tushar-brazilian-express-south-jordan?adjust_creative=a2JdNtFqB-C38ga_06BHvw&utm_campaign=yelp_api_v3&utm_medium=api_v3_business_search&utm_source=a2JdNtFqB-C38ga_06BHvw", "review_count": 218, "categories": [{"alias": "brazilian", "title": "Brazilian"}, {"alias": "bbq", "title": "Barbeque"}], "rating": 4.0, "coordinates": {"latitude": 40.5611299690137, "longitude": -111.9211833179}, "transactions": ["pickup"], "price": "$", "location": {"address1": "1078 W South Jordan Pkwy", "address2": "", "address3": "", "city": "South Jordan", "zip_code": "84095", "country": "US", "state": "UT", "display_address": ["1078 W South Jordan Pkwy", "South Jordan, UT 84095"]}, "phone": "+18014466644", "display_phone": "(801) 446-6644", "distance": 3387.6440828293107}, {"id": "19yyMQTZkSK-vOoWh_IFew", "alias": "carvers-steaks-and-seafood-sandy-2", "name": "Carvers Steaks & Seafood", "image_url": "https://s3-media3.fl.yelpcdn.com/bphoto/Q_2ne6SYnV39Vku8nPnTHA/o.jpg", "is_closed": false, "url": "https://www.yelp.com/biz/carvers-steaks-and-seafood-sandy-2?adjust_creative=a2JdNtFqB-C38ga_06BHvw&utm_campaign=yelp_api_v3&utm_medium=api_v3_business_search&utm_source=a2JdNtFqB-C38ga_06BHvw", "review_count": 326, "categories": [{"alias": "steak", "title": "Steakhouses"}, {"alias": "seafood", "title": "Seafood"}], "rating": 4.0, "coordinates": {"latitude": 40.556495, "longitude": -111.896224}, "transactions": ["pickup", "restaurant_reservation", "delivery"], "price": "$$$", "location": {"address1": "10720 Holiday Park Dr", "address2": "", "address3": "", "city": "Sandy", "zip_code": "84070", "country": "US", "state": "UT", "display_address": ["10720 Holiday Park Dr", "Sandy, UT 84070"]}, "phone": "+18015725177", "display_phone": "(801) 572-5177", "distance": 2950.059978057715}, {"id": "X75RZ6ybIJ1JvPLRGkG8Ow", "alias": "athena-beans-coffee-house-and-bistro-sandy", "name": "Athena Beans Coffee House & Bistro", "image_url": "https://s3-media2.fl.yelpcdn.com/bphoto/y4096mHfCpEfjAiqovCXbw/o.jpg", "is_closed": false, "url": "https://www.yelp.com/biz/athena-beans-coffee-house-and-bistro-sandy?adjust_creative=a2JdNtFqB-C38ga_06BHvw&utm_campaign=yelp_api_v3&utm_medium=api_v3_business_search&utm_source=a2JdNtFqB-C38ga_06BHvw", "review_count": 47, "categories": [{"alias": "coffee", "title": "Coffee & Tea"}, {"alias": "juicebars", "title": "Juice Bars & Smoothies"}, {"alias": "sandwiches", "title": "Sandwiches"}], "rating": 4.5, "coordinates": {"latitude": 40.587564119216864, "longitude": -111.89455766097814}, "transactions": ["delivery"], "price": "$", "location": {"address1": "111 W 9000th S", "address2": null, "address3": "", "city": "Sandy", "zip_code": "84070", "country": "US", "state": "UT", "display_address": ["111 W 9000th S", "Sandy, UT 84070"]}, "phone": "+18016769082", "display_phone": "(801) 676-9082", "distance": 529.4682330989626}, {"id": "yhsNb9yP1xwTD_FIrTtdcg", "alias": "joy-luck-restaurant-sandy", "name": "Joy Luck Restaurant", "image_url": "https://s3-media2.fl.yelpcdn.com/bphoto/1-ENvxNzxnG0i0NQhiHd_Q/o.jpg", "is_closed": false, "url": "https://www.yelp.com/biz/joy-luck-restaurant-sandy?adjust_creative=a2JdNtFqB-C38ga_06BHvw&utm_campaign=yelp_api_v3&utm_medium=api_v3_business_search&utm_source=a2JdNtFqB-C38ga_06BHvw", "review_count": 244, "categories": [{"alias": "chinese", "title": "Chinese"}], "rating": 4.0, "coordinates": {"latitude": 40.556503, "longitude": -111.890383}, "transactions": ["pickup", "delivery"], "price": "$$", "location": {"address1": "10745 S State St", "address2": "", "address3": "", "city": "Sandy", "zip_code": "84070", "country": "US", "state": "UT", "display_address": ["10745 S State St", "Sandy, UT 84070"]}, "phone": "+18015010388", "display_phone": "(801) 501-0388", "distance": 2947.088941565426}, {"id": "lmzVmowWqbFIZpfrYgYczw", "alias": "slapfish-sandy-2", "name": "Slapfish", "image_url": "https://s3-media3.fl.yelpcdn.com/bphoto/gB9VWkGAZMGSLhDPaHq1NA/o.jpg", "is_closed": false, "url": "https://www.yelp.com/biz/slapfish-sandy-2?adjust_creative=a2JdNtFqB-C38ga_06BHvw&utm_campaign=yelp_api_v3&utm_medium=api_v3_business_search&utm_source=a2JdNtFqB-C38ga_06BHvw", "review_count": 378, "categories": [{"alias": "seafood", "title": "Seafood"}, {"alias": "salad", "title": "Salad"}, {"alias": "sandwiches", "title": "Sandwiches"}], "rating": 4.0, "coordinates": {"latitude": 40.562013042751, "longitude": -111.890357475528}, "transactions": ["pickup", "delivery"], "price": "$$", "location": {"address1": "10431 State St", "address2": "", "address3": null, "city": "Sandy", "zip_code": "84070", "country": "US", "state": "UT", "display_address": ["10431 State St", "Sandy, UT 84070"]}, "phone": "+18014328488", "display_phone": "(801) 432-8488", "distance": 2337.0623498338914}, {"id": "2xPX6SM1vIlX1YZAiwX3gQ", "alias": "so-grill-korean-bbq-and-sushi-sandy-2", "name": "So Grill Korean BBQ and Sushi", "image_url": "https://s3-media2.fl.yelpcdn.com/bphoto/6Xpy6Ym6LvRVoHJW7T83Vg/o.jpg", "is_closed": false, "url": "https://www.yelp.com/biz/so-grill-korean-bbq-and-sushi-sandy-2?adjust_creative=a2JdNtFqB-C38ga_06BHvw&utm_campaign=yelp_api_v3&utm_medium=api_v3_business_search&utm_source=a2JdNtFqB-C38ga_06BHvw", "review_count": 121, "categories": [{"alias": "korean", "title": "Korean"}, {"alias": "sushi", "title": "Sushi Bars"}, {"alias": "cocktailbars", "title": "Cocktail Bars"}], "rating": 4.0, "coordinates": {"latitude": 40.587823, "longitude": -111.894581}, "transactions": ["pickup", "delivery"], "price": "$$", "location": {"address1": "109 W 9000th S", "address2": "", "address3": null, "city": "Sandy", "zip_code": "84070", "country": "US", "state": "UT", "display_address": ["109 W 9000th S", "Sandy, UT 84070"]}, "phone": "+18015660721", "display_phone": "(801) 566-0721", "distance": 557.9847102170769}, {"id": "wzRlv2ePkLLLtr_cfrk56g", "alias": "el-barril-breakfast-and-lunch-sandy-4", "name": "El Barril Breakfast & Lunch ", "image_url": "https://s3-media1.fl.yelpcdn.com/bphoto/t8PllIzffufwjz-JSmav8Q/o.jpg", "is_closed": false, "url": "https://www.yelp.com/biz/el-barril-breakfast-and-lunch-sandy-4?adjust_creative=a2JdNtFqB-C38ga_06BHvw&utm_campaign=yelp_api_v3&utm_medium=api_v3_business_search&utm_source=a2JdNtFqB-C38ga_06BHvw", "review_count": 19, "categories": [{"alias": "coffee", "title": "Coffee & Tea"}, {"alias": "sandwiches", "title": "Sandwiches"}, {"alias": "juicebars", "title": "Juice Bars & Smoothies"}], "rating": 5.0, "coordinates": {"latitude": 40.579626, "longitude": -111.874063}, "transactions": ["pickup", "delivery"], "location": {"address1": "9460 S Union Square", "address2": "", "address3": "", "city": "Sandy", "zip_code": "84070", "country": "US", "state": "UT", "display_address": ["9460 S Union Square", "Sandy, UT 84070"]}, "phone": "+13859558838", "display_phone": "(385) 955-8838", "distance": 1652.6043171848175}, {"id": "HJNK39XzHdyeGIZ2YaAeFQ", "alias": "mulan-chinese-restaurant-sandy-4", "name": "Mulan Chinese Restaurant", "image_url": "https://s3-media4.fl.yelpcdn.com/bphoto/MGFXg6LnvOdtAdZduWEhuQ/o.jpg", "is_closed": false, "url": "https://www.yelp.com/biz/mulan-chinese-restaurant-sandy-4?adjust_creative=a2JdNtFqB-C38ga_06BHvw&utm_campaign=yelp_api_v3&utm_medium=api_v3_business_search&utm_source=a2JdNtFqB-C38ga_06BHvw", "review_count": 142, "categories": [{"alias": "chinese", "title": "Chinese"}], "rating": 4.0, "coordinates": {"latitude": 40.5761228, "longitude": -111.8907413}, "transactions": ["pickup", "delivery"], "price": "$", "location": {"address1": "9651 S State St", "address2": "", "address3": "", "city": "Sandy", "zip_code": "84070", "country": "US", "state": "UT", "display_address": ["9651 S State St", "Sandy, UT 84070"]}, "phone": "+18012559229", "display_phone": "(801) 255-9229", "distance": 783.1634034778828}, {"id": "Qfqgb-OUxEzZ8HkrQrnMcw", "alias": "curry-pizza-kitchen-south-jordan", "name": "Curry Pizza Kitchen", "image_url": "https://s3-media2.fl.yelpcdn.com/bphoto/tfdLWLl0nLqS4Stav6Dqvg/o.jpg", "is_closed": false, "url": "https://www.yelp.com/biz/curry-pizza-kitchen-south-jordan?adjust_creative=a2JdNtFqB-C38ga_06BHvw&utm_campaign=yelp_api_v3&utm_medium=api_v3_business_search&utm_source=a2JdNtFqB-C38ga_06BHvw", "review_count": 223, "categories": [{"alias": "indpak", "title": "Indian"}, {"alias": "pizza", "title": "Pizza"}, {"alias": "chicken_wings", "title": "Chicken Wings"}], "rating": 4.0, "coordinates": {"latitude": 40.56132, "longitude": -111.92174}, "transactions": ["pickup", "delivery"], "price": "$$", "location": {"address1": "1086 S Jordan Pkwy", "address2": "Ste 111", "address3": "", "city": "South Jordan", "zip_code": "84095", "country": "US", "state": "UT", "display_address": ["1086 S Jordan Pkwy", "Ste 111", "South Jordan, UT 84095"]}, "phone": "+18013020777", "display_phone": "(801) 302-0777", "distance": 3414.2300003315954}, {"id": "3xESBsPJGzl9ZNghmafYog", "alias": "highnote-thai-cuisine-sandy", "name": "HighNote Thai Cuisine", "image_url": "https://s3-media4.fl.yelpcdn.com/bphoto/m041oTceaFwJxyTaT3HN4w/o.jpg", "is_closed": false, "url": "https://www.yelp.com/biz/highnote-thai-cuisine-sandy?adjust_creative=a2JdNtFqB-C38ga_06BHvw&utm_campaign=yelp_api_v3&utm_medium=api_v3_business_search&utm_source=a2JdNtFqB-C38ga_06BHvw", "review_count": 71, "categories": [{"alias": "thai", "title": "Thai"}], "rating": 4.0, "coordinates": {"latitude": 40.60569, "longitude": -111.87191}, "transactions": ["delivery"], "price": "$$", "location": {"address1": "8005 S 700th E", "address2": "", "address3": "", "city": "Sandy", "zip_code": "84070", "country": "US", "state": "UT", "display_address": ["8005 S 700th E", "Sandy, UT 84070"]}, "phone": "+18012560209", "display_phone": "(801) 256-0209", "distance": 3103.2466411253827}, {"id": "d1pch8mJ8TNW2wFu8wI2rg", "alias": "peipei-house-sandy", "name": "PeiPei House", "image_url": "https://s3-media2.fl.yelpcdn.com/bphoto/FVxAQcWcZ6DOkdC5CUrMPA/o.jpg", "is_closed": false, "url": "https://www.yelp.com/biz/peipei-house-sandy?adjust_creative=a2JdNtFqB-C38ga_06BHvw&utm_campaign=yelp_api_v3&utm_medium=api_v3_business_search&utm_source=a2JdNtFqB-C38ga_06BHvw", "review_count": 61, "categories": [{"alias": "chinese", "title": "Chinese"}, {"alias": "asianfusion", "title": "Asian Fusion"}, {"alias": "sushi", "title": "Sushi Bars"}], "rating": 4.0, "coordinates": {"latitude": 40.593933, "longitude": -111.853524}, "transactions": ["pickup", "delivery"], "price": "$$", "location": {"address1": "8650 S 1300th E", "address2": null, "address3": null, "city": "SANDY", "zip_code": "84094", "country": "US", "state": "UT", "display_address": ["8650 S 1300th E", "SANDY, UT 84094"]}, "phone": "+18016018822", "display_phone": "(801) 601-8822", "distance": 2804.0386713307785}, {"id": "KFa9kfy04DbqglBHIdXBmA", "alias": "chick-fil-a-sandy-2", "name": "Chick-fil-A", "image_url": "https://s3-media2.fl.yelpcdn.com/bphoto/k0yWoXdfS8e3kSltvmYFnw/o.jpg", "is_closed": false, "url": "https://www.yelp.com/biz/chick-fil-a-sandy-2?adjust_creative=a2JdNtFqB-C38ga_06BHvw&utm_campaign=yelp_api_v3&utm_medium=api_v3_business_search&utm_source=a2JdNtFqB-C38ga_06BHvw", "review_count": 108, "categories": [{"alias": "hotdogs", "title": "Fast Food"}], "rating": 4.0, "coordinates": {"latitude": 40.5678853, "longitude": -111.8913555}, "transactions": ["delivery"], "price": "$", "location": {"address1": "10090 S State St", "address2": "", "address3": "", "city": "Sandy", "zip_code": "84070", "country": "US", "state": "UT", "display_address": ["10090 S State St", "Sandy, UT 84070"]}, "phone": "+18015639716", "display_phone": "(801) 563-9716", "distance": 1679.014546015511}, {"id": "bjIy6HPRJngcogvHYWmB6g", "alias": "crown-burgers-sandy", "name": "Crown Burgers", "image_url": "https://s3-media4.fl.yelpcdn.com/bphoto/1uOc7_pmkthAS5c821sV7w/o.jpg", "is_closed": false, "url": "https://www.yelp.com/biz/crown-burgers-sandy?adjust_creative=a2JdNtFqB-C38ga_06BHvw&utm_campaign=yelp_api_v3&utm_medium=api_v3_business_search&utm_source=a2JdNtFqB-C38ga_06BHvw", "review_count": 130, "categories": [{"alias": "burgers", "title": "Burgers"}], "rating": 4.0, "coordinates": {"latitude": 40.5769311622322, "longitude": -111.891317606501}, "transactions": ["delivery"], "price": "$", "location": {"address1": "9604 S State St", "address2": null, "address3": null, "city": "Sandy", "zip_code": "84070", "country": "US", "state": "UT", "display_address": ["9604 S State St", "Sandy, UT 84070"]}, "phone": "+18015624444", "display_phone": "(801) 562-4444", "distance": 684.1115809160099}, {"id": "c17M8PcHsfU3GgpIUjN0bw", "alias": "simply-thai-sandy", "name": "Simply Thai", "image_url": "https://s3-media1.fl.yelpcdn.com/bphoto/3nJGR_M3OgRSzHafjBN9kg/o.jpg", "is_closed": false, "url": "https://www.yelp.com/biz/simply-thai-sandy?adjust_creative=a2JdNtFqB-C38ga_06BHvw&utm_campaign=yelp_api_v3&utm_medium=api_v3_business_search&utm_source=a2JdNtFqB-C38ga_06BHvw", "review_count": 321, "categories": [{"alias": "thai", "title": "Thai"}], "rating": 3.5, "coordinates": {"latitude": 40.557939, "longitude": -111.892087}, "transactions": ["pickup", "delivery"], "price": "$$", "location": {"address1": "37 W 10600th S", "address2": "", "address3": "", "city": "Sandy", "zip_code": "84070", "country": "US", "state": "UT", "display_address": ["37 W 10600th S", "Sandy, UT 84070"]}, "phone": "+18013071221", "display_phone": "(801) 307-1221", "distance": 2779.5579023693863}, {"id": "mPmIdBDDLELInNxceK5oAQ", "alias": "puro-peru-sandy", "name": "Puro Peru", "image_url": "https://s3-media2.fl.yelpcdn.com/bphoto/xhV8_CeJDyDKOo1Ps_1yXg/o.jpg", "is_closed": false, "url": "https://www.yelp.com/biz/puro-peru-sandy?adjust_creative=a2JdNtFqB-C38ga_06BHvw&utm_campaign=yelp_api_v3&utm_medium=api_v3_business_search&utm_source=a2JdNtFqB-C38ga_06BHvw", "review_count": 152, "categories": [{"alias": "peruvian", "title": "Peruvian"}], "rating": 4.0, "coordinates": {"latitude": 40.5972363179442, "longitude": -111.89055435713}, "transactions": ["delivery"], "price": "$$", "location": {"address1": "8475 S State St", "address2": "", "address3": "", "city": "Sandy", "zip_code": "84070", "country": "US", "state": "UT", "display_address": ["8475 S State St", "Sandy, UT 84070"]}, "phone": "+18015660901", "display_phone": "(801) 566-0901", "distance": 1606.6561996975865}, {"id": "YDp7dlc5g8nZdmqagYUJjw", "alias": "tin-roof-grill-sandy", "name": "Tin Roof Grill", "image_url": "https://s3-media2.fl.yelpcdn.com/bphoto/AhvUVG-Y3s8LbPD39IKI4Q/o.jpg", "is_closed": false, "url": "https://www.yelp.com/biz/tin-roof-grill-sandy?adjust_creative=a2JdNtFqB-C38ga_06BHvw&utm_campaign=yelp_api_v3&utm_medium=api_v3_business_search&utm_source=a2JdNtFqB-C38ga_06BHvw", "review_count": 358, "categories": [{"alias": "newamerican", "title": "American (New)"}, {"alias": "tapasmallplates", "title": "Tapas/Small Plates"}, {"alias": "italian", "title": "Italian"}], "rating": 3.5, "coordinates": {"latitude": 40.58283, "longitude": -111.87247}, "transactions": ["delivery"], "price": "$$", "location": {"address1": "9284 S 700th E", "address2": "", "address3": "", "city": "Sandy", "zip_code": "84070", "country": "US", "state": "UT", "display_address": ["9284 S 700th E", "Sandy, UT 84070"]}, "phone": "+18015665226", "display_phone": "(801) 566-5226", "distance": 1725.9841685457602}, {"id": "9klOzbjMLcr7PmL0U9JfRQ", "alias": "texas-roadhouse-sandy-2", "name": "Texas Roadhouse", "image_url": "https://s3-media4.fl.yelpcdn.com/bphoto/xHKqhh3WOjZouWqMi6VCUw/o.jpg", "is_closed": false, "url": "https://www.yelp.com/biz/texas-roadhouse-sandy-2?adjust_creative=a2JdNtFqB-C38ga_06BHvw&utm_campaign=yelp_api_v3&utm_medium=api_v3_business_search&utm_source=a2JdNtFqB-C38ga_06BHvw", "review_count": 322, "categories": [{"alias": "steak", "title": "Steakhouses"}, {"alias": "bbq", "title": "Barbeque"}, {"alias": "tradamerican", "title": "American (Traditional)"}], "rating": 3.5, "coordinates": {"latitude": 40.56, "longitude": -111.896}, "transactions": [], "price": "$$", "location": {"address1": "200 W 10600th S", "address2": "", "address3": "", "city": "Sandy", "zip_code": "84070", "country": "US", "state": "UT", "display_address": ["200 W 10600th S", "Sandy, UT 84070"]}, "phone": "+18015727718", "display_phone": "(801) 572-7718", "distance": 2560.2124228462917}, {"id": "GhN5et3voNkWX9yKF5I3FA", "alias": "sweet-spot-bakery-and-cafe-sandy", "name": "Sweet Spot Bakery & Cafe", "image_url": "https://s3-media1.fl.yelpcdn.com/bphoto/G9sC9WUUHmdiRKThrCNLnA/o.jpg", "is_closed": false, "url": "https://www.yelp.com/biz/sweet-spot-bakery-and-cafe-sandy?adjust_creative=a2JdNtFqB-C38ga_06BHvw&utm_campaign=yelp_api_v3&utm_medium=api_v3_business_search&utm_source=a2JdNtFqB-C38ga_06BHvw", "review_count": 72, "categories": [{"alias": "cafes", "title": "Cafes"}, {"alias": "bakeries", "title": "Bakeries"}, {"alias": "brazilian", "title": "Brazilian"}], "rating": 4.0, "coordinates": {"latitude": 40.578742, "longitude": -111.873821}, "transactions": ["delivery"], "price": "$$", "location": {"address1": "644 E Union Sq", "address2": "", "address3": "", "city": "Sandy", "zip_code": "84070", "country": "US", "state": "UT", "display_address": ["644 E Union Sq", "Sandy, UT 84070"]}, "phone": "+18012072414", "display_phone": "(801) 207-2414", "distance": 1697.7583655189412}, {"id": "75vmgGD0Db1FfsSsAhUjrQ", "alias": "the-philadelphian-sandy", "name": "The Philadelphian", "image_url": "https://s3-media1.fl.yelpcdn.com/bphoto/icrdfhHclwxbvpIJYq6L_Q/o.jpg", "is_closed": false, "url": "https://www.yelp.com/biz/the-philadelphian-sandy?adjust_creative=a2JdNtFqB-C38ga_06BHvw&utm_campaign=yelp_api_v3&utm_medium=api_v3_business_search&utm_source=a2JdNtFqB-C38ga_06BHvw", "review_count": 265, "categories": [{"alias": "sandwiches", "title": "Sandwiches"}, {"alias": "cheesesteaks", "title": "Cheesesteaks"}, {"alias": "newamerican", "title": "American (New)"}], "rating": 3.5, "coordinates": {"latitude": 40.571198, "longitude": -111.873054}, "transactions": ["delivery"], "price": "$", "location": {"address1": "9860 S 700th E", "address2": "Ste 13", "address3": "", "city": "Sandy", "zip_code": "84070", "country": "US", "state": "UT", "display_address": ["9860 S 700th E", "Ste 13", "Sandy, UT 84070"]}, "phone": "+18015723663", "display_phone": "(801) 572-3663", "distance": 2146.390459253307}, {"id": "6TxqzKQqJor6ZnimJpdUSQ", "alias": "asian-potato-sandy-2", "name": "Asian Potato", "image_url": "https://s3-media2.fl.yelpcdn.com/bphoto/VbcYCPsVGxY71qfBCmUilw/o.jpg", "is_closed": false, "url": "https://www.yelp.com/biz/asian-potato-sandy-2?adjust_creative=a2JdNtFqB-C38ga_06BHvw&utm_campaign=yelp_api_v3&utm_medium=api_v3_business_search&utm_source=a2JdNtFqB-C38ga_06BHvw", "review_count": 171, "categories": [{"alias": "chinese", "title": "Chinese"}, {"alias": "thai", "title": "Thai"}], "rating": 3.5, "coordinates": {"latitude": 40.5925, "longitude": -111.87193}, "transactions": ["pickup", "delivery"], "price": "$$", "location": {"address1": "8745 S 700th E", "address2": "Ste 4", "address3": "", "city": "Sandy", "zip_code": "84070", "country": "US", "state": "UT", "display_address": ["8745 S 700th E", "Ste 4", "Sandy, UT 84070"]}, "phone": "+18012551122", "display_phone": "(801) 255-1122", "distance": 2101.6342929835514}, {"id": "4DJZyxv3-5SbFw5ftcYq4w", "alias": "sobe-eats-sandy-2", "name": "Sobe Eats", "image_url": "https://s3-media4.fl.yelpcdn.com/bphoto/W8-QnAKp9_Lm0gSxzDcP5w/o.jpg", "is_closed": false, "url": "https://www.yelp.com/biz/sobe-eats-sandy-2?adjust_creative=a2JdNtFqB-C38ga_06BHvw&utm_campaign=yelp_api_v3&utm_medium=api_v3_business_search&utm_source=a2JdNtFqB-C38ga_06BHvw", "review_count": 30, "categories": [{"alias": "mexican", "title": "Mexican"}, {"alias": "foodtrucks", "title": "Food Trucks"}, {"alias": "poke", "title": "Poke"}], "rating": 4.5, "coordinates": {"latitude": 40.58834, "longitude": -111.89479}, "transactions": ["pickup", "delivery"], "location": {"address1": "120 W 9000th S", "address2": null, "address3": "", "city": "Sandy", "zip_code": "84070", "country": "US", "state": "UT", "display_address": ["120 W 9000th S", "Sandy, UT 84070"]}, "phone": "+19546167559", "display_phone": "(954) 616-7559", "distance": 1045.9702197066904}, {"id": "SgmAboqgCRafmp6VTnPg9Q", "alias": "los-cucos-mexican-cafe-sandy-2", "name": "Los Cucos Mexican Cafe", "image_url": "https://s3-media4.fl.yelpcdn.com/bphoto/KOl7I-RavWrdreiNoq1EcA/o.jpg", "is_closed": false, "url": "https://www.yelp.com/biz/los-cucos-mexican-cafe-sandy-2?adjust_creative=a2JdNtFqB-C38ga_06BHvw&utm_campaign=yelp_api_v3&utm_medium=api_v3_business_search&utm_source=a2JdNtFqB-C38ga_06BHvw", "review_count": 509, "categories": [{"alias": "mexican", "title": "Mexican"}, {"alias": "tex-mex", "title": "Tex-Mex"}, {"alias": "bars", "title": "Bars"}], "rating": 3.5, "coordinates": {"latitude": 40.559188, "longitude": -111.890394}, "transactions": ["pickup", "delivery"], "price": "$$", "location": {"address1": "10585 S State St", "address2": "", "address3": "", "city": "Sandy", "zip_code": "84070", "country": "US", "state": "UT", "display_address": ["10585 S State St", "Sandy, UT 84070"]}, "phone": "+18015727400", "display_phone": "(801) 572-7400", "distance": 2649.499159909869}, {"id": "iebbfVsVHV5_kinOI_aQnw", "alias": "la-costa-restaurant-sandy", "name": "La Costa Restaurant", "image_url": "https://s3-media1.fl.yelpcdn.com/bphoto/iUkqgxD2VaGrLCzH_GzVlQ/o.jpg", "is_closed": false, "url": "https://www.yelp.com/biz/la-costa-restaurant-sandy?adjust_creative=a2JdNtFqB-C38ga_06BHvw&utm_campaign=yelp_api_v3&utm_medium=api_v3_business_search&utm_source=a2JdNtFqB-C38ga_06BHvw", "review_count": 183, "categories": [{"alias": "mexican", "title": "Mexican"}], "rating": 3.5, "coordinates": {"latitude": 40.580713, "longitude": -111.8663876}, "transactions": ["pickup", "delivery"], "price": "$$", "location": {"address1": "889 E 9400 S", "address2": "", "address3": null, "city": "Sandy", "zip_code": "84094", "country": "US", "state": "UT", "display_address": ["889 E 9400 S", "Sandy, UT 84094"]}, "phone": "+18015531505", "display_phone": "(801) 553-1505", "distance": 2268.2846535042345}, {"id": "tuELgU073oCasrbRyBe2rA", "alias": "olympus-burger-sandy", "name": "Olympus Burger", "image_url": "https://s3-media4.fl.yelpcdn.com/bphoto/acM_rXJR04fq1bqAwrTurQ/o.jpg", "is_closed": false, "url": "https://www.yelp.com/biz/olympus-burger-sandy?adjust_creative=a2JdNtFqB-C38ga_06BHvw&utm_campaign=yelp_api_v3&utm_medium=api_v3_business_search&utm_source=a2JdNtFqB-C38ga_06BHvw", "review_count": 50, "categories": [{"alias": "burgers", "title": "Burgers"}, {"alias": "greek", "title": "Greek"}, {"alias": "hotdogs", "title": "Fast Food"}], "rating": 4.0, "coordinates": {"latitude": 40.581978, "longitude": -111.87278}, "transactions": ["pickup", "delivery"], "price": "$", "location": {"address1": "9326 S 700th E", "address2": "", "address3": "", "city": "Sandy", "zip_code": "84070", "country": "US", "state": "UT", "display_address": ["9326 S 700th E", "Sandy, UT 84070"]}, "phone": "+18015716868", "display_phone": "(801) 571-6868", "distance": 1725.3001748225956}, {"id": "G3XXFCuKzBiIU3hl_R7jUQ", "alias": "café-zupas-south-jordan-3", "name": "Café Zupas", "image_url": "https://s3-media4.fl.yelpcdn.com/bphoto/0DDjTPv5BYc8eqKZNWpvvg/o.jpg", "is_closed": false, "url": "https://www.yelp.com/biz/caf%C3%A9-zupas-south-jordan-3?adjust_creative=a2JdNtFqB-C38ga_06BHvw&utm_campaign=yelp_api_v3&utm_medium=api_v3_business_search&utm_source=a2JdNtFqB-C38ga_06BHvw", "review_count": 108, "categories": [{"alias": "sandwiches", "title": "Sandwiches"}, {"alias": "soup", "title": "Soup"}, {"alias": "salad", "title": "Salad"}], "rating": 3.5, "coordinates": {"latitude": 40.55728, "longitude": -111.912074}, "transactions": ["pickup", "delivery"], "price": "$", "location": {"address1": "10680 River Front Pkwy", "address2": "", "address3": "", "city": "South Jordan", "zip_code": "84095", "country": "US", "state": "UT", "display_address": ["10680 River Front Pkwy", "South Jordan, UT 84095"]}, "phone": "+18012538881", "display_phone": "(801) 253-8881", "distance": 3268.5777192650667}, {"id": "qHXMws4oxG1YJyq61Mm7vA", "alias": "curry-time-food-truck-sandy", "name": "Curry Time Food Truck", "image_url": "https://s3-media4.fl.yelpcdn.com/bphoto/ZaN4KzCipZIZzw0yl08A8g/o.jpg", "is_closed": false, "url": "https://www.yelp.com/biz/curry-time-food-truck-sandy?adjust_creative=a2JdNtFqB-C38ga_06BHvw&utm_campaign=yelp_api_v3&utm_medium=api_v3_business_search&utm_source=a2JdNtFqB-C38ga_06BHvw", "review_count": 18, "categories": [{"alias": "foodtrucks", "title": "Food Trucks"}, {"alias": "indpak", "title": "Indian"}], "rating": 4.5, "coordinates": {"latitude": 40.59422, "longitude": -111.89108}, "transactions": [], "price": "$", "location": {"address1": "8660 S State St", "address2": "", "address3": null, "city": "Sandy", "zip_code": "84070", "country": "US", "state": "UT", "display_address": ["8660 S State St", "Sandy, UT 84070"]}, "phone": "+18012327179", "display_phone": "(801) 232-7179", "distance": 1271.2471245728257}, {"id": "tBKeVfmqV-qfGKnZDnQ5yQ", "alias": "five-guys-sandy", "name": "Five Guys", "image_url": "https://s3-media4.fl.yelpcdn.com/bphoto/reGFJcQvkPHKLqQAf-LT6A/o.jpg", "is_closed": false, "url": "https://www.yelp.com/biz/five-guys-sandy?adjust_creative=a2JdNtFqB-C38ga_06BHvw&utm_campaign=yelp_api_v3&utm_medium=api_v3_business_search&utm_source=a2JdNtFqB-C38ga_06BHvw", "review_count": 75, "categories": [{"alias": "burgers", "title": "Burgers"}, {"alias": "hotdogs", "title": "Fast Food"}, {"alias": "hotdog", "title": "Hot Dogs"}], "rating": 3.5, "coordinates": {"latitude": 40.5620107, "longitude": -111.8903196}, "transactions": ["delivery"], "price": "$$", "location": {"address1": "10431 S State St", "address2": "", "address3": "", "city": "Sandy", "zip_code": "84070", "country": "US", "state": "UT", "display_address": ["10431 S State St", "Sandy, UT 84070"]}, "phone": "+18015237440", "display_phone": "(801) 523-7440", "distance": 2337.6471944992204}, {"id": "4A1pvkPBP2Hr0-Nk6RJhXw", "alias": "lanikai-grill-hawaiian-bar-b-que-south-jordan-2", "name": "Lanikai Grill Hawaiian Bar-B-Que", "image_url": "https://s3-media4.fl.yelpcdn.com/bphoto/YTFPE3dDKlzbHT-dP5BWSg/o.jpg", "is_closed": false, "url": "https://www.yelp.com/biz/lanikai-grill-hawaiian-bar-b-que-south-jordan-2?adjust_creative=a2JdNtFqB-C38ga_06BHvw&utm_campaign=yelp_api_v3&utm_medium=api_v3_business_search&utm_source=a2JdNtFqB-C38ga_06BHvw", "review_count": 131, "categories": [{"alias": "hawaiian", "title": "Hawaiian"}, {"alias": "bbq", "title": "Barbeque"}], "rating": 3.5, "coordinates": {"latitude": 40.561143, "longitude": -111.921002}, "transactions": ["delivery"], "price": "$", "location": {"address1": "1072 W South Jordan Pkwy", "address2": "Ste 84095", "address3": "", "city": "South Jordan", "zip_code": "84095", "country": "US", "state": "UT", "display_address": ["1072 W South Jordan Pkwy", "Ste 84095", "South Jordan, UT 84095"]}, "phone": "+18014465586", "display_phone": "(801) 446-5586", "distance": 3375.92042320727}, {"id": "4cb036RTaOpliWyTNKWSMQ", "alias": "salt-city-burger-sandy-2", "name": "Salt City Burger", "image_url": "https://s3-media2.fl.yelpcdn.com/bphoto/4cBilB0ikTjHYW9jsDwZAQ/o.jpg", "is_closed": false, "url": "https://www.yelp.com/biz/salt-city-burger-sandy-2?adjust_creative=a2JdNtFqB-C38ga_06BHvw&utm_campaign=yelp_api_v3&utm_medium=api_v3_business_search&utm_source=a2JdNtFqB-C38ga_06BHvw", "review_count": 232, "categories": [{"alias": "burgers", "title": "Burgers"}], "rating": 3.5, "coordinates": {"latitude": 40.584761, "longitude": -111.863381}, "transactions": ["pickup", "delivery"], "price": "$$", "location": {"address1": "9176 S Village Shop Dr", "address2": "", "address3": "", "city": "Sandy", "zip_code": "84094", "country": "US", "state": "UT", "display_address": ["9176 S Village Shop Dr", "Sandy, UT 84094"]}, "phone": "+18014954111", "display_phone": "(801) 495-4111", "distance": 2522.714461319667}, {"id": "UNx3OdEWR1UnFRRYXR4uhQ", "alias": "firehouse-subs-sandy", "name": "Firehouse Subs", "image_url": "https://s3-media2.fl.yelpcdn.com/bphoto/b28eoeEad2LIbmks-JJcBg/o.jpg", "is_closed": false, "url": "https://www.yelp.com/biz/firehouse-subs-sandy?adjust_creative=a2JdNtFqB-C38ga_06BHvw&utm_campaign=yelp_api_v3&utm_medium=api_v3_business_search&utm_source=a2JdNtFqB-C38ga_06BHvw", "review_count": 71, "categories": [{"alias": "sandwiches", "title": "Sandwiches"}, {"alias": "hotdogs", "title": "Fast Food"}, {"alias": "delis", "title": "Delis"}], "rating": 3.5, "coordinates": {"latitude": 40.563798, "longitude": -111.890288}, "transactions": ["pickup", "delivery"], "price": "$", "location": {"address1": "10325 S State St", "address2": "", "address3": "", "city": "Sandy", "zip_code": "84070", "country": "US", "state": "UT", "display_address": ["10325 S State St", "Sandy, UT 84070"]}, "phone": "+18014322162", "display_phone": "(801) 432-2162", "distance": 2140.352091738009}, {"id": "2TRXkgQFImNFL9CtP6Z8qw", "alias": "eiko-cafe-sandy-6", "name": "Eiko Cafe ", "image_url": "https://s3-media3.fl.yelpcdn.com/bphoto/K1oCx13D4TkmFte_jHbxhg/o.jpg", "is_closed": false, "url": "https://www.yelp.com/biz/eiko-cafe-sandy-6?adjust_creative=a2JdNtFqB-C38ga_06BHvw&utm_campaign=yelp_api_v3&utm_medium=api_v3_business_search&utm_source=a2JdNtFqB-C38ga_06BHvw", "review_count": 22, "categories": [{"alias": "japanese", "title": "Japanese"}, {"alias": "sushi", "title": "Sushi Bars"}], "rating": 4.0, "coordinates": {"latitude": 40.609, "longitude": -111.87285}, "transactions": ["pickup", "delivery"], "location": {"address1": "7824 700th E", "address2": "", "address3": null, "city": "Sandy", "zip_code": "84070", "country": "US", "state": "UT", "display_address": ["7824 700th E", "Sandy, UT 84070"]}, "phone": "+18019897029", "display_phone": "(801) 989-7029", "distance": 3371.0229327160705}, {"id": "oQfr6sFW_ODLJtgfb_5fsA", "alias": "jims-family-restaurant-sandy-2", "name": "Jim's Family Restaurant", "image_url": "https://s3-media2.fl.yelpcdn.com/bphoto/ZVtvoyFrlHJ8BQBRKhpkfA/o.jpg", "is_closed": false, "url": "https://www.yelp.com/biz/jims-family-restaurant-sandy-2?adjust_creative=a2JdNtFqB-C38ga_06BHvw&utm_campaign=yelp_api_v3&utm_medium=api_v3_business_search&utm_source=a2JdNtFqB-C38ga_06BHvw", "review_count": 62, "categories": [{"alias": "newamerican", "title": "American (New)"}], "rating": 3.5, "coordinates": {"latitude": 40.558, "longitude": -111.8963}, "transactions": ["delivery"], "price": "$$", "location": {"address1": "10640 S Holiday Park Dr", "address2": null, "address3": null, "city": "Sandy", "zip_code": "84070", "country": "US", "state": "UT", "display_address": ["10640 S Holiday Park Dr", "Sandy, UT 84070"]}, "phone": "+18015538100", "display_phone": "(801) 553-8100", "distance": 2782.471561701885}, {"id": "5pJlh98tCk6Ix_0VEm5lLw", "alias": "fuji-japanese-steakhouse-sandy", "name": "Fuji Japanese Steakhouse", "image_url": "https://s3-media3.fl.yelpcdn.com/bphoto/GmnHybYhO_JlIuAYq3Cpqw/o.jpg", "is_closed": false, "url": "https://www.yelp.com/biz/fuji-japanese-steakhouse-sandy?adjust_creative=a2JdNtFqB-C38ga_06BHvw&utm_campaign=yelp_api_v3&utm_medium=api_v3_business_search&utm_source=a2JdNtFqB-C38ga_06BHvw", "review_count": 187, "categories": [{"alias": "sushi", "title": "Sushi Bars"}, {"alias": "steak", "title": "Steakhouses"}], "rating": 3.0, "coordinates": {"latitude": 40.5578953521976, "longitude": -111.889451566872}, "transactions": ["delivery"], "price": "$$", "location": {"address1": "10649 S State St", "address2": "", "address3": "", "city": "Sandy", "zip_code": "84070", "country": "US", "state": "UT", "display_address": ["10649 S State St", "Sandy, UT 84070"]}, "phone": "+18015236022", "display_phone": "(801) 523-6022", "distance": 2800.4787462971494}, {"id": "v8dTkYNjlg1ubksPE9u2cg", "alias": "archibald-s-restaurant-at-gardner-village-west-jordan", "name": "Archibald’s Restaurant at Gardner Village", "image_url": "https://s3-media1.fl.yelpcdn.com/bphoto/OgKnFea3qqJEIJt4FyvGXw/o.jpg", "is_closed": false, "url": "https://www.yelp.com/biz/archibald-s-restaurant-at-gardner-village-west-jordan?adjust_creative=a2JdNtFqB-C38ga_06BHvw&utm_campaign=yelp_api_v3&utm_medium=api_v3_business_search&utm_source=a2JdNtFqB-C38ga_06BHvw", "review_count": 141, "categories": [{"alias": "newamerican", "title": "American (New)"}, {"alias": "seafood", "title": "Seafood"}], "rating": 3.5, "coordinates": {"latitude": 40.6094299, "longitude": -111.9232959}, "transactions": ["delivery"], "price": "$$", "location": {"address1": "1100 W 7800th S", "address2": "", "address3": "", "city": "West Jordan", "zip_code": "84088", "country": "US", "state": "UT", "display_address": ["1100 W 7800th S", "West Jordan, UT 84088"]}, "phone": "+18015666940", "display_phone": "(801) 566-6940", "distance": 3893.9931315853864}, {"id": "VtjpqvtP41ATi2Wj0NigLw", "alias": "jcws-south-jordan-5", "name": "JCW's", "image_url": "https://s3-media1.fl.yelpcdn.com/bphoto/QrcPQL4yVKLG_MwcoC8Hrw/o.jpg", "is_closed": false, "url": "https://www.yelp.com/biz/jcws-south-jordan-5?adjust_creative=a2JdNtFqB-C38ga_06BHvw&utm_campaign=yelp_api_v3&utm_medium=api_v3_business_search&utm_source=a2JdNtFqB-C38ga_06BHvw", "review_count": 168, "categories": [{"alias": "burgers", "title": "Burgers"}, {"alias": "icecream", "title": "Ice Cream & Frozen Yogurt"}], "rating": 3.0, "coordinates": {"latitude": 40.557872, "longitude": -111.910949}, "transactions": ["pickup", "delivery"], "price": "$", "location": {"address1": "10660 S River Front Pkwy", "address2": "", "address3": "", "city": "South Jordan", "zip_code": "84095", "country": "US", "state": "UT", "display_address": ["10660 S River Front Pkwy", "South Jordan, UT 84095"]}, "phone": "+18019818873", "display_phone": "(801) 981-8873", "distance": 3176.6272489644384}, {"id": "2C93XnjJJibVLSqF54lWtQ", "alias": "oh-mai-sandy-sandy-2", "name": "Oh Mai Sandy", "image_url": "https://s3-media1.fl.yelpcdn.com/bphoto/zdiVKyfoKRRptDI7FGSahg/o.jpg", "is_closed": false, "url": "https://www.yelp.com/biz/oh-mai-sandy-sandy-2?adjust_creative=a2JdNtFqB-C38ga_06BHvw&utm_campaign=yelp_api_v3&utm_medium=api_v3_business_search&utm_source=a2JdNtFqB-C38ga_06BHvw", "review_count": 40, "categories": [{"alias": "vietnamese", "title": "Vietnamese"}, {"alias": "sandwiches", "title": "Sandwiches"}], "rating": 3.5, "coordinates": {"latitude": 40.607189, "longitude": -111.871459}, "transactions": ["pickup", "delivery"], "price": "$", "location": {"address1": "7905 S 700th E", "address2": "", "address3": "", "city": "Sandy", "zip_code": "84070", "country": "US", "state": "UT", "display_address": ["7905 S 700th E", "Sandy, UT 84070"]}, "phone": "+18019963613", "display_phone": "(801) 996-3613", "distance": 3261.189880454198}, {"id": "v7gT3CvhRsdKLYMXlcaWrA", "alias": "a-bar-named-sue-on-state-midvale", "name": "A Bar Named Sue On State", "image_url": "https://s3-media2.fl.yelpcdn.com/bphoto/sK7nrVtSX_j1dPUcyKmCKw/o.jpg", "is_closed": false, "url": "https://www.yelp.com/biz/a-bar-named-sue-on-state-midvale?adjust_creative=a2JdNtFqB-C38ga_06BHvw&utm_campaign=yelp_api_v3&utm_medium=api_v3_business_search&utm_source=a2JdNtFqB-C38ga_06BHvw", "review_count": 71, "categories": [{"alias": "sportsbars", "title": "Sports Bars"}, {"alias": "burgers", "title": "Burgers"}], "rating": 3.5, "coordinates": {"latitude": 40.603802, "longitude": -111.891234}, "transactions": ["delivery"], "price": "$$", "location": {"address1": "8136 S State St", "address2": "", "address3": "", "city": "Midvale", "zip_code": "84047", "country": "US", "state": "UT", "display_address": ["8136 S State St", "Midvale, UT 84047"]}, "phone": "+18015663222", "display_phone": "(801) 566-3222", "distance": 2327.301328616147}, {"id": "xtDZkaO4i1uBXOyj04mwiA", "alias": "potbelly-sandwich-shop-sandy", "name": "Potbelly Sandwich Shop", "image_url": "https://s3-media2.fl.yelpcdn.com/bphoto/d1rvRF9MWZ2ZivSlUSOR6w/o.jpg", "is_closed": false, "url": "https://www.yelp.com/biz/potbelly-sandwich-shop-sandy?adjust_creative=a2JdNtFqB-C38ga_06BHvw&utm_campaign=yelp_api_v3&utm_medium=api_v3_business_search&utm_source=a2JdNtFqB-C38ga_06BHvw", "review_count": 56, "categories": [{"alias": "hotdogs", "title": "Fast Food"}, {"alias": "sandwiches", "title": "Sandwiches"}, {"alias": "salad", "title": "Salad"}], "rating": 3.5, "coordinates": {"latitude": 40.559355158719235, "longitude": -111.89444942543527}, "transactions": ["pickup", "delivery"], "price": "$", "location": {"address1": "130 W 10600th S", "address2": "Ste B", "address3": "", "city": "Sandy", "zip_code": "84070", "country": "US", "state": "UT", "display_address": ["130 W 10600th S", "Ste B", "Sandy, UT 84070"]}, "phone": "+18013074830", "display_phone": "(801) 307-4830", "distance": 2622.8976091493246}, {"id": "sN1MvMstngN2T8BVSdZpxQ", "alias": "joes-crab-shack-sandy", "name": "Joe's Crab Shack", "image_url": "https://s3-media2.fl.yelpcdn.com/bphoto/kOYXX6T_r4c4CPZOCR_VQA/o.jpg", "is_closed": false, "url": "https://www.yelp.com/biz/joes-crab-shack-sandy?adjust_creative=a2JdNtFqB-C38ga_06BHvw&utm_campaign=yelp_api_v3&utm_medium=api_v3_business_search&utm_source=a2JdNtFqB-C38ga_06BHvw", "review_count": 146, "categories": [{"alias": "seafood", "title": "Seafood"}, {"alias": "tradamerican", "title": "American (Traditional)"}], "rating": 3.0, "coordinates": {"latitude": 40.5816181, "longitude": -111.8887184}, "transactions": ["pickup", "delivery"], "price": "$$", "location": {"address1": "65 E 9400th S", "address2": "", "address3": "", "city": "Sandy", "zip_code": "84070", "country": "US", "state": "UT", "display_address": ["65 E 9400th S", "Sandy, UT 84070"]}, "phone": "+18012559571", "display_phone": "(801) 255-9571", "distance": 401.861979152108}, {"id": "G6ksjVy0G_37zU_N2A3SKw", "alias": "olive-garden-italian-restaurant-sandy-3", "name": "Olive Garden Italian Restaurant", "image_url": "https://s3-media4.fl.yelpcdn.com/bphoto/srpPHzoE5Y_kUawvxokzvg/o.jpg", "is_closed": false, "url": "https://www.yelp.com/biz/olive-garden-italian-restaurant-sandy-3?adjust_creative=a2JdNtFqB-C38ga_06BHvw&utm_campaign=yelp_api_v3&utm_medium=api_v3_business_search&utm_source=a2JdNtFqB-C38ga_06BHvw", "review_count": 102, "categories": [{"alias": "italian", "title": "Italian"}, {"alias": "salad", "title": "Salad"}, {"alias": "soup", "title": "Soup"}], "rating": 3.0, "coordinates": {"latitude": 40.559937, "longitude": -111.891315}, "transactions": [], "price": "$$", "location": {"address1": "10540 S State St", "address2": "", "address3": "", "city": "Sandy", "zip_code": "84070", "country": "US", "state": "UT", "display_address": ["10540 S State St", "Sandy, UT 84070"]}, "phone": "+18015236148", "display_phone": "(801) 523-6148", "distance": 2560.6494079082076}, {"id": "lDHozV5T1I0p4uA0m0u3Kw", "alias": "legends-pub-and-grill-southtown-sandy-3", "name": "Legends Pub & Grill Southtown", "image_url": "https://s3-media2.fl.yelpcdn.com/bphoto/5CJ0Wj0blY7sk6oNEiRjWQ/o.jpg", "is_closed": false, "url": "https://www.yelp.com/biz/legends-pub-and-grill-southtown-sandy-3?adjust_creative=a2JdNtFqB-C38ga_06BHvw&utm_campaign=yelp_api_v3&utm_medium=api_v3_business_search&utm_source=a2JdNtFqB-C38ga_06BHvw", "review_count": 22, "categories": [{"alias": "pubs", "title": "Pubs"}, {"alias": "burgers", "title": "Burgers"}, {"alias": "tradamerican", "title": "American (Traditional)"}], "rating": 4.0, "coordinates": {"latitude": 40.558136722, "longitude": -111.8952852}, "transactions": ["delivery"], "location": {"address1": "10631 S Holliday Park Dr", "address2": null, "address3": "", "city": "Sandy", "zip_code": "84070", "country": "US", "state": "UT", "display_address": ["10631 S Holliday Park Dr", "Sandy, UT 84070"]}, "phone": "+18016791749", "display_phone": "(801) 679-1749", "distance": 2761.966570332075}, {"id": "tdU66MVCWoiUydaOtqpZWg", "alias": "legends-sports-pub-sandy", "name": "Legends Sports Pub", "image_url": "https://s3-media3.fl.yelpcdn.com/bphoto/7P4NzkempTGXqbhhwpYFAg/o.jpg", "is_closed": false, "url": "https://www.yelp.com/biz/legends-sports-pub-sandy?adjust_creative=a2JdNtFqB-C38ga_06BHvw&utm_campaign=yelp_api_v3&utm_medium=api_v3_business_search&utm_source=a2JdNtFqB-C38ga_06BHvw", "review_count": 31, "categories": [{"alias": "pizza", "title": "Pizza"}, {"alias": "burgers", "title": "Burgers"}, {"alias": "pubs", "title": "Pubs"}], "rating": 3.5, "coordinates": {"latitude": 40.558112, "longitude": -111.895277}, "transactions": [], "price": "$$", "location": {"address1": "10631 Holiday Park Dr", "address2": "", "address3": null, "city": "Sandy", "zip_code": "84070", "country": "US", "state": "UT", "display_address": ["10631 Holiday Park Dr", "Sandy, UT 84070"]}, "phone": "", "display_phone": "", "distance": 2766.851222282142}, {"id": "gm1J8DYDEn_nb7OcjB7A0g", "alias": "market-street-oyster-bar-south-jordan-south-jordan-2", "name": "Market Street Oyster Bar - South Jordan", "image_url": "https://s3-media3.fl.yelpcdn.com/bphoto/CefS8aGBSRa49YlyQVHZlg/o.jpg", "is_closed": false, "url": "https://www.yelp.com/biz/market-street-oyster-bar-south-jordan-south-jordan-2?adjust_creative=a2JdNtFqB-C38ga_06BHvw&utm_campaign=yelp_api_v3&utm_medium=api_v3_business_search&utm_source=a2JdNtFqB-C38ga_06BHvw", "review_count": 85, "categories": [{"alias": "seafood", "title": "Seafood"}, {"alias": "steak", "title": "Steakhouses"}, {"alias": "tradamerican", "title": "American (Traditional)"}], "rating": 3.0, "coordinates": {"latitude": 40.5566756, "longitude": -111.9129859}, "transactions": ["delivery"], "price": "$$$", "location": {"address1": "10702 S River Front Pkwy", "address2": "", "address3": "", "city": "South Jordan", "zip_code": "84095", "country": "US", "state": "UT", "display_address": ["10702 S River Front Pkwy", "South Jordan, UT 84095"]}, "phone": "+18013022264", "display_phone": "(801) 302-2264", "distance": 3365.0387786307747}, {"id": "G8Y0fu07zBH9tshj0rWM5g", "alias": "greek-souvlaki-south-jordan", "name": "Greek Souvlaki", "image_url": "https://s3-media3.fl.yelpcdn.com/bphoto/HxwCw-95ZelDyD6WSa0e5Q/o.jpg", "is_closed": false, "url": "https://www.yelp.com/biz/greek-souvlaki-south-jordan?adjust_creative=a2JdNtFqB-C38ga_06BHvw&utm_campaign=yelp_api_v3&utm_medium=api_v3_business_search&utm_source=a2JdNtFqB-C38ga_06BHvw", "review_count": 77, "categories": [{"alias": "greek", "title": "Greek"}], "rating": 3.0, "coordinates": {"latitude": 40.55993, "longitude": -111.92091}, "transactions": ["pickup", "delivery"], "price": "$", "location": {"address1": "1067 South Jordan Pkwy W", "address2": "", "address3": "", "city": "South Jordan", "zip_code": "84095", "country": "US", "state": "UT", "display_address": ["1067 South Jordan Pkwy W", "South Jordan, UT 84095"]}, "phone": "+18018490653", "display_phone": "(801) 849-0653", "distance": 3440.2596336151664}, {"id": "cZHPBEouCsyuE45c7aRYOA", "alias": "market-street-grill-south-jordan-3", "name": "Market Street Grill", "image_url": "https://s3-media1.fl.yelpcdn.com/bphoto/81KFe6uBc9aEYgoHMIZgYw/o.jpg", "is_closed": false, "url": "https://www.yelp.com/biz/market-street-grill-south-jordan-3?adjust_creative=a2JdNtFqB-C38ga_06BHvw&utm_campaign=yelp_api_v3&utm_medium=api_v3_business_search&utm_source=a2JdNtFqB-C38ga_06BHvw", "review_count": 251, "categories": [{"alias": "seafood", "title": "Seafood"}, {"alias": "newamerican", "title": "American (New)"}, {"alias": "steak", "title": "Steakhouses"}], "rating": 3.0, "coordinates": {"latitude": 40.55805, "longitude": -111.914}, "transactions": ["pickup", "delivery"], "price": "$$", "location": {"address1": "10702 S River Front Pkwy", "address2": "", "address3": "", "city": "South Jordan", "zip_code": "84095", "country": "US", "state": "UT", "display_address": ["10702 S River Front Pkwy", "South Jordan, UT 84095"]}, "phone": "+18013022262", "display_phone": "(801) 302-2262", "distance": 3276.352395626411}, {"id": "htPeHJgHbXYoAvBKRFHHKg", "alias": "la-fountain-sandy-sandy", "name": "La Fountain - Sandy", "image_url": "https://s3-media4.fl.yelpcdn.com/bphoto/CkCeNA5mkUrDyM1IbesU9Q/o.jpg", "is_closed": false, "url": "https://www.yelp.com/biz/la-fountain-sandy-sandy?adjust_creative=a2JdNtFqB-C38ga_06BHvw&utm_campaign=yelp_api_v3&utm_medium=api_v3_business_search&utm_source=a2JdNtFqB-C38ga_06BHvw", "review_count": 72, "categories": [{"alias": "mexican", "title": "Mexican"}], "rating": 3.0, "coordinates": {"latitude": 40.5852007, "longitude": -111.8623738}, "transactions": ["delivery"], "price": "$", "location": {"address1": "9103 S Quarry Bend", "address2": "", "address3": "", "city": "Sandy", "zip_code": "84094", "country": "US", "state": "UT", "display_address": ["9103 S Quarry Bend", "Sandy, UT 84094"]}, "phone": "+18017277893", "display_phone": "(801) 727-7893", "distance": 2611.7779721281095}, {"id": "eMzb1lzxIDn4hVXA6cW3fg", "alias": "b-and-d-burgers-midvale", "name": "B & D Burgers", "image_url": "https://s3-media2.fl.yelpcdn.com/bphoto/IDGesF9NoDhDI37StMJ0wA/o.jpg", "is_closed": false, "url": "https://www.yelp.com/biz/b-and-d-burgers-midvale?adjust_creative=a2JdNtFqB-C38ga_06BHvw&utm_campaign=yelp_api_v3&utm_medium=api_v3_business_search&utm_source=a2JdNtFqB-C38ga_06BHvw", "review_count": 56, "categories": [{"alias": "burgers", "title": "Burgers"}], "rating": 3.0, "coordinates": {"latitude": 40.60976924236384, "longitude": -111.89041511991145}, "transactions": ["pickup", "delivery"], "price": "$", "location": {"address1": "7793 S State St", "address2": "", "address3": "", "city": "Midvale", "zip_code": "84047", "country": "US", "state": "UT", "display_address": ["7793 S State St", "Midvale, UT 84047"]}, "phone": "+18012555900", "display_phone": "(801) 255-5900", "distance": 2994.11920388818}, {"id": "CXPnyX2gNKh0H9_-e_PaLw", "alias": "arbys-sandy", "name": "Arby's", "image_url": "https://s3-media2.fl.yelpcdn.com/bphoto/6ebX63fcy4NUDXnPSdXsPg/o.jpg", "is_closed": false, "url": "https://www.yelp.com/biz/arbys-sandy?adjust_creative=a2JdNtFqB-C38ga_06BHvw&utm_campaign=yelp_api_v3&utm_medium=api_v3_business_search&utm_source=a2JdNtFqB-C38ga_06BHvw", "review_count": 18, "categories": [{"alias": "hotdogs", "title": "Fast Food"}, {"alias": "sandwiches", "title": "Sandwiches"}], "rating": 4.0, "coordinates": {"latitude": 40.587583, "longitude": -111.895417}, "transactions": ["pickup", "delivery"], "price": "$", "location": {"address1": "129 W 9000 S", "address2": null, "address3": null, "city": "Sandy", "zip_code": "84070", "country": "US", "state": "UT", "display_address": ["129 W 9000 S", "Sandy, UT 84070"]}, "phone": "+18015663791", "display_phone": "(801) 566-3791", "distance": 552.225252646893}, {"id": "O2Ck2864ZuGfI5qg7QP0Rw", "alias": "café-zupas-sandy-4", "name": "Café Zupas", "image_url": "https://s3-media2.fl.yelpcdn.com/bphoto/4MZSlzCxtDSFJdNUWLvdZA/o.jpg", "is_closed": false, "url": "https://www.yelp.com/biz/caf%C3%A9-zupas-sandy-4?adjust_creative=a2JdNtFqB-C38ga_06BHvw&utm_campaign=yelp_api_v3&utm_medium=api_v3_business_search&utm_source=a2JdNtFqB-C38ga_06BHvw", "review_count": 83, "categories": [{"alias": "salad", "title": "Salad"}, {"alias": "soup", "title": "Soup"}, {"alias": "sandwiches", "title": "Sandwiches"}], "rating": 3.0, "coordinates": {"latitude": 40.583501, "longitude": -111.86314}, "transactions": ["pickup", "delivery"], "price": "$", "location": {"address1": "9242 S Village Shop Dr", "address2": "", "address3": "", "city": "Sandy", "zip_code": "84094", "country": "US", "state": "UT", "display_address": ["9242 S Village Shop Dr", "Sandy, UT 84094"]}, "phone": "+13852122612", "display_phone": "(385) 212-2612", "distance": 2535.612511713186}, {"id": "PuzPa_342yrlLe9klGbgWA", "alias": "mulligans-golf-and-games-south-jordan", "name": "Mulligans Golf & Games", "image_url": "https://s3-media1.fl.yelpcdn.com/bphoto/RtQ1ZO9AakrAatAxR6uVUA/o.jpg", "is_closed": false, "url": "https://www.yelp.com/biz/mulligans-golf-and-games-south-jordan?adjust_creative=a2JdNtFqB-C38ga_06BHvw&utm_campaign=yelp_api_v3&utm_medium=api_v3_business_search&utm_source=a2JdNtFqB-C38ga_06BHvw", "review_count": 47, "categories": [{"alias": "golf", "title": "Golf"}, {"alias": "mini_golf", "title": "Mini Golf"}, {"alias": "cafes", "title": "Cafes"}], "rating": 3.5, "coordinates": {"latitude": 40.5598, "longitude": -111.9105}, "transactions": [], "location": {"address1": "692 W S Jordan Pkwy", "address2": "", "address3": "", "city": "South Jordan", "zip_code": "84095", "country": "US", "state": "UT", "display_address": ["692 W S Jordan Pkwy", "South Jordan, UT 84095"]}, "phone": "+18012543377", "display_phone": "(801) 254-3377", "distance": 3040.3486423098307}, {"id": "LlB0T74ZuxDuOdYdtnmk-A", "alias": "kneaders-bakery-and-cafe-south-jordan", "name": "Kneaders Bakery & Cafe", "image_url": "https://s3-media1.fl.yelpcdn.com/bphoto/TZZKAyvWuMulngO3b3BEPw/o.jpg", "is_closed": false, "url": "https://www.yelp.com/biz/kneaders-bakery-and-cafe-south-jordan?adjust_creative=a2JdNtFqB-C38ga_06BHvw&utm_campaign=yelp_api_v3&utm_medium=api_v3_business_search&utm_source=a2JdNtFqB-C38ga_06BHvw", "review_count": 121, "categories": [{"alias": "sandwiches", "title": "Sandwiches"}], "rating": 3.0, "coordinates": {"latitude": 40.5602033224367, "longitude": -111.917717834422}, "transactions": ["delivery"], "price": "$", "location": {"address1": "962 SW Jordan Prkwy", "address2": "", "address3": "", "city": "South Jordan", "zip_code": "84095", "country": "US", "state": "UT", "display_address": ["962 SW Jordan Prkwy", "South Jordan, UT 84095"]}, "phone": "+18014460888", "display_phone": "(801) 446-0888", "distance": 3268.9539731276627}, {"id": "2YPSKCPDS_H-pVzbz0uuPg", "alias": "chilis-sandy", "name": "Chili's", "image_url": "https://s3-media2.fl.yelpcdn.com/bphoto/lCkPsrYhO99rqAYo0XwLJQ/o.jpg", "is_closed": false, "url": "https://www.yelp.com/biz/chilis-sandy?adjust_creative=a2JdNtFqB-C38ga_06BHvw&utm_campaign=yelp_api_v3&utm_medium=api_v3_business_search&utm_source=a2JdNtFqB-C38ga_06BHvw", "review_count": 98, "categories": [{"alias": "tradamerican", "title": "American (Traditional)"}, {"alias": "bars", "title": "Bars"}, {"alias": "tex-mex", "title": "Tex-Mex"}], "rating": 3.0, "coordinates": {"latitude": 40.561832, "longitude": -111.891173}, "transactions": [], "price": "$$", "location": {"address1": "10430 S State St", "address2": "", "address3": "", "city": "Sandy", "zip_code": "84070", "country": "US", "state": "UT", "display_address": ["10430 S State St", "Sandy, UT 84070"]}, "phone": "+18015768081", "display_phone": "(801) 576-8081", "distance": 2351.1827373873107}, {"id": "d81O4Pc0HT38rZtzlFCH3g", "alias": "battle-grounds-sandy-sandy", "name": "Battle Grounds Sandy", "image_url": "https://s3-media2.fl.yelpcdn.com/bphoto/LUfLNHpLVB1gvzZl3HGgKw/o.jpg", "is_closed": false, "url": "https://www.yelp.com/biz/battle-grounds-sandy-sandy?adjust_creative=a2JdNtFqB-C38ga_06BHvw&utm_campaign=yelp_api_v3&utm_medium=api_v3_business_search&utm_source=a2JdNtFqB-C38ga_06BHvw", "review_count": 11, "categories": [{"alias": "cafes", "title": "Cafes"}, {"alias": "coffee", "title": "Coffee & Tea"}], "rating": 4.0, "coordinates": {"latitude": 40.5713973, "longitude": -111.8729288}, "transactions": ["delivery"], "price": "$", "location": {"address1": "9860 South 700 E", "address2": "Ste 2", "address3": "", "city": "Sandy", "zip_code": "84070", "country": "US", "state": "UT", "display_address": ["9860 South 700 E", "Ste 2", "Sandy, UT 84070"]}, "phone": "+18018490945", "display_phone": "(801) 849-0945", "distance": 2135.6032818528024}, {"id": "6ERvmb2XxW9CZbJLC_u8wA", "alias": "fortune-cuisine-sandy", "name": "Fortune Cuisine", "image_url": "https://s3-media3.fl.yelpcdn.com/bphoto/7NcX4jh6JdM6sB3unLZlgQ/o.jpg", "is_closed": false, "url": "https://www.yelp.com/biz/fortune-cuisine-sandy?adjust_creative=a2JdNtFqB-C38ga_06BHvw&utm_campaign=yelp_api_v3&utm_medium=api_v3_business_search&utm_source=a2JdNtFqB-C38ga_06BHvw", "review_count": 66, "categories": [{"alias": "chinese", "title": "Chinese"}], "rating": 3.0, "coordinates": {"latitude": 40.5787405936168, "longitude": -111.873662102851}, "transactions": ["pickup", "delivery"], "price": "$", "location": {"address1": "652 E 9400th S", "address2": null, "address3": null, "city": "Sandy", "zip_code": "84070", "country": "US", "state": "UT", "display_address": ["652 E 9400th S", "Sandy, UT 84070"]}, "phone": "+18018169797", "display_phone": "(801) 816-9797", "distance": 1710.7109738325646}, {"id": "Dda2huv5Ee4GEYMNms4bcQ", "alias": "club-90-sandy", "name": "Club 90", "image_url": "https://s3-media4.fl.yelpcdn.com/bphoto/E1t9SK0D6uSXpBgwNxKlcw/o.jpg", "is_closed": false, "url": "https://www.yelp.com/biz/club-90-sandy?adjust_creative=a2JdNtFqB-C38ga_06BHvw&utm_campaign=yelp_api_v3&utm_medium=api_v3_business_search&utm_source=a2JdNtFqB-C38ga_06BHvw", "review_count": 48, "categories": [{"alias": "danceclubs", "title": "Dance Clubs"}, {"alias": "lounges", "title": "Lounges"}, {"alias": "tradamerican", "title": "American (Traditional)"}], "rating": 3.0, "coordinates": {"latitude": 40.5868263244629, "longitude": -111.895645141602}, "transactions": ["delivery"], "price": "$$", "location": {"address1": "9065 Monroe St", "address2": "", "address3": "", "city": "Sandy", "zip_code": "84070", "country": "US", "state": "UT", "display_address": ["9065 Monroe St", "Sandy, UT 84070"]}, "phone": "+18015663254", "display_phone": "(801) 566-3254", "distance": 469.98218922493953}, {"id": "_cU1FwIeoRx2Q5AayBLlFg", "alias": "chipotle-mexican-grill-sandy-2", "name": "Chipotle Mexican Grill", "image_url": "https://s3-media3.fl.yelpcdn.com/bphoto/qGyBc3RLVJztBPuS0zJ6EA/o.jpg", "is_closed": false, "url": "https://www.yelp.com/biz/chipotle-mexican-grill-sandy-2?adjust_creative=a2JdNtFqB-C38ga_06BHvw&utm_campaign=yelp_api_v3&utm_medium=api_v3_business_search&utm_source=a2JdNtFqB-C38ga_06BHvw", "review_count": 149, "categories": [{"alias": "mexican", "title": "Mexican"}, {"alias": "hotdogs", "title": "Fast Food"}], "rating": 2.5, "coordinates": {"latitude": 40.5626127, "longitude": -111.8904488}, "transactions": ["delivery"], "price": "$", "location": {"address1": "10387 S State St", "address2": "", "address3": "", "city": "Sandy", "zip_code": "84070", "country": "US", "state": "UT", "display_address": ["10387 S State St", "Sandy, UT 84070"]}, "phone": "+18015718547", "display_phone": "(801) 571-8547", "distance": 2269.945447263103}, {"id": "aUD-H6fdVkR0zE83VjHJvQ", "alias": "el-pollo-loco-sandy-2", "name": "El Pollo Loco", "image_url": "https://s3-media4.fl.yelpcdn.com/bphoto/gqEE5PCWwl1jodA0v0vRyw/o.jpg", "is_closed": false, "url": "https://www.yelp.com/biz/el-pollo-loco-sandy-2?adjust_creative=a2JdNtFqB-C38ga_06BHvw&utm_campaign=yelp_api_v3&utm_medium=api_v3_business_search&utm_source=a2JdNtFqB-C38ga_06BHvw", "review_count": 69, "categories": [{"alias": "hotdogs", "title": "Fast Food"}, {"alias": "mexican", "title": "Mexican"}], "rating": 3.0, "coordinates": {"latitude": 40.559286, "longitude": -111.891247}, "transactions": ["delivery"], "price": "$", "location": {"address1": "10590 S State St", "address2": null, "address3": null, "city": "Sandy", "zip_code": "84070", "country": "US", "state": "UT", "display_address": ["10590 S State St", "Sandy, UT 84070"]}, "phone": "+18015721206", "display_phone": "(801) 572-1206", "distance": 2633.2527971695417}, {"id": "Cz5gNEl1LsmEWo0IpnAr4w", "alias": "rumbi-island-grill-sandy", "name": "Rumbi Island Grill", "image_url": "https://s3-media3.fl.yelpcdn.com/bphoto/8C5Ta1dXiDA-vXhk9AcqQw/o.jpg", "is_closed": false, "url": "https://www.yelp.com/biz/rumbi-island-grill-sandy?adjust_creative=a2JdNtFqB-C38ga_06BHvw&utm_campaign=yelp_api_v3&utm_medium=api_v3_business_search&utm_source=a2JdNtFqB-C38ga_06BHvw", "review_count": 35, "categories": [{"alias": "burgers", "title": "Burgers"}], "rating": 3.0, "coordinates": {"latitude": 40.563314, "longitude": -111.89037}, "transactions": [], "price": "$", "location": {"address1": "10365 S State St", "address2": null, "address3": null, "city": "Sandy", "zip_code": "84070", "country": "US", "state": "UT", "display_address": ["10365 S State St", "Sandy, UT 84070"]}, "phone": "+18015233610", "display_phone": "(801) 523-3610", "distance": 2193.079237464752}, {"id": "ActdatQz6sKFrltmatqk-w", "alias": "pei-wei-sandy", "name": "Pei Wei", "image_url": "https://s3-media3.fl.yelpcdn.com/bphoto/tfPYOA3qSdJ4pclWP6MVYw/o.jpg", "is_closed": false, "url": "https://www.yelp.com/biz/pei-wei-sandy?adjust_creative=a2JdNtFqB-C38ga_06BHvw&utm_campaign=yelp_api_v3&utm_medium=api_v3_business_search&utm_source=a2JdNtFqB-C38ga_06BHvw", "review_count": 162, "categories": [{"alias": "asianfusion", "title": "Asian Fusion"}, {"alias": "chinese", "title": "Chinese"}, {"alias": "gluten_free", "title": "Gluten-Free"}], "rating": 2.5, "coordinates": {"latitude": 40.563180521160675, "longitude": -111.89020307115084}, "transactions": ["delivery"], "price": "$$", "location": {"address1": "10373 S State St", "address2": "", "address3": "", "city": "Sandy", "zip_code": "84070", "country": "US", "state": "UT", "display_address": ["10373 S State St", "Sandy, UT 84070"]}, "phone": "+18016011990", "display_phone": "(801) 601-1990", "distance": 2209.383436127763}, {"id": "Fm01XPYAMEmwQRM4_IiYDg", "alias": "osaka-japan-murray", "name": "Osaka Japan", "image_url": "https://s3-media1.fl.yelpcdn.com/bphoto/bjF5kke8GuCxk9g4fVVq2A/o.jpg", "is_closed": false, "url": "https://www.yelp.com/biz/osaka-japan-murray?adjust_creative=a2JdNtFqB-C38ga_06BHvw&utm_campaign=yelp_api_v3&utm_medium=api_v3_business_search&utm_source=a2JdNtFqB-C38ga_06BHvw", "review_count": 25, "categories": [{"alias": "japanese", "title": "Japanese"}, {"alias": "hotdogs", "title": "Fast Food"}], "rating": 3.0, "coordinates": {"latitude": 40.562859, "longitude": -111.894594}, "transactions": ["delivery"], "price": "$", "location": {"address1": "6191 S State St", "address2": "", "address3": "", "city": "Murray", "zip_code": "84107", "country": "US", "state": "UT", "display_address": ["6191 S State St", "Murray, UT 84107"]}, "phone": "+18012682172", "display_phone": "(801) 268-2172", "distance": 2234.3160722073426}, {"id": "pV6BlG72_cDsS7U8A_LLmA", "alias": "papa-murphys-sandy-3", "name": "Papa Murphy's", "image_url": "https://s3-media2.fl.yelpcdn.com/bphoto/_zGqpjqDILa6uvZGjucI2A/o.jpg", "is_closed": false, "url": "https://www.yelp.com/biz/papa-murphys-sandy-3?adjust_creative=a2JdNtFqB-C38ga_06BHvw&utm_campaign=yelp_api_v3&utm_medium=api_v3_business_search&utm_source=a2JdNtFqB-C38ga_06BHvw", "review_count": 14, "categories": [{"alias": "pizza", "title": "Pizza"}], "rating": 3.5, "coordinates": {"latitude": 40.58036, "longitude": -111.87317}, "transactions": ["delivery"], "price": "$", "location": {"address1": "9413 Union Square", "address2": "", "address3": "", "city": "Sandy", "zip_code": "84070", "country": "US", "state": "UT", "display_address": ["9413 Union Square", "Sandy, UT 84070"]}, "phone": "+18015766616", "display_phone": "(801) 576-6616", "distance": 1710.106672895559}, {"id": "J-b3U_2pPSd4yBAfZELJpw", "alias": "floribertos-sandy", "name": "Floribertos", "image_url": "https://s3-media1.fl.yelpcdn.com/bphoto/HV3zSUk1BofA8zn5dPLaUA/o.jpg", "is_closed": false, "url": "https://www.yelp.com/biz/floribertos-sandy?adjust_creative=a2JdNtFqB-C38ga_06BHvw&utm_campaign=yelp_api_v3&utm_medium=api_v3_business_search&utm_source=a2JdNtFqB-C38ga_06BHvw", "review_count": 24, "categories": [{"alias": "mexican", "title": "Mexican"}, {"alias": "seafood", "title": "Seafood"}, {"alias": "breakfast_brunch", "title": "Breakfast & Brunch"}], "rating": 3.5, "coordinates": {"latitude": 40.5928917, "longitude": -111.8910065}, "transactions": ["delivery"], "price": "$", "location": {"address1": "8732 S State St", "address2": "", "address3": "", "city": "Sandy", "zip_code": "84070", "country": "US", "state": "UT", "display_address": ["8732 S State St", "Sandy, UT 84070"]}, "phone": "+18015662985", "display_phone": "(801) 566-2985", "distance": 1091.5290308475378}, {"id": "XkTIw6fROJFGavrv7zm1hg", "alias": "chin-wah-restaurant-sandy", "name": "Chin-Wah Restaurant", "image_url": "https://s3-media3.fl.yelpcdn.com/bphoto/CpNhdlDeRCt5eYVpXyhFdQ/o.jpg", "is_closed": false, "url": "https://www.yelp.com/biz/chin-wah-restaurant-sandy?adjust_creative=a2JdNtFqB-C38ga_06BHvw&utm_campaign=yelp_api_v3&utm_medium=api_v3_business_search&utm_source=a2JdNtFqB-C38ga_06BHvw", "review_count": 107, "categories": [{"alias": "chinese", "title": "Chinese"}], "rating": 2.5, "coordinates": {"latitude": 40.5821705, "longitude": -111.867083490178}, "transactions": ["delivery"], "price": "$$", "location": {"address1": "849 E 9400th S", "address2": "", "address3": "", "city": "Sandy", "zip_code": "84094", "country": "US", "state": "UT", "display_address": ["849 E 9400th S", "Sandy, UT 84094"]}, "phone": "+18015613195", "display_phone": "(801) 561-3195", "distance": 2203.3883503519796}, {"id": "jiG5SxeW8bvDwgp7lBzUJA", "alias": "noodles-and-company-sandy", "name": "Noodles & Company", "image_url": "https://s3-media2.fl.yelpcdn.com/bphoto/GxsTVEXwtlG0YTMuTuAALQ/o.jpg", "is_closed": false, "url": "https://www.yelp.com/biz/noodles-and-company-sandy?adjust_creative=a2JdNtFqB-C38ga_06BHvw&utm_campaign=yelp_api_v3&utm_medium=api_v3_business_search&utm_source=a2JdNtFqB-C38ga_06BHvw", "review_count": 66, "categories": [{"alias": "noodles", "title": "Noodles"}, {"alias": "salad", "title": "Salad"}, {"alias": "pastashops", "title": "Pasta Shops"}], "rating": 2.5, "coordinates": {"latitude": 40.5637192452674, "longitude": -111.891263396378}, "transactions": [], "price": "$", "location": {"address1": "10340 S State St", "address2": "", "address3": "", "city": "Sandy", "zip_code": "84070", "country": "US", "state": "UT", "display_address": ["10340 S State St", "Sandy, UT 84070"]}, "phone": "+18015725168", "display_phone": "(801) 572-5168", "distance": 2141.3324974527472}, {"id": "-a1DZadk2meOKjJNJylnbg", "alias": "jimmy-johns-sandy", "name": "Jimmy John's", "image_url": "https://s3-media1.fl.yelpcdn.com/bphoto/OVnCfFFvg7zjnMnjmz7gXA/o.jpg", "is_closed": false, "url": "https://www.yelp.com/biz/jimmy-johns-sandy?adjust_creative=a2JdNtFqB-C38ga_06BHvw&utm_campaign=yelp_api_v3&utm_medium=api_v3_business_search&utm_source=a2JdNtFqB-C38ga_06BHvw", "review_count": 18, "categories": [{"alias": "sandwiches", "title": "Sandwiches"}, {"alias": "hotdogs", "title": "Fast Food"}, {"alias": "delis", "title": "Delis"}], "rating": 3.5, "coordinates": {"latitude": 40.5580096, "longitude": -111.8896151}, "transactions": [], "price": "$", "location": {"address1": "64 E 10600th S", "address2": "", "address3": "", "city": "Sandy", "zip_code": "84070", "country": "US", "state": "UT", "display_address": ["64 E 10600th S", "Sandy, UT 84070"]}, "phone": "+18015715600", "display_phone": "(801) 571-5600", "distance": 2786.3384049572555}, {"id": "nSt9WI4CG6KpLZ7M_xyTMA", "alias": "sconecutter-sandy", "name": "Sconecutter", "image_url": "https://s3-media2.fl.yelpcdn.com/bphoto/-fMKF0Xf3mTbyBObV9XnyA/o.jpg", "is_closed": false, "url": "https://www.yelp.com/biz/sconecutter-sandy?adjust_creative=a2JdNtFqB-C38ga_06BHvw&utm_campaign=yelp_api_v3&utm_medium=api_v3_business_search&utm_source=a2JdNtFqB-C38ga_06BHvw", "review_count": 53, "categories": [{"alias": "wraps", "title": "Wraps"}, {"alias": "sandwiches", "title": "Sandwiches"}], "rating": 2.5, "coordinates": {"latitude": 40.587575, "longitude": -111.898503}, "transactions": ["delivery"], "price": "$", "location": {"address1": "225 W 9000th S", "address2": "", "address3": "", "city": "Sandy", "zip_code": "84070", "country": "US", "state": "UT", "display_address": ["225 W 9000th S", "Sandy, UT 84070"]}, "phone": "+18015650755", "display_phone": "(801) 565-0755", "distance": 686.6271996104502}, {"id": "f8jhYkMcsjmXcHT9h6iQcw", "alias": "sizzler-sandy-2", "name": "Sizzler", "image_url": "https://s3-media3.fl.yelpcdn.com/bphoto/s7lv1LlzC5EmFHSsluZIyg/o.jpg", "is_closed": false, "url": "https://www.yelp.com/biz/sizzler-sandy-2?adjust_creative=a2JdNtFqB-C38ga_06BHvw&utm_campaign=yelp_api_v3&utm_medium=api_v3_business_search&utm_source=a2JdNtFqB-C38ga_06BHvw", "review_count": 65, "categories": [{"alias": "seafood", "title": "Seafood"}, {"alias": "steak", "title": "Steakhouses"}, {"alias": "salad", "title": "Salad"}], "rating": 2.5, "coordinates": {"latitude": 40.588508605957, "longitude": -111.891464233398}, "transactions": ["pickup", "delivery"], "price": "$$", "location": {"address1": "20 W 9000th S", "address2": "", "address3": "", "city": "Sandy", "zip_code": "84070", "country": "US", "state": "UT", "display_address": ["20 W 9000th S", "Sandy, UT 84070"]}, "phone": "+18015668021", "display_phone": "(801) 566-8021", "distance": 635.4539095119961}, {"id": "gJepMS-NAt4wwSXXifDWfw", "alias": "venezuela-mia-sandy", "name": "Venezuela Mia", "image_url": "https://s3-media2.fl.yelpcdn.com/bphoto/aekgA4Y0xK68cRJSY47o_Q/o.jpg", "is_closed": false, "url": "https://www.yelp.com/biz/venezuela-mia-sandy?adjust_creative=a2JdNtFqB-C38ga_06BHvw&utm_campaign=yelp_api_v3&utm_medium=api_v3_business_search&utm_source=a2JdNtFqB-C38ga_06BHvw", "review_count": 8, "categories": [{"alias": "venezuelan", "title": "Venezuelan"}], "rating": 4.0, "coordinates": {"latitude": 40.57973520429007, "longitude": -111.8740458}, "transactions": ["pickup", "delivery"], "location": {"address1": "9460 S Union Square", "address2": "Ste 104", "address3": "", "city": "Sandy", "zip_code": "84070", "country": "US", "state": "UT", "display_address": ["9460 S Union Square", "Ste 104", "Sandy, UT 84070"]}, "phone": "", "display_phone": "", "distance": 1652.336470210299}, {"id": "yvEhXBJtlIkhdO9w_mpSmQ", "alias": "the-hub-food-truck-park-south-jordan", "name": "The Hub Food Truck Park", "image_url": "https://s3-media3.fl.yelpcdn.com/bphoto/kTZELrXPUm32sIUtZ_7uJw/o.jpg", "is_closed": false, "url": "https://www.yelp.com/biz/the-hub-food-truck-park-south-jordan?adjust_creative=a2JdNtFqB-C38ga_06BHvw&utm_campaign=yelp_api_v3&utm_medium=api_v3_business_search&utm_source=a2JdNtFqB-C38ga_06BHvw", "review_count": 5, "categories": [{"alias": "foodtrucks", "title": "Food Trucks"}, {"alias": "bbq", "title": "Barbeque"}, {"alias": "pizza", "title": "Pizza"}], "rating": 4.5, "coordinates": {"latitude": 40.56037, "longitude": -111.91866}, "transactions": ["delivery"], "location": {"address1": "982 W South Jordan Pkwy", "address2": null, "address3": "", "city": "South Jordan", "zip_code": "84095", "country": "US", "state": "UT", "display_address": ["982 W South Jordan Pkwy", "South Jordan, UT 84095"]}, "phone": "+18015039830", "display_phone": "(801) 503-9830", "distance": 3303.63927527656}, {"id": "bxiW8DnFYGG3WITxrOowoQ", "alias": "hot-dog-on-a-stick-sandy-3", "name": "Hot Dog on a Stick", "image_url": "https://s3-media2.fl.yelpcdn.com/bphoto/0VoBx8j-eoL2FQ9BDVnlOg/o.jpg", "is_closed": false, "url": "https://www.yelp.com/biz/hot-dog-on-a-stick-sandy-3?adjust_creative=a2JdNtFqB-C38ga_06BHvw&utm_campaign=yelp_api_v3&utm_medium=api_v3_business_search&utm_source=a2JdNtFqB-C38ga_06BHvw", "review_count": 10, "categories": [{"alias": "hotdog", "title": "Hot Dogs"}], "rating": 3.5, "coordinates": {"latitude": 40.580046, "longitude": -111.868787}, "transactions": ["pickup", "delivery"], "location": {"address1": "826 E 9400 S", "address2": null, "address3": null, "city": "Sandy", "zip_code": "84070", "country": "US", "state": "UT", "display_address": ["826 E 9400 S", "Sandy, UT 84070"]}, "phone": "+13852340706", "display_phone": "(385) 234-0706", "distance": 2082.6879368100012}, {"id": "g1wputTS7K9B6YTg2WVcmA", "alias": "wing-nutz-sandy-2", "name": "Wing Nutz", "image_url": "https://s3-media4.fl.yelpcdn.com/bphoto/P7FTGAD7UsHG6WXCkQXLaQ/o.jpg", "is_closed": false, "url": "https://www.yelp.com/biz/wing-nutz-sandy-2?adjust_creative=a2JdNtFqB-C38ga_06BHvw&utm_campaign=yelp_api_v3&utm_medium=api_v3_business_search&utm_source=a2JdNtFqB-C38ga_06BHvw", "review_count": 57, "categories": [{"alias": "chicken_wings", "title": "Chicken Wings"}, {"alias": "newamerican", "title": "American (New)"}, {"alias": "beer_and_wine", "title": "Beer, Wine & Spirits"}], "rating": 2.5, "coordinates": {"latitude": 40.5845518, "longitude": -111.8630877}, "transactions": ["delivery"], "price": "$$", "location": {"address1": "9260 S Village Dr", "address2": "", "address3": "", "city": "Sandy", "zip_code": "84093", "country": "US", "state": "UT", "display_address": ["9260 S Village Dr", "Sandy, UT 84093"]}, "phone": "+18017277850", "display_phone": "(801) 727-7850", "distance": 2545.6455407023695}, {"id": "k-rmQegOsXkFraMsSkUIww", "alias": "melty-way-sandy-2", "name": "Melty Way", "image_url": "https://s3-media2.fl.yelpcdn.com/bphoto/mzsp04CgPu3lQ9hWauaRBg/o.jpg", "is_closed": false, "url": "https://www.yelp.com/biz/melty-way-sandy-2?adjust_creative=a2JdNtFqB-C38ga_06BHvw&utm_campaign=yelp_api_v3&utm_medium=api_v3_business_search&utm_source=a2JdNtFqB-C38ga_06BHvw", "review_count": 50, "categories": [{"alias": "desserts", "title": "Desserts"}, {"alias": "sandwiches", "title": "Sandwiches"}], "rating": 2.5, "coordinates": {"latitude": 40.5623179664205, "longitude": -111.894399666893}, "transactions": ["pickup", "delivery"], "price": "$$", "location": {"address1": "10450 S State St", "address2": "", "address3": "South Towne Center", "city": "Sandy", "zip_code": "84070", "country": "US", "state": "UT", "display_address": ["10450 S State St", "South Towne Center", "Sandy, UT 84070"]}, "phone": "+18015714111", "display_phone": "(801) 571-4111", "distance": 2293.5792945673657}, {"id": "6bzUJIN5g9PHBaV9CSCktA", "alias": "osaka-japan-sandy", "name": "Osaka Japan", "image_url": "https://s3-media3.fl.yelpcdn.com/bphoto/xpFbgA26SsTqW9FnoRwBkg/o.jpg", "is_closed": false, "url": "https://www.yelp.com/biz/osaka-japan-sandy?adjust_creative=a2JdNtFqB-C38ga_06BHvw&utm_campaign=yelp_api_v3&utm_medium=api_v3_business_search&utm_source=a2JdNtFqB-C38ga_06BHvw", "review_count": 27, "categories": [{"alias": "japanese", "title": "Japanese"}], "rating": 3.0, "coordinates": {"latitude": 40.5629009269401, "longitude": -111.894914098084}, "transactions": [], "price": "$", "location": {"address1": "10600 S 110th W", "address2": "", "address3": "", "city": "Sandy", "zip_code": "84070", "country": "US", "state": "UT", "display_address": ["10600 S 110th W", "Sandy, UT 84070"]}, "phone": "+14402128783", "display_phone": "(440) 212-8783", "distance": 2231.2969442173066}, {"id": "9dGyz0ORyU46EeyREcTG3A", "alias": "wasatch-deli-and-catering-l-c-sandy", "name": "WASATCH DELI AND CATERING, L.C.", "image_url": "https://s3-media1.fl.yelpcdn.com/bphoto/ph3paOYP6a_WFB15dKGf_w/o.jpg", "is_closed": false, "url": "https://www.yelp.com/biz/wasatch-deli-and-catering-l-c-sandy?adjust_creative=a2JdNtFqB-C38ga_06BHvw&utm_campaign=yelp_api_v3&utm_medium=api_v3_business_search&utm_source=a2JdNtFqB-C38ga_06BHvw", "review_count": 8, "categories": [{"alias": "catering", "title": "Caterers"}, {"alias": "sandwiches", "title": "Sandwiches"}, {"alias": "delis", "title": "Delis"}], "rating": 4.0, "coordinates": {"latitude": 40.5791282653809, "longitude": -111.874061584473}, "transactions": ["delivery"], "location": {"address1": "9476 S Union Sq", "address2": "", "address3": "", "city": "Sandy", "zip_code": "84070", "country": "US", "state": "UT", "display_address": ["9476 S Union Sq", "Sandy, UT 84070"]}, "phone": "+18015724920", "display_phone": "(801) 572-4920", "distance": 1662.5541727019604}, {"id": "EJ9bsGXpp3AIRLNp7v0H2Q", "alias": "the-greek-kabob-sandy", "name": "The Greek Kabob", "image_url": "https://s3-media4.fl.yelpcdn.com/bphoto/tajobq_dEH9RSI8pQVKq3w/o.jpg", "is_closed": false, "url": "https://www.yelp.com/biz/the-greek-kabob-sandy?adjust_creative=a2JdNtFqB-C38ga_06BHvw&utm_campaign=yelp_api_v3&utm_medium=api_v3_business_search&utm_source=a2JdNtFqB-C38ga_06BHvw", "review_count": 15, "categories": [{"alias": "mediterranean", "title": "Mediterranean"}, {"alias": "greek", "title": "Greek"}, {"alias": "halal", "title": "Halal"}], "rating": 3.0, "coordinates": {"latitude": 40.56279, "longitude": -111.894444}, "transactions": ["pickup", "delivery"], "location": {"address1": "10450 S State St", "address2": "Ste FC4", "address3": "", "city": "Sandy", "zip_code": "84070", "country": "US", "state": "UT", "display_address": ["10450 S State St", "Ste FC4", "Sandy, UT 84070"]}, "phone": "+18015718710", "display_phone": "(801) 571-8710", "distance": 2241.3265812842405}, {"id": "mAOf-nn1FdF5s7HHXcwIew", "alias": "panda-express-sandy", "name": "Panda Express", "image_url": "https://s3-media4.fl.yelpcdn.com/bphoto/jHXJjBA6QknSkfnr6tFXgw/o.jpg", "is_closed": false, "url": "https://www.yelp.com/biz/panda-express-sandy?adjust_creative=a2JdNtFqB-C38ga_06BHvw&utm_campaign=yelp_api_v3&utm_medium=api_v3_business_search&utm_source=a2JdNtFqB-C38ga_06BHvw", "review_count": 43, "categories": [{"alias": "chinese", "title": "Chinese"}, {"alias": "hotdogs", "title": "Fast Food"}], "rating": 2.5, "coordinates": {"latitude": 40.5878649889988, "longitude": -111.8628912}, "transactions": ["pickup", "delivery"], "price": "$", "location": {"address1": "9166 S Village Shop Dr", "address2": null, "address3": null, "city": "Sandy", "zip_code": "84070", "country": "US", "state": "UT", "display_address": ["9166 S Village Shop Dr", "Sandy, UT 84070"]}, "phone": "+18018788458", "display_phone": "(801) 878-8458", "distance": 2614.136046313407}, {"id": "ARN7oUcUbW2keKSdy5uITA", "alias": "barbacoa-mexican-grill-south-jordan", "name": "Barbacoa Mexican Grill", "image_url": "https://s3-media3.fl.yelpcdn.com/bphoto/OroDe62Y05I5Q65fqNPqIQ/o.jpg", "is_closed": false, "url": "https://www.yelp.com/biz/barbacoa-mexican-grill-south-jordan?adjust_creative=a2JdNtFqB-C38ga_06BHvw&utm_campaign=yelp_api_v3&utm_medium=api_v3_business_search&utm_source=a2JdNtFqB-C38ga_06BHvw", "review_count": 24, "categories": [{"alias": "mexican", "title": "Mexican"}], "rating": 2.5, "coordinates": {"latitude": 40.55761, "longitude": -111.911541}, "transactions": ["pickup", "delivery"], "price": "$", "location": {"address1": "10662 S River Front Pkwy", "address2": "", "address3": "", "city": "South Jordan", "zip_code": "84090", "country": "US", "state": "UT", "display_address": ["10662 S River Front Pkwy", "South Jordan, UT 84090"]}, "phone": "+18013161446", "display_phone": "(801) 316-1446", "distance": 3214.6274094317682}, {"id": "WrG6SiAo12xkNuEX98qGPA", "alias": "boston-deli-south-jordan-south-jordan", "name": "Boston Deli - South Jordan", "image_url": "https://s3-media4.fl.yelpcdn.com/bphoto/wI23HtTabmYCHLvKBf9JOA/o.jpg", "is_closed": false, "url": "https://www.yelp.com/biz/boston-deli-south-jordan-south-jordan?adjust_creative=a2JdNtFqB-C38ga_06BHvw&utm_campaign=yelp_api_v3&utm_medium=api_v3_business_search&utm_source=a2JdNtFqB-C38ga_06BHvw", "review_count": 5, "categories": [{"alias": "delis", "title": "Delis"}], "rating": 4.0, "coordinates": {"latitude": 40.564397, "longitude": -111.901454496223}, "transactions": [], "location": {"address1": "10355 S Jordan Gateway", "address2": "", "address3": null, "city": "South Jordan", "zip_code": "84095", "country": "US", "state": "UT", "display_address": ["10355 S Jordan Gateway", "South Jordan, UT 84095"]}, "phone": "+18013552146", "display_phone": "(801) 355-2146", "distance": 2175.9665751268462}, {"id": "ffFENAsSjV8lKGM_0XntUQ", "alias": "taco-bell-sandy-4", "name": "Taco Bell", "image_url": "https://s3-media4.fl.yelpcdn.com/bphoto/Y-1ss1ZCOjFl2rJC90OCOA/o.jpg", "is_closed": false, "url": "https://www.yelp.com/biz/taco-bell-sandy-4?adjust_creative=a2JdNtFqB-C38ga_06BHvw&utm_campaign=yelp_api_v3&utm_medium=api_v3_business_search&utm_source=a2JdNtFqB-C38ga_06BHvw", "review_count": 40, "categories": [{"alias": "hotdogs", "title": "Fast Food"}, {"alias": "mexican", "title": "Mexican"}], "rating": 2.5, "coordinates": {"latitude": 40.582114, "longitude": -111.872245}, "transactions": ["delivery"], "price": "$", "location": {"address1": "9308 South 700 East", "address2": null, "address3": null, "city": "Sandy", "zip_code": "84070", "country": "US", "state": "UT", "display_address": ["9308 South 700 East", "Sandy, UT 84070"]}, "phone": "+18015629520", "display_phone": "(801) 562-9520", "distance": 1768.2048232829347}, {"id": "NUdtoQGKnglt8gc9DxCvMg", "alias": "wendys-sandy-3", "name": "Wendy's", "image_url": "https://s3-media1.fl.yelpcdn.com/bphoto/TizTq6d6npLLHILB-4WGoQ/o.jpg", "is_closed": false, "url": "https://www.yelp.com/biz/wendys-sandy-3?adjust_creative=a2JdNtFqB-C38ga_06BHvw&utm_campaign=yelp_api_v3&utm_medium=api_v3_business_search&utm_source=a2JdNtFqB-C38ga_06BHvw", "review_count": 43, "categories": [{"alias": "burgers", "title": "Burgers"}, {"alias": "hotdogs", "title": "Fast Food"}], "rating": 2.5, "coordinates": {"latitude": 40.55769, "longitude": -111.89351}, "transactions": ["delivery"], "price": "$", "location": {"address1": "10665 Auto Mall Dr", "address2": null, "address3": null, "city": "Sandy", "zip_code": "84070", "country": "US", "state": "UT", "display_address": ["10665 Auto Mall Dr", "Sandy, UT 84070"]}, "phone": "+18015716202", "display_phone": "(801) 571-6202", "distance": 2805.7533469083924}, {"id": "uzxzJadoQaVmCc_VNyapag", "alias": "cafe-rio-mexican-grill-sandy-2", "name": "Cafe Rio Mexican Grill", "image_url": "https://s3-media2.fl.yelpcdn.com/bphoto/mOnOrLzgKM2cDh8b_rG0ww/o.jpg", "is_closed": false, "url": "https://www.yelp.com/biz/cafe-rio-mexican-grill-sandy-2?adjust_creative=a2JdNtFqB-C38ga_06BHvw&utm_campaign=yelp_api_v3&utm_medium=api_v3_business_search&utm_source=a2JdNtFqB-C38ga_06BHvw", "review_count": 206, "categories": [{"alias": "mexican", "title": "Mexican"}], "rating": 1.5, "coordinates": {"latitude": 40.5821221, "longitude": -111.8622383}, "transactions": ["delivery"], "price": "$", "location": {"address1": "9320 S Village Shop Dr", "address2": null, "address3": null, "city": "Sandy", "zip_code": "84094", "country": "US", "state": "UT", "display_address": ["9320 S Village Shop Dr", "Sandy, UT 84094"]}, "phone": "+18013161000", "display_phone": "(801) 316-1000", "distance": 2612.490049027101}, {"id": "7ILFEuXh9rk6KAU5-0H5Yg", "alias": "wingstop-murray", "name": "Wingstop", "image_url": "https://s3-media2.fl.yelpcdn.com/bphoto/LeLJuD8fgZ3hCQVXIQRe7A/o.jpg", "is_closed": false, "url": "https://www.yelp.com/biz/wingstop-murray?adjust_creative=a2JdNtFqB-C38ga_06BHvw&utm_campaign=yelp_api_v3&utm_medium=api_v3_business_search&utm_source=a2JdNtFqB-C38ga_06BHvw", "review_count": 2, "categories": [{"alias": "chicken_wings", "title": "Chicken Wings"}], "rating": 5.0, "coordinates": {"latitude": 40.56322613582068, "longitude": -111.89038489238364}, "transactions": [], "location": {"address1": "10367 S State St", "address2": "", "address3": null, "city": "Murray", "zip_code": "84107", "country": "US", "state": "UT", "display_address": ["10367 S State St", "Murray, UT 84107"]}, "phone": "+13853421500", "display_phone": "(385) 342-1500", "distance": 2202.6591330970487}, {"id": "9rf04bn3LjPyO0jrtSM-Nw", "alias": "rancheritos-sandy-2", "name": "Rancherito's", "image_url": "https://s3-media1.fl.yelpcdn.com/bphoto/v6NoyhMpERq6gUopK0senw/o.jpg", "is_closed": false, "url": "https://www.yelp.com/biz/rancheritos-sandy-2?adjust_creative=a2JdNtFqB-C38ga_06BHvw&utm_campaign=yelp_api_v3&utm_medium=api_v3_business_search&utm_source=a2JdNtFqB-C38ga_06BHvw", "review_count": 48, "categories": [{"alias": "hotdogs", "title": "Fast Food"}, {"alias": "mexican", "title": "Mexican"}], "rating": 2.0, "coordinates": {"latitude": 40.5813904, "longitude": -111.8715286}, "transactions": [], "price": "$", "location": {"address1": "717 E 9400th S", "address2": "", "address3": "", "city": "Sandy", "zip_code": "84094", "country": "US", "state": "UT", "display_address": ["717 E 9400th S", "Sandy, UT 84094"]}, "phone": "", "display_phone": "", "distance": 1833.771918758375}, {"id": "GUBsLbSKCskYQB4mLQhHHA", "alias": "l-and-p-food-court-sandy", "name": "L & P Food Court", "image_url": "https://s3-media1.fl.yelpcdn.com/bphoto/n0Eb2--wSUDn1umcoKdWGg/o.jpg", "is_closed": false, "url": "https://www.yelp.com/biz/l-and-p-food-court-sandy?adjust_creative=a2JdNtFqB-C38ga_06BHvw&utm_campaign=yelp_api_v3&utm_medium=api_v3_business_search&utm_source=a2JdNtFqB-C38ga_06BHvw", "review_count": 5, "categories": [{"alias": "chinese", "title": "Chinese"}, {"alias": "bbq", "title": "Barbeque"}, {"alias": "hotdogs", "title": "Fast Food"}], "rating": 3.5, "coordinates": {"latitude": 40.5868265808911, "longitude": -111.89479135480792}, "transactions": ["delivery"], "price": "$", "location": {"address1": "115 W 9000th S", "address2": null, "address3": null, "city": "Sandy", "zip_code": "84070", "country": "US", "state": "UT", "display_address": ["115 W 9000th S", "Sandy, UT 84070"]}, "phone": "+18012559958", "display_phone": "(801) 255-9958", "distance": 455.49720721428}, {"id": "tqm1kswhtU2TbmQ4Yle-2g", "alias": "sonic-drive-in-sandy", "name": "Sonic Drive-In", "image_url": "https://s3-media4.fl.yelpcdn.com/bphoto/B1EKIkClkAvDJK5W1ZT3OQ/o.jpg", "is_closed": false, "url": "https://www.yelp.com/biz/sonic-drive-in-sandy?adjust_creative=a2JdNtFqB-C38ga_06BHvw&utm_campaign=yelp_api_v3&utm_medium=api_v3_business_search&utm_source=a2JdNtFqB-C38ga_06BHvw", "review_count": 59, "categories": [{"alias": "hotdogs", "title": "Fast Food"}, {"alias": "burgers", "title": "Burgers"}, {"alias": "icecream", "title": "Ice Cream & Frozen Yogurt"}], "rating": 2.0, "coordinates": {"latitude": 40.5657186, "longitude": -111.8901384}, "transactions": ["pickup", "delivery"], "price": "$", "location": {"address1": "10225 State St", "address2": "", "address3": "", "city": "Sandy", "zip_code": "84070", "country": "US", "state": "UT", "display_address": ["10225 State St", "Sandy, UT 84070"]}, "phone": "+18016191193", "display_phone": "(801) 619-1193", "distance": 1929.942392722603}, {"id": "A9xRfKy_iL4YjI5a1IVzeA", "alias": "market-street-fish-market-south-jordan", "name": "Market Street Fish Market", "image_url": "https://s3-media4.fl.yelpcdn.com/bphoto/wzCF5BG-L2Jooh95Nod1uw/o.jpg", "is_closed": false, "url": "https://www.yelp.com/biz/market-street-fish-market-south-jordan?adjust_creative=a2JdNtFqB-C38ga_06BHvw&utm_campaign=yelp_api_v3&utm_medium=api_v3_business_search&utm_source=a2JdNtFqB-C38ga_06BHvw", "review_count": 6, "categories": [{"alias": "seafoodmarkets", "title": "Seafood Markets"}, {"alias": "seafood", "title": "Seafood"}], "rating": 3.0, "coordinates": {"latitude": 40.557838, "longitude": -111.913803}, "transactions": [], "location": {"address1": "10702 S River Front Pkwy", "address2": "", "address3": "", "city": "South Jordan", "zip_code": "84095", "country": "US", "state": "UT", "display_address": ["10702 S River Front Pkwy", "South Jordan, UT 84095"]}, "phone": "+18013022271", "display_phone": "(801) 302-2271", "distance": 3365.0387786307747}, {"id": "IFiqiT9XTd16yJnu4ivlHg", "alias": "auntie-ms-sandy", "name": "Auntie M's", "image_url": "", "is_closed": false, "url": "https://www.yelp.com/biz/auntie-ms-sandy?adjust_creative=a2JdNtFqB-C38ga_06BHvw&utm_campaign=yelp_api_v3&utm_medium=api_v3_business_search&utm_source=a2JdNtFqB-C38ga_06BHvw", "review_count": 3, "categories": [{"alias": "sandwiches", "title": "Sandwiches"}], "rating": 4.0, "coordinates": {"latitude": 40.5876356, "longitude": -111.9078409}, "transactions": [], "location": {"address1": "555 W 9000th S", "address2": "", "address3": "", "city": "Sandy", "zip_code": "84070", "country": "US", "state": "UT", "display_address": ["555 W 9000th S", "Sandy, UT 84070"]}, "phone": "", "display_phone": "", "distance": 1346.2467693444155}, {"id": "SKU1106pARyGrEyC8AJjaQ", "alias": "subway-sandy-14", "name": "Subway", "image_url": "https://s3-media2.fl.yelpcdn.com/bphoto/7uXmSFbNwSKi5Pabo6GIdw/o.jpg", "is_closed": false, "url": "https://www.yelp.com/biz/subway-sandy-14?adjust_creative=a2JdNtFqB-C38ga_06BHvw&utm_campaign=yelp_api_v3&utm_medium=api_v3_business_search&utm_source=a2JdNtFqB-C38ga_06BHvw", "review_count": 5, "categories": [{"alias": "sandwiches", "title": "Sandwiches"}], "rating": 3.0, "coordinates": {"latitude": 40.5877716233735, "longitude": -111.892379217192}, "transactions": ["pickup", "delivery"], "price": "$", "location": {"address1": "37 W 9000th S", "address2": "Ste 101", "address3": "", "city": "Sandy", "zip_code": "84070", "country": "US", "state": "UT", "display_address": ["37 W 9000th S", "Ste 101", "Sandy, UT 84070"]}, "phone": "+18015664773", "display_phone": "(801) 566-4773", "distance": 543.117492045101}, {"id": "OFpBor7IUwzUcHSHbsxLQw", "alias": "dominos-pizza-south-jordan", "name": "Domino's Pizza", "image_url": "https://s3-media3.fl.yelpcdn.com/bphoto/b38Kjpr-speLkcptQuxz0g/o.jpg", "is_closed": false, "url": "https://www.yelp.com/biz/dominos-pizza-south-jordan?adjust_creative=a2JdNtFqB-C38ga_06BHvw&utm_campaign=yelp_api_v3&utm_medium=api_v3_business_search&utm_source=a2JdNtFqB-C38ga_06BHvw", "review_count": 17, "categories": [{"alias": "pizza", "title": "Pizza"}, {"alias": "chicken_wings", "title": "Chicken Wings"}, {"alias": "sandwiches", "title": "Sandwiches"}], "rating": 2.0, "coordinates": {"latitude": 40.5604579299688, "longitude": -111.920699849725}, "transactions": [], "price": "$", "location": {"address1": "1067 W South Jordan Pkwy", "address2": "", "address3": "", "city": "South Jordan", "zip_code": "84095", "country": "US", "state": "UT", "display_address": ["1067 W South Jordan Pkwy", "South Jordan, UT 84095"]}, "phone": "+18012538789", "display_phone": "(801) 253-8789", "distance": 3440.2596336151664}, {"id": "r909Wv_7l3UdYa4q5T6iqw", "alias": "little-caesars-sandy-2", "name": "Little Caesars", "image_url": "https://s3-media2.fl.yelpcdn.com/bphoto/hVTodTQ4JKxEWzERaoHTTA/o.jpg", "is_closed": false, "url": "https://www.yelp.com/biz/little-caesars-sandy-2?adjust_creative=a2JdNtFqB-C38ga_06BHvw&utm_campaign=yelp_api_v3&utm_medium=api_v3_business_search&utm_source=a2JdNtFqB-C38ga_06BHvw", "review_count": 15, "categories": [{"alias": "pizza", "title": "Pizza"}, {"alias": "hotdogs", "title": "Fast Food"}], "rating": 2.0, "coordinates": {"latitude": 40.58496, "longitude": -111.87194}, "transactions": ["pickup", "delivery"], "price": "$", "location": {"address1": "9205 S 700th E", "address2": "", "address3": "", "city": "Sandy", "zip_code": "84070", "country": "US", "state": "UT", "display_address": ["9205 S 700th E", "Sandy, UT 84070"]}, "phone": "+18015621900", "display_phone": "(801) 562-1900", "distance": 1831.6835304129108}, {"id": "LcGYkbplOuTSiuCXc2upKA", "alias": "mcdonalds-west-jordan-2", "name": "McDonald's", "image_url": "https://s3-media3.fl.yelpcdn.com/bphoto/ZsWBFgILK5Vm1dGBawjCyQ/o.jpg", "is_closed": false, "url": "https://www.yelp.com/biz/mcdonalds-west-jordan-2?adjust_creative=a2JdNtFqB-C38ga_06BHvw&utm_campaign=yelp_api_v3&utm_medium=api_v3_business_search&utm_source=a2JdNtFqB-C38ga_06BHvw", "review_count": 24, "categories": [{"alias": "hotdogs", "title": "Fast Food"}, {"alias": "burgers", "title": "Burgers"}, {"alias": "coffee", "title": "Coffee & Tea"}], "rating": 2.0, "coordinates": {"latitude": 40.5872508, "longitude": -111.927931763312}, "transactions": ["delivery"], "price": "$", "location": {"address1": "1265 W 9000th S", "address2": null, "address3": null, "city": "West Jordan", "zip_code": "84088", "country": "US", "state": "UT", "display_address": ["1265 W 9000th S", "West Jordan, UT 84088"]}, "phone": "+18015685184", "display_phone": "(801) 568-5184", "distance": 2975.8370963054726}, {"id": "MZxGhjnxOtTIynXLpGtmMw", "alias": "burger-king-sandy-4", "name": "Burger King", "image_url": "https://s3-media1.fl.yelpcdn.com/bphoto/2ZmTslO8x9xJosXaZ6HXeQ/o.jpg", "is_closed": false, "url": "https://www.yelp.com/biz/burger-king-sandy-4?adjust_creative=a2JdNtFqB-C38ga_06BHvw&utm_campaign=yelp_api_v3&utm_medium=api_v3_business_search&utm_source=a2JdNtFqB-C38ga_06BHvw", "review_count": 43, "categories": [{"alias": "burgers", "title": "Burgers"}, {"alias": "hotdogs", "title": "Fast Food"}], "rating": 1.5, "coordinates": {"latitude": 40.565469, "longitude": -111.890109}, "transactions": ["delivery"], "price": "$", "location": {"address1": "10235 S State St", "address2": null, "address3": null, "city": "Sandy", "zip_code": "84070", "country": "US", "state": "UT", "display_address": ["10235 S State St", "Sandy, UT 84070"]}, "phone": "+18015531768", "display_phone": "(801) 553-1768", "distance": 1957.781891014162}, {"id": "zmvrmfG9RS9RmbsAQgOJOw", "alias": "taco-bell-sandy", "name": "Taco Bell", "image_url": "https://s3-media1.fl.yelpcdn.com/bphoto/Z2htMYO58qtKCSGkQ8bINQ/o.jpg", "is_closed": false, "url": "https://www.yelp.com/biz/taco-bell-sandy?adjust_creative=a2JdNtFqB-C38ga_06BHvw&utm_campaign=yelp_api_v3&utm_medium=api_v3_business_search&utm_source=a2JdNtFqB-C38ga_06BHvw", "review_count": 49, "categories": [{"alias": "mexican", "title": "Mexican"}, {"alias": "hotdogs", "title": "Fast Food"}], "rating": 1.5, "coordinates": {"latitude": 40.558184, "longitude": -111.890713}, "transactions": [], "price": "$", "location": {"address1": "10635 South State Street", "address2": "", "address3": "", "city": "Sandy", "zip_code": "84070", "country": "US", "state": "UT", "display_address": ["10635 South State Street", "Sandy, UT 84070"]}, "phone": "+18015236146", "display_phone": "(801) 523-6146", "distance": 2758.5765757873364}, {"id": "WhPdR5teIO_MxipFqyQfEw", "alias": "wendys-sandy", "name": "Wendy's", "image_url": "https://s3-media1.fl.yelpcdn.com/bphoto/i5_OrgGtWTjXrd5qU22loQ/o.jpg", "is_closed": false, "url": "https://www.yelp.com/biz/wendys-sandy?adjust_creative=a2JdNtFqB-C38ga_06BHvw&utm_campaign=yelp_api_v3&utm_medium=api_v3_business_search&utm_source=a2JdNtFqB-C38ga_06BHvw", "review_count": 25, "categories": [{"alias": "hotdogs", "title": "Fast Food"}, {"alias": "burgers", "title": "Burgers"}], "rating": 2.0, "coordinates": {"latitude": 40.5826013782833, "longitude": -111.87259376049}, "transactions": ["delivery"], "price": "$", "location": {"address1": "9286 South 700 E.", "address2": "", "address3": "", "city": "Sandy", "zip_code": "84070", "country": "US", "state": "UT", "display_address": ["9286 South 700 E.", "Sandy, UT 84070"]}, "phone": "+18012551961", "display_phone": "(801) 255-1961", "distance": 1736.824486462815}, {"id": "rY5ZYw_Aqd1UmMDSTPHItA", "alias": "charleys-cheesesteaks-sandy", "name": "Charleys Cheesesteaks", "image_url": "https://s3-media3.fl.yelpcdn.com/bphoto/NKgPjObNrPzRsyD0DNehvg/o.jpg", "is_closed": false, "url": "https://www.yelp.com/biz/charleys-cheesesteaks-sandy?adjust_creative=a2JdNtFqB-C38ga_06BHvw&utm_campaign=yelp_api_v3&utm_medium=api_v3_business_search&utm_source=a2JdNtFqB-C38ga_06BHvw", "review_count": 20, "categories": [{"alias": "cheesesteaks", "title": "Cheesesteaks"}, {"alias": "sandwiches", "title": "Sandwiches"}, {"alias": "hotdogs", "title": "Fast Food"}], "rating": 2.0, "coordinates": {"latitude": 40.562573, "longitude": -111.89468}, "transactions": ["delivery", "pickup"], "price": "$", "location": {"address1": "10450 S State St", "address2": "", "address3": "", "city": "Sandy", "zip_code": "84070", "country": "US", "state": "UT", "display_address": ["10450 S State St", "Sandy, UT 84070"]}, "phone": "+18015531888", "display_phone": "(801) 553-1888", "distance": 2266.4723595629}, {"id": "dVq8CjV76LJ_KVo1VsL8xw", "alias": "subway-sandy-16", "name": "Subway", "image_url": "https://s3-media2.fl.yelpcdn.com/bphoto/b8guH6H5q-IVW432SCnx1A/o.jpg", "is_closed": false, "url": "https://www.yelp.com/biz/subway-sandy-16?adjust_creative=a2JdNtFqB-C38ga_06BHvw&utm_campaign=yelp_api_v3&utm_medium=api_v3_business_search&utm_source=a2JdNtFqB-C38ga_06BHvw", "review_count": 12, "categories": [{"alias": "sandwiches", "title": "Sandwiches"}], "rating": 2.5, "coordinates": {"latitude": 40.5579617097964, "longitude": -111.891226292259}, "transactions": ["delivery", "pickup"], "price": "$", "location": {"address1": "10640 S State St", "address2": "Pad  3", "address3": null, "city": "Sandy", "zip_code": "84070", "country": "US", "state": "UT", "display_address": ["10640 S State St", "Pad  3", "Sandy, UT 84070"]}, "phone": "+18015761024", "display_phone": "(801) 576-1024", "distance": 2780.347367767056}, {"id": "B1wrwXimhY_UkVzGF2lqBQ", "alias": "mcdonalds-sandy-5", "name": "McDonald's", "image_url": "https://s3-media1.fl.yelpcdn.com/bphoto/lNlJRW8N2HRamfA-21VwVQ/o.jpg", "is_closed": false, "url": "https://www.yelp.com/biz/mcdonalds-sandy-5?adjust_creative=a2JdNtFqB-C38ga_06BHvw&utm_campaign=yelp_api_v3&utm_medium=api_v3_business_search&utm_source=a2JdNtFqB-C38ga_06BHvw", "review_count": 30, "categories": [{"alias": "hotdogs", "title": "Fast Food"}, {"alias": "burgers", "title": "Burgers"}, {"alias": "coffee", "title": "Coffee & Tea"}], "rating": 1.5, "coordinates": {"latitude": 40.5815716075811, "longitude": -111.872698523803}, "transactions": ["delivery"], "price": "$", "location": {"address1": "9346 S 700th E", "address2": "", "address3": "", "city": "Sandy", "zip_code": "84070", "country": "US", "state": "UT", "display_address": ["9346 S 700th E", "Sandy, UT 84070"]}, "phone": "+18015611692", "display_phone": "(801) 561-1692", "distance": 1734.1452186117988}, {"id": "dqcIPm23l8AqsiKcXIgtqA", "alias": "hot-dog-on-a-stick-sandy", "name": "Hot Dog On A Stick", "image_url": "https://s3-media4.fl.yelpcdn.com/bphoto/QM13ehkFLQZ-aWw4f-cWyw/o.jpg", "is_closed": false, "url": "https://www.yelp.com/biz/hot-dog-on-a-stick-sandy?adjust_creative=a2JdNtFqB-C38ga_06BHvw&utm_campaign=yelp_api_v3&utm_medium=api_v3_business_search&utm_source=a2JdNtFqB-C38ga_06BHvw", "review_count": 7, "categories": [{"alias": "hotdog", "title": "Hot Dogs"}], "rating": 2.5, "coordinates": {"latitude": 40.5618888884783, "longitude": -111.890997067094}, "transactions": ["delivery", "pickup"], "price": "$", "location": {"address1": "10450 S State St", "address2": null, "address3": "", "city": "Sandy", "zip_code": "84070", "country": "US", "state": "UT", "display_address": ["10450 S State St", "Sandy, UT 84070"]}, "phone": "+18015231468", "display_phone": "(801) 523-1468", "distance": 2154.5826455547945}, {"id": "G99K0zYWa2jxzYiqUJhV5Q", "alias": "panda-express-sandy-4", "name": "Panda Express", "image_url": "https://s3-media1.fl.yelpcdn.com/bphoto/c6Z2Lg_zBZsCIVwie5K6Ig/o.jpg", "is_closed": false, "url": "https://www.yelp.com/biz/panda-express-sandy-4?adjust_creative=a2JdNtFqB-C38ga_06BHvw&utm_campaign=yelp_api_v3&utm_medium=api_v3_business_search&utm_source=a2JdNtFqB-C38ga_06BHvw", "review_count": 9, "categories": [{"alias": "chinese", "title": "Chinese"}, {"alias": "hotdogs", "title": "Fast Food"}], "rating": 2.5, "coordinates": {"latitude": 40.56271, "longitude": -111.894371}, "transactions": ["delivery", "pickup"], "price": "$", "location": {"address1": "10450 S State St", "address2": "", "address3": "", "city": "Sandy", "zip_code": "84070", "country": "US", "state": "UT", "display_address": ["10450 S State St", "Sandy, UT 84070"]}, "phone": "+18015722001", "display_phone": "(801) 572-2001", "distance": 2249.9220753750283}, {"id": "10_fr20fu918sGmZH2fyvA", "alias": "carls-jr-sandy", "name": "Carl's Jr", "image_url": "https://s3-media1.fl.yelpcdn.com/bphoto/c41JWVy14q_fR0wdg2-Gtg/o.jpg", "is_closed": false, "url": "https://www.yelp.com/biz/carls-jr-sandy?adjust_creative=a2JdNtFqB-C38ga_06BHvw&utm_campaign=yelp_api_v3&utm_medium=api_v3_business_search&utm_source=a2JdNtFqB-C38ga_06BHvw", "review_count": 24, "categories": [{"alias": "burgers", "title": "Burgers"}, {"alias": "hotdogs", "title": "Fast Food"}], "rating": 1.5, "coordinates": {"latitude": 40.561336, "longitude": -111.8902618}, "transactions": ["delivery", "pickup"], "price": "$", "location": {"address1": "10475 S State St", "address2": "", "address3": "", "city": "Sandy", "zip_code": "84070", "country": "US", "state": "UT", "display_address": ["10475 S State St", "Sandy, UT 84070"]}, "phone": "+18014953929", "display_phone": "(801) 495-3929", "distance": 2412.7774133854164}, {"id": "vRvY0RhNDYQoIzxRviECqw", "alias": "wasatch-deli-and-catering-food-truck-sandy", "name": "Wasatch Deli & Catering Food Truck", "image_url": "https://s3-media1.fl.yelpcdn.com/bphoto/utDW1kAlBTIunh2mKiSi5A/o.jpg", "is_closed": false, "url": "https://www.yelp.com/biz/wasatch-deli-and-catering-food-truck-sandy?adjust_creative=a2JdNtFqB-C38ga_06BHvw&utm_campaign=yelp_api_v3&utm_medium=api_v3_business_search&utm_source=a2JdNtFqB-C38ga_06BHvw", "review_count": 1, "categories": [{"alias": "foodtrucks", "title": "Food Trucks"}, {"alias": "delis", "title": "Delis"}, {"alias": "catering", "title": "Caterers"}], "rating": 5.0, "coordinates": {"latitude": 40.5697, "longitude": -111.89449}, "transactions": [], "location": {"address1": "", "address2": "", "address3": null, "city": "Sandy", "zip_code": "84070", "country": "US", "state": "UT", "display_address": ["Sandy, UT 84070"]}, "phone": "+18015724920", "display_phone": "(801) 572-4920", "distance": 1045.9702197066904}, {"id": "yBU2D1_rkAgr9yvySSm-2w", "alias": "kfc-sandy-6", "name": "KFC", "image_url": "https://s3-media2.fl.yelpcdn.com/bphoto/qdTb2wagNFoxgua1mwxEqg/o.jpg", "is_closed": false, "url": "https://www.yelp.com/biz/kfc-sandy-6?adjust_creative=a2JdNtFqB-C38ga_06BHvw&utm_campaign=yelp_api_v3&utm_medium=api_v3_business_search&utm_source=a2JdNtFqB-C38ga_06BHvw", "review_count": 35, "categories": [{"alias": "hotdogs", "title": "Fast Food"}, {"alias": "chicken_wings", "title": "Chicken Wings"}, {"alias": "chickenshop", "title": "Chicken Shop"}], "rating": 1.5, "coordinates": {"latitude": 40.5809151, "longitude": -111.87377941658497}, "transactions": ["delivery", "pickup"], "price": "$", "location": {"address1": "653 E 9400 S", "address2": null, "address3": null, "city": "Sandy", "zip_code": "84070", "country": "US", "state": "UT", "display_address": ["653 E 9400 S", "Sandy, UT 84070"]}, "phone": "+18013527323", "display_phone": "(801) 352-7323", "distance": 1651.5110735522721}, {"id": "80PqF6fJ5qHqQAJlXDoXcA", "alias": "dominos-pizza-sandy", "name": "Domino's Pizza", "image_url": "https://s3-media1.fl.yelpcdn.com/bphoto/4ssUcyqqfXX7AlGG7G-aUg/o.jpg", "is_closed": false, "url": "https://www.yelp.com/biz/dominos-pizza-sandy?adjust_creative=a2JdNtFqB-C38ga_06BHvw&utm_campaign=yelp_api_v3&utm_medium=api_v3_business_search&utm_source=a2JdNtFqB-C38ga_06BHvw", "review_count": 27, "categories": [{"alias": "pizza", "title": "Pizza"}, {"alias": "chicken_wings", "title": "Chicken Wings"}, {"alias": "sandwiches", "title": "Sandwiches"}], "rating": 1.5, "coordinates": {"latitude": 40.588846, "longitude": -111.872718}, "transactions": [], "price": "$", "location": {"address1": "8944 S 700 E", "address2": "", "address3": "", "city": "Sandy", "zip_code": "84070", "country": "US", "state": "UT", "display_address": ["8944 S 700 E", "Sandy, UT 84070"]}, "phone": "+18012553538", "display_phone": "(801) 255-3538", "distance": 1847.2785016368402}, {"id": "OjjzrIvqDhhUxbd4pRYqEw", "alias": "subway-sandy-12", "name": "Subway", "image_url": "https://s3-media2.fl.yelpcdn.com/bphoto/pcBn7oy-SYMUTndpSwUqTg/o.jpg", "is_closed": false, "url": "https://www.yelp.com/biz/subway-sandy-12?adjust_creative=a2JdNtFqB-C38ga_06BHvw&utm_campaign=yelp_api_v3&utm_medium=api_v3_business_search&utm_source=a2JdNtFqB-C38ga_06BHvw", "review_count": 13, "categories": [{"alias": "sandwiches", "title": "Sandwiches"}], "rating": 1.5, "coordinates": {"latitude": 40.5777281, "longitude": -111.871784}, "transactions": ["delivery", "pickup"], "price": "$", "location": {"address1": "9581 S 700th E", "address2": null, "address3": null, "city": "Sandy", "zip_code": "84070", "country": "US", "state": "UT", "display_address": ["9581 S 700th E", "Sandy, UT 84070"]}, "phone": "+18015727876", "display_phone": "(801) 572-7876", "distance": 1895.0878300282386}, {"id": "8XvwmgHSujXJNkA_nMaaGA", "alias": "subway-sandy-19", "name": "Subway", "image_url": "https://s3-media2.fl.yelpcdn.com/bphoto/IIq5bbJsNIBB7ZWsyIH6Sg/o.jpg", "is_closed": false, "url": "https://www.yelp.com/biz/subway-sandy-19?adjust_creative=a2JdNtFqB-C38ga_06BHvw&utm_campaign=yelp_api_v3&utm_medium=api_v3_business_search&utm_source=a2JdNtFqB-C38ga_06BHvw", "review_count": 10, "categories": [{"alias": "sandwiches", "title": "Sandwiches"}], "rating": 1.5, "coordinates": {"latitude": 40.5845707, "longitude": -111.8626714}, "transactions": [], "price": "$", "location": {"address1": "9191 S Village Dr", "address2": null, "address3": null, "city": "Sandy", "zip_code": "84094", "country": "US", "state": "UT", "display_address": ["9191 S Village Dr", "Sandy, UT 84094"]}, "phone": "+18014954180", "display_phone": "(801) 495-4180", "distance": 2580.861159854078}, {"id": "foWJWKgVBkoXMijKEPOO_Q", "alias": "dairy-queen-orange-julius-sandy", "name": "Dairy Queen Orange Julius", "image_url": "https://s3-media2.fl.yelpcdn.com/bphoto/Jz7kCZjpvcpHhSka6XK8lA/o.jpg", "is_closed": false, "url": "https://www.yelp.com/biz/dairy-queen-orange-julius-sandy?adjust_creative=a2JdNtFqB-C38ga_06BHvw&utm_campaign=yelp_api_v3&utm_medium=api_v3_business_search&utm_source=a2JdNtFqB-C38ga_06BHvw", "review_count": 6, "categories": [{"alias": "hotdogs", "title": "Fast Food"}, {"alias": "icecream", "title": "Ice Cream & Frozen Yogurt"}, {"alias": "juicebars", "title": "Juice Bars & Smoothies"}], "rating": 2.0, "coordinates": {"latitude": 40.562272, "longitude": -111.894621}, "transactions": ["delivery", "pickup"], "price": "$", "location": {"address1": "10450 S State St Space", "address2": "Ste FC-10", "address3": "", "city": "Sandy", "zip_code": "84070", "country": "US", "state": "UT", "display_address": ["10450 S State St Space", "Ste FC-10", "Sandy, UT 84070"]}, "phone": "+18015723111", "display_phone": "(801) 572-3111", "distance": 2266.074075004292}, {"id": "AlU993CLrh3S0jmlY0c8YA", "alias": "jordan-gateway-grill-south-jordan", "name": "Jordan Gateway Grill", "image_url": "https://s3-media1.fl.yelpcdn.com/bphoto/68ZqqI-NohBMu5hgU0mTGA/o.jpg", "is_closed": false, "url": "https://www.yelp.com/biz/jordan-gateway-grill-south-jordan?adjust_creative=a2JdNtFqB-C38ga_06BHvw&utm_campaign=yelp_api_v3&utm_medium=api_v3_business_search&utm_source=a2JdNtFqB-C38ga_06BHvw", "review_count": 2, "categories": [{"alias": "tradamerican", "title": "American (Traditional)"}], "rating": 3.0, "coordinates": {"latitude": 40.5611, "longitude": -111.90185}, "transactions": ["delivery", "pickup"], "location": {"address1": "10499 S Jordan Gateway", "address2": "", "address3": "", "city": "South Jordan", "zip_code": "84095", "country": "US", "state": "UT", "display_address": ["10499 S Jordan Gateway", "South Jordan, UT 84095"]}, "phone": "+18015531151", "display_phone": "(801) 553-1151", "distance": 2528.1088316102555}, {"id": "O8AIbS8O4xJh1534CH8T-w", "alias": "put-a-fork-in-it-salt-lake-city", "name": "Put A FORK In It", "image_url": "https://s3-media4.fl.yelpcdn.com/bphoto/Xe3ucTUdR9OXfl7a9vyvZA/o.jpg", "is_closed": false, "url": "https://www.yelp.com/biz/put-a-fork-in-it-salt-lake-city?adjust_creative=a2JdNtFqB-C38ga_06BHvw&utm_campaign=yelp_api_v3&utm_medium=api_v3_business_search&utm_source=a2JdNtFqB-C38ga_06BHvw", "review_count": 1, "categories": [{"alias": "foodtrucks", "title": "Food Trucks"}, {"alias": "italian", "title": "Italian"}, {"alias": "catering", "title": "Caterers"}], "rating": 4.0, "coordinates": {"latitude": 40.7603099, "longitude": -111.88822}, "transactions": [], "location": {"address1": null, "address2": null, "address3": "", "city": "Salt Lake City", "zip_code": "84070", "country": "US", "state": "UT", "display_address": ["Salt Lake City, UT 84070"]}, "phone": "+13853996782", "display_phone": "(385) 399-6782", "distance": 1045.9702197066904}, {"id": "D2NBVESl-Y6E-kIMx5oCww", "alias": "bad-ass-breakfast-burritos-sandy", "name": "Bad-Ass Breakfast Burritos", "image_url": "", "is_closed": false, "url": "https://www.yelp.com/biz/bad-ass-breakfast-burritos-sandy?adjust_creative=a2JdNtFqB-C38ga_06BHvw&utm_campaign=yelp_api_v3&utm_medium=api_v3_business_search&utm_source=a2JdNtFqB-C38ga_06BHvw", "review_count": 2, "categories": [{"alias": "fooddeliveryservices", "title": "Food Delivery Services"}, {"alias": "breakfast_brunch", "title": "Breakfast & Brunch"}, {"alias": "mexican", "title": "Mexican"}], "rating": 2.5, "coordinates": {"latitude": 40.564873, "longitude": -111.890172}, "transactions": ["delivery", "pickup"], "location": {"address1": "10261 State St", "address2": null, "address3": null, "city": "Sandy", "zip_code": "84070", "country": "US", "state": "UT", "display_address": ["10261 State St", "Sandy, UT 84070"]}, "phone": "+18019873202", "display_phone": "(801) 987-3202", "distance": 2023.7860636503274}, {"id": "QKSyTCYCQGLFCPsva48SCg", "alias": "arbys-roast-beef-sandwiches-sandy", "name": "Arby's Roast Beef Sandwiches", "image_url": "", "is_closed": false, "url": "https://www.yelp.com/biz/arbys-roast-beef-sandwiches-sandy?adjust_creative=a2JdNtFqB-C38ga_06BHvw&utm_campaign=yelp_api_v3&utm_medium=api_v3_business_search&utm_source=a2JdNtFqB-C38ga_06BHvw", "review_count": 1, "categories": [{"alias": "hotdogs", "title": "Fast Food"}, {"alias": "sandwiches", "title": "Sandwiches"}], "rating": 3.0, "coordinates": {"latitude": 40.587612, "longitude": -111.895411}, "transactions": [], "price": "$", "location": {"address1": "S Towne Ctr", "address2": "", "address3": "", "city": "Sandy", "zip_code": "84070", "country": "US", "state": "UT", "display_address": ["S Towne Ctr", "Sandy, UT 84070"]}, "phone": "+18015719180", "display_phone": "(801) 571-9180", "distance": 555.078109514624}, {"id": "cIBNyfJ1TB-iJCT__3j5UQ", "alias": "bout-time-pub-and-grub-sandy", "name": "Bout Time Pub & Grub", "image_url": "", "is_closed": false, "url": "https://www.yelp.com/biz/bout-time-pub-and-grub-sandy?adjust_creative=a2JdNtFqB-C38ga_06BHvw&utm_campaign=yelp_api_v3&utm_medium=api_v3_business_search&utm_source=a2JdNtFqB-C38ga_06BHvw", "review_count": 1, "categories": [{"alias": "sportsbars", "title": "Sports Bars"}, {"alias": "pubs", "title": "Pubs"}, {"alias": "newamerican", "title": "American (New)"}], "rating": 2.0, "coordinates": {"latitude": 40.5587351, "longitude": -111.8916576}, "transactions": [], "location": {"address1": "31 W 10600 S", "address2": "Ste 35", "address3": "", "city": "Sandy", "zip_code": "84070", "country": "US", "state": "UT", "display_address": ["31 W 10600 S", "Ste 35", "Sandy, UT 84070"]}, "phone": "+13852757056", "display_phone": "(385) 275-7056", "distance": 2708.2610402108985}, {"id": "w0KN8Qz2b3zipCC-JbvbAA", "alias": "wow-bao-sandy", "name": "Wow Bao", "image_url": "", "is_closed": false, "url": "https://www.yelp.com/biz/wow-bao-sandy?adjust_creative=a2JdNtFqB-C38ga_06BHvw&utm_campaign=yelp_api_v3&utm_medium=api_v3_business_search&utm_source=a2JdNtFqB-C38ga_06BHvw", "review_count": 1, "categories": [{"alias": "fooddeliveryservices", "title": "Food Delivery Services"}, {"alias": "acaibowls", "title": "Acai Bowls"}, {"alias": "asianfusion", "title": "Asian Fusion"}], "rating": 2.0, "coordinates": {"latitude": 40.57648849487305, "longitude": -111.8857421875}, "transactions": [], "location": {"address1": null, "address2": null, "address3": null, "city": "Sandy", "zip_code": "84070", "country": "US", "state": "UT", "display_address": ["Sandy, UT 84070"]}, "phone": "+18015668021", "display_phone": "(801) 566-8021", "distance": 1045.9702197066904}, {"id": "kDiEpOoQQuE3bmV6W2MXqw", "alias": "el-taconaso-midvale", "name": "El Taconaso", "image_url": "", "is_closed": false, "url": "https://www.yelp.com/biz/el-taconaso-midvale?adjust_creative=a2JdNtFqB-C38ga_06BHvw&utm_campaign=yelp_api_v3&utm_medium=api_v3_business_search&utm_source=a2JdNtFqB-C38ga_06BHvw", "review_count": 1, "categories": [{"alias": "mexican", "title": "Mexican"}], "rating": 1.0, "coordinates": {"latitude": 40.606616, "longitude": -111.89102}, "transactions": ["delivery"], "price": "$", "location": {"address1": "7962 S State St", "address2": "", "address3": "", "city": "Midvale", "zip_code": "84047", "country": "US", "state": "UT", "display_address": ["7962 S State St", "Midvale, UT 84047"]}, "phone": "+18015635196", "display_phone": "(801) 563-5196", "distance": 2640.7042964149878}], "absolute total": 139, "total": 139}