{"league": "NHL", "team": "Arizona Coyotes", "stadium": "Gila River Arena", "stadium latitude": 33.532269, "stadium longitude": -112.26128, "radius": "3000 meters", "city": "Glendale", "state": "Arizona", "businesses": [{"id": "rBORUEPBl46ZOEIMjPbyeQ", "alias": "the-sicilian-butcher-peoria-peoria", "name": "The Sicilian Butcher - Peoria", "image_url": "https://s3-media4.fl.yelpcdn.com/bphoto/heJR9WJiTaZ3M6cSpdzR9w/o.jpg", "is_closed": false, "url": "https://www.yelp.com/biz/the-sicilian-butcher-peoria-peoria?adjust_creative=a2JdNtFqB-C38ga_06BHvw&utm_campaign=yelp_api_v3&utm_medium=api_v3_business_search&utm_source=a2JdNtFqB-C38ga_06BHvw", "review_count": 355, "categories": [{"alias": "sicilian", "title": "Sicilian"}, {"alias": "tradamerican", "title": "American (Traditional)"}], "rating": 4.5, "coordinates": {"latitude": 33.552221, "longitude": -112.2699767}, "transactions": ["delivery"], "location": {"address1": "9780 W Northern Ave", "address2": "Ste 1380", "address3": "", "city": "Peoria", "zip_code": "85345", "country": "US", "state": "AZ", "display_address": ["9780 W Northern Ave", "Ste 1380", "Peoria, AZ 85345"]}, "phone": "", "display_phone": "", "distance": 2360.4308966107665}, {"id": "iucnfMFJlkL8sMYW9J0K8A", "alias": "alesha-donuts-glendale", "name": "Alesha Donuts", "image_url": "https://s3-media2.fl.yelpcdn.com/bphoto/DkV-F83wAXk3r4WwDwWsOA/o.jpg", "is_closed": false, "url": "https://www.yelp.com/biz/alesha-donuts-glendale?adjust_creative=a2JdNtFqB-C38ga_06BHvw&utm_campaign=yelp_api_v3&utm_medium=api_v3_business_search&utm_source=a2JdNtFqB-C38ga_06BHvw", "review_count": 78, "categories": [{"alias": "donuts", "title": "Donuts"}, {"alias": "juicebars", "title": "Juice Bars & Smoothies"}, {"alias": "sandwiches", "title": "Sandwiches"}], "rating": 4.5, "coordinates": {"latitude": 33.53712, "longitude": -112.23953}, "transactions": ["delivery"], "price": "$", "location": {"address1": "8345 W Glendale Ave", "address2": "", "address3": null, "city": "Glendale", "zip_code": "85305", "country": "US", "state": "AZ", "display_address": ["8345 W Glendale Ave", "Glendale, AZ 85305"]}, "phone": "+16233884613", "display_phone": "(623) 388-4613", "distance": 2099.355169220256}, {"id": "jb-SRwuyska79jPV7FrOfA", "alias": "epic-wings-glendale", "name": "Epic Wings", "image_url": "https://s3-media3.fl.yelpcdn.com/bphoto/5ZiSAfLFKCZdRCdmHR-TfQ/o.jpg", "is_closed": false, "url": "https://www.yelp.com/biz/epic-wings-glendale?adjust_creative=a2JdNtFqB-C38ga_06BHvw&utm_campaign=yelp_api_v3&utm_medium=api_v3_business_search&utm_source=a2JdNtFqB-C38ga_06BHvw", "review_count": 110, "categories": [{"alias": "chicken_wings", "title": "Chicken Wings"}], "rating": 4.5, "coordinates": {"latitude": 33.5088659, "longitude": -112.2654177}, "transactions": ["delivery"], "price": "$", "location": {"address1": "9524 W Camelback Rd", "address2": "Ste C-100", "address3": null, "city": "Glendale", "zip_code": "85305", "country": "US", "state": "AZ", "display_address": ["9524 W Camelback Rd", "Ste C-100", "Glendale, AZ 85305"]}, "phone": "+16027731477", "display_phone": "(602) 773-1477", "distance": 2630.419905049428}, {"id": "UVw-ZOsmJ1cDQO9_AFUzWA", "alias": "dons-ny-pizza-phoenix", "name": "Don's NY Pizza", "image_url": "https://s3-media2.fl.yelpcdn.com/bphoto/jJusVGapl1_gC1njxshcMw/o.jpg", "is_closed": false, "url": "https://www.yelp.com/biz/dons-ny-pizza-phoenix?adjust_creative=a2JdNtFqB-C38ga_06BHvw&utm_campaign=yelp_api_v3&utm_medium=api_v3_business_search&utm_source=a2JdNtFqB-C38ga_06BHvw", "review_count": 154, "categories": [{"alias": "pizza", "title": "Pizza"}], "rating": 4.5, "coordinates": {"latitude": 33.50613, "longitude": -112.273644}, "transactions": ["delivery"], "price": "$", "location": {"address1": "9971 W Camelback Rd", "address2": "", "address3": null, "city": "Phoenix", "zip_code": "85037", "country": "US", "state": "AZ", "display_address": ["9971 W Camelback Rd", "Phoenix, AZ 85037"]}, "phone": "+16233375272", "display_phone": "(623) 337-5272", "distance": 3124.3556214746272}, {"id": "-ubMwuskT2uS0GPSZpxaxA", "alias": "fleming-s-prime-steakhouse-and-wine-bar-peoria-2", "name": "Fleming’s Prime Steakhouse & Wine Bar", "image_url": "https://s3-media3.fl.yelpcdn.com/bphoto/KSZld7tMhFEDs0xkTU-10g/o.jpg", "is_closed": false, "url": "https://www.yelp.com/biz/fleming-s-prime-steakhouse-and-wine-bar-peoria-2?adjust_creative=a2JdNtFqB-C38ga_06BHvw&utm_campaign=yelp_api_v3&utm_medium=api_v3_business_search&utm_source=a2JdNtFqB-C38ga_06BHvw", "review_count": 423, "categories": [{"alias": "steak", "title": "Steakhouses"}, {"alias": "wine_bars", "title": "Wine Bars"}, {"alias": "seafood", "title": "Seafood"}], "rating": 4.0, "coordinates": {"latitude": 33.5520902353093, "longitude": -112.268552772536}, "transactions": [], "price": "$$$", "location": {"address1": "9712 W Northern Ave", "address2": "", "address3": "", "city": "Peoria", "zip_code": "85345", "country": "US", "state": "AZ", "display_address": ["9712 W Northern Ave", "Peoria, AZ 85345"]}, "phone": "+16237729463", "display_phone": "(623) 772-9463", "distance": 2304.780580550394}, {"id": "qXoVYptJRQg6Jt7NLvGv-A", "alias": "opa-life-greek-cafe-glendale", "name": "Opa Life Greek Cafe", "image_url": "https://s3-media4.fl.yelpcdn.com/bphoto/LeeE58ANHU7xEQM1QjloJg/o.jpg", "is_closed": false, "url": "https://www.yelp.com/biz/opa-life-greek-cafe-glendale?adjust_creative=a2JdNtFqB-C38ga_06BHvw&utm_campaign=yelp_api_v3&utm_medium=api_v3_business_search&utm_source=a2JdNtFqB-C38ga_06BHvw", "review_count": 435, "categories": [{"alias": "greek", "title": "Greek"}, {"alias": "cafes", "title": "Cafes"}, {"alias": "mediterranean", "title": "Mediterranean"}], "rating": 4.0, "coordinates": {"latitude": 33.5345049, "longitude": -112.2613646}, "transactions": ["pickup"], "price": "$$", "location": {"address1": "9404 Westgate Blvd", "address2": "Unit C103", "address3": "", "city": "Glendale", "zip_code": "85305", "country": "US", "state": "AZ", "display_address": ["9404 Westgate Blvd", "Unit C103", "Glendale, AZ 85305"]}, "phone": "+16232428338", "display_phone": "(623) 242-8338", "distance": 254.81983167124287}, {"id": "iaPA_Pdb7r85X_xwVEbpJw", "alias": "hash-kitchen-peoria-peoria", "name": "Hash Kitchen - Peoria", "image_url": "https://s3-media2.fl.yelpcdn.com/bphoto/-r7xMywI2Zmk5wMz-W9jSg/o.jpg", "is_closed": false, "url": "https://www.yelp.com/biz/hash-kitchen-peoria-peoria?adjust_creative=a2JdNtFqB-C38ga_06BHvw&utm_campaign=yelp_api_v3&utm_medium=api_v3_business_search&utm_source=a2JdNtFqB-C38ga_06BHvw", "review_count": 266, "categories": [{"alias": "breakfast_brunch", "title": "Breakfast & Brunch"}], "rating": 4.0, "coordinates": {"latitude": 33.551856605945986, "longitude": -112.27005180064873}, "transactions": ["delivery"], "location": {"address1": "9780 W Northern Ave", "address2": "Ste 1100", "address3": "", "city": "Peoria", "zip_code": "85345", "country": "US", "state": "AZ", "display_address": ["9780 W Northern Ave", "Ste 1100", "Peoria, AZ 85345"]}, "phone": "+16234715471", "display_phone": "(623) 471-5471", "distance": 2324.814078602971}, {"id": "93FNDjCBsdbKkUoh3UVS4g", "alias": "grimaldis-pizzeria-peoria", "name": "Grimaldi's Pizzeria", "image_url": "https://s3-media4.fl.yelpcdn.com/bphoto/koQVzwrcJoJ0qJl0ymUCzg/o.jpg", "is_closed": false, "url": "https://www.yelp.com/biz/grimaldis-pizzeria-peoria?adjust_creative=a2JdNtFqB-C38ga_06BHvw&utm_campaign=yelp_api_v3&utm_medium=api_v3_business_search&utm_source=a2JdNtFqB-C38ga_06BHvw", "review_count": 689, "categories": [{"alias": "pizza", "title": "Pizza"}], "rating": 4.0, "coordinates": {"latitude": 33.5539, "longitude": -112.27005}, "transactions": ["delivery", "pickup"], "price": "$$", "location": {"address1": "9788 W Northern Ave", "address2": "Ste 1440", "address3": "", "city": "Peoria", "zip_code": "85345", "country": "US", "state": "AZ", "display_address": ["9788 W Northern Ave", "Ste 1440", "Peoria, AZ 85345"]}, "phone": "+16234864455", "display_phone": "(623) 486-4455", "distance": 2538.87100417888}, {"id": "3sSHcqZnEuzy3PQOuN-fZw", "alias": "the-lola-az-glendale", "name": "The Lola AZ", "image_url": "https://s3-media1.fl.yelpcdn.com/bphoto/fAz-DX0hzDc2Vity3pcbnA/o.jpg", "is_closed": false, "url": "https://www.yelp.com/biz/the-lola-az-glendale?adjust_creative=a2JdNtFqB-C38ga_06BHvw&utm_campaign=yelp_api_v3&utm_medium=api_v3_business_search&utm_source=a2JdNtFqB-C38ga_06BHvw", "review_count": 626, "categories": [{"alias": "cocktailbars", "title": "Cocktail Bars"}, {"alias": "newamerican", "title": "American (New)"}, {"alias": "burgers", "title": "Burgers"}], "rating": 4.0, "coordinates": {"latitude": 33.533442, "longitude": -112.260603}, "transactions": ["delivery", "pickup"], "price": "$$", "location": {"address1": "6770 N Sunrise Blvd", "address2": "Ste G109", "address3": null, "city": "Glendale", "zip_code": "85305", "country": "US", "state": "AZ", "display_address": ["6770 N Sunrise Blvd", "Ste G109", "Glendale, AZ 85305"]}, "phone": "+16238775225", "display_phone": "(623) 877-5225", "distance": 144.741008027284}, {"id": "gogO5RF4Rqz2THF1ATcCew", "alias": "kabuki-japanese-restaurant-glendale", "name": "Kabuki Japanese Restaurant", "image_url": "https://s3-media1.fl.yelpcdn.com/bphoto/_k2oRVXb1BYgGJEDjCPhVg/o.jpg", "is_closed": false, "url": "https://www.yelp.com/biz/kabuki-japanese-restaurant-glendale?adjust_creative=a2JdNtFqB-C38ga_06BHvw&utm_campaign=yelp_api_v3&utm_medium=api_v3_business_search&utm_source=a2JdNtFqB-C38ga_06BHvw", "review_count": 792, "categories": [{"alias": "japanese", "title": "Japanese"}, {"alias": "sushi", "title": "Sushi Bars"}, {"alias": "tapasmallplates", "title": "Tapas/Small Plates"}], "rating": 4.0, "coordinates": {"latitude": 33.5339543187941, "longitude": -112.261047363281}, "transactions": ["delivery", "pickup"], "price": "$$", "location": {"address1": "6770 N Sunrise Blvd", "address2": "Ste G211", "address3": "G211", "city": "Glendale", "zip_code": "85305", "country": "US", "state": "AZ", "display_address": ["6770 N Sunrise Blvd", "Ste G211", "G211", "Glendale, AZ 85305"]}, "phone": "+16237729832", "display_phone": "(623) 772-9832", "distance": 188.6351496634987}, {"id": "RtnTbhWYw4QjKhoTBV37OA", "alias": "yard-house-glendale-2", "name": "Yard House", "image_url": "https://s3-media3.fl.yelpcdn.com/bphoto/7T3-GZz-d9ssqX0N7WQCCQ/o.jpg", "is_closed": false, "url": "https://www.yelp.com/biz/yard-house-glendale-2?adjust_creative=a2JdNtFqB-C38ga_06BHvw&utm_campaign=yelp_api_v3&utm_medium=api_v3_business_search&utm_source=a2JdNtFqB-C38ga_06BHvw", "review_count": 1187, "categories": [{"alias": "bars", "title": "Bars"}, {"alias": "vegetarian", "title": "Vegetarian"}, {"alias": "newamerican", "title": "American (New)"}], "rating": 3.5, "coordinates": {"latitude": 33.5342451, "longitude": -112.2615265}, "transactions": ["delivery", "pickup"], "price": "$$", "location": {"address1": "9401 West Westgate Blvd", "address2": "", "address3": "", "city": "Glendale", "zip_code": "85305", "country": "US", "state": "AZ", "display_address": ["9401 West Westgate Blvd", "Glendale, AZ 85305"]}, "phone": "+16238723900", "display_phone": "(623) 872-3900", "distance": 206.15816578559208}, {"id": "pKZWMR4Pjj62cBBplVCvug", "alias": "manna-bbq-glendale-8", "name": "Manna  BBQ", "image_url": "https://s3-media3.fl.yelpcdn.com/bphoto/WXyPa62DWddOy5edkVt1bg/o.jpg", "is_closed": false, "url": "https://www.yelp.com/biz/manna-bbq-glendale-8?adjust_creative=a2JdNtFqB-C38ga_06BHvw&utm_campaign=yelp_api_v3&utm_medium=api_v3_business_search&utm_source=a2JdNtFqB-C38ga_06BHvw", "review_count": 219, "categories": [{"alias": "korean", "title": "Korean"}, {"alias": "bbq", "title": "Barbeque"}], "rating": 4.0, "coordinates": {"latitude": 33.5337789, "longitude": -112.261797}, "transactions": [], "price": "$$", "location": {"address1": "6751 N Sunset Blvd", "address2": "Suit E100", "address3": "", "city": "Glendale", "zip_code": "85305", "country": "US", "state": "AZ", "display_address": ["6751 N Sunset Blvd", "Suit E100", "Glendale, AZ 85305"]}, "phone": "+16238775007", "display_phone": "(623) 877-5007", "distance": 174.59778591131666}, {"id": "wUPoQpzy_LKWMO_pgBgkBg", "alias": "bjs-restaurant-and-brewhouse-peoria", "name": "BJ's Restaurant & Brewhouse", "image_url": "https://s3-media3.fl.yelpcdn.com/bphoto/Zhz_GQEFUMTUeoYg7zlW1Q/o.jpg", "is_closed": false, "url": "https://www.yelp.com/biz/bjs-restaurant-and-brewhouse-peoria?adjust_creative=a2JdNtFqB-C38ga_06BHvw&utm_campaign=yelp_api_v3&utm_medium=api_v3_business_search&utm_source=a2JdNtFqB-C38ga_06BHvw", "review_count": 505, "categories": [{"alias": "newamerican", "title": "American (New)"}, {"alias": "breweries", "title": "Breweries"}, {"alias": "pizza", "title": "Pizza"}], "rating": 3.5, "coordinates": {"latitude": 33.552059, "longitude": -112.269235}, "transactions": ["delivery"], "price": "$$", "location": {"address1": "9748 W Northern Ave", "address2": "", "address3": "", "city": "Peoria", "zip_code": "85345", "country": "US", "state": "AZ", "display_address": ["9748 W Northern Ave", "Peoria, AZ 85345"]}, "phone": "+16237726470", "display_phone": "(623) 772-6470", "distance": 2320.7646367517323}, {"id": "lbo8gncBXedeeogWD1JDag", "alias": "birrieria-las-marias-phoenix", "name": "Birrieria Las Marias", "image_url": "https://s3-media2.fl.yelpcdn.com/bphoto/A-4YyATwwxtfK1xMSiuU6A/o.jpg", "is_closed": false, "url": "https://www.yelp.com/biz/birrieria-las-marias-phoenix?adjust_creative=a2JdNtFqB-C38ga_06BHvw&utm_campaign=yelp_api_v3&utm_medium=api_v3_business_search&utm_source=a2JdNtFqB-C38ga_06BHvw", "review_count": 53, "categories": [{"alias": "mexican", "title": "Mexican"}], "rating": 4.0, "coordinates": {"latitude": 33.5081669194365, "longitude": -112.235889919102}, "transactions": ["delivery"], "price": "$", "location": {"address1": "4819 N 83rd Ave", "address2": "Ste 106A", "address3": "", "city": "Phoenix", "zip_code": "85033", "country": "US", "state": "AZ", "display_address": ["4819 N 83rd Ave", "Ste 106A", "Phoenix, AZ 85033"]}, "phone": "+16233744264", "display_phone": "(623) 374-4264", "distance": 3566.8626801200276}, {"id": "Ci9yksEoQXrCEHD_mkFNsA", "alias": "nineteen-86-steakhouse-glendale", "name": "Nineteen 86 Steakhouse", "image_url": "https://s3-media4.fl.yelpcdn.com/bphoto/0Yq00ne6a0-wD366AHlUQA/o.jpg", "is_closed": false, "url": "https://www.yelp.com/biz/nineteen-86-steakhouse-glendale?adjust_creative=a2JdNtFqB-C38ga_06BHvw&utm_campaign=yelp_api_v3&utm_medium=api_v3_business_search&utm_source=a2JdNtFqB-C38ga_06BHvw", "review_count": 38, "categories": [{"alias": "steak", "title": "Steakhouses"}, {"alias": "seafood", "title": "Seafood"}], "rating": 4.5, "coordinates": {"latitude": 33.546492, "longitude": -112.260835}, "transactions": [], "location": {"address1": "9431 W Northern Ave", "address2": "", "address3": "Desert Diamond Casinos", "city": "Glendale", "zip_code": "85305", "country": "US", "state": "AZ", "display_address": ["9431 W Northern Ave", "Desert Diamond Casinos", "Glendale, AZ 85305"]}, "phone": "+16236338986", "display_phone": "(623) 633-8986", "distance": 1596.1823839358005}, {"id": "PXVNlCbNocp-EJ-RJRQoIw", "alias": "in-n-out-burger-phoenix-7", "name": "In-N-Out Burger", "image_url": "https://s3-media2.fl.yelpcdn.com/bphoto/XLkYRw5SbQTi6amIJNv2Og/o.jpg", "is_closed": false, "url": "https://www.yelp.com/biz/in-n-out-burger-phoenix-7?adjust_creative=a2JdNtFqB-C38ga_06BHvw&utm_campaign=yelp_api_v3&utm_medium=api_v3_business_search&utm_source=a2JdNtFqB-C38ga_06BHvw", "review_count": 112, "categories": [{"alias": "hotdogs", "title": "Fast Food"}, {"alias": "burgers", "title": "Burgers"}], "rating": 4.0, "coordinates": {"latitude": 33.5080653, "longitude": -112.2664706}, "transactions": ["delivery"], "price": "$", "location": {"address1": "9585 W Camelback Rd", "address2": "", "address3": "", "city": "Phoenix", "zip_code": "85037", "country": "US", "state": "AZ", "display_address": ["9585 W Camelback Rd", "Phoenix, AZ 85037"]}, "phone": "+18007861000", "display_phone": "(800) 786-1000", "distance": 2734.0021666098405}, {"id": "6VIHhUlguWzD8bFptOS0UA", "alias": "the-hummingbird-hut-glendale", "name": "The Hummingbird Hut", "image_url": "https://s3-media3.fl.yelpcdn.com/bphoto/aBvwJWXW3Xg1Le6GQ6MCfg/o.jpg", "is_closed": false, "url": "https://www.yelp.com/biz/the-hummingbird-hut-glendale?adjust_creative=a2JdNtFqB-C38ga_06BHvw&utm_campaign=yelp_api_v3&utm_medium=api_v3_business_search&utm_source=a2JdNtFqB-C38ga_06BHvw", "review_count": 18, "categories": [{"alias": "caribbean", "title": "Caribbean"}, {"alias": "tradamerican", "title": "American (Traditional)"}, {"alias": "breakfast_brunch", "title": "Breakfast & Brunch"}], "rating": 4.5, "coordinates": {"latitude": 33.52865, "longitude": -112.24622897055225}, "transactions": [], "location": {"address1": "8710 W Maryland Ave", "address2": "", "address3": null, "city": "Glendale", "zip_code": "85305", "country": "US", "state": "AZ", "display_address": ["8710 W Maryland Ave", "Glendale, AZ 85305"]}, "phone": "+16026158701", "display_phone": "(602) 615-8701", "distance": 1451.9753639206397}, {"id": "V4grJe-q0xBiU2PBrxk96Q", "alias": "fired-pie-glendale-3", "name": "Fired Pie", "image_url": "https://s3-media2.fl.yelpcdn.com/bphoto/eWNzZ_-FOy40eJLqEoux_w/o.jpg", "is_closed": false, "url": "https://www.yelp.com/biz/fired-pie-glendale-3?adjust_creative=a2JdNtFqB-C38ga_06BHvw&utm_campaign=yelp_api_v3&utm_medium=api_v3_business_search&utm_source=a2JdNtFqB-C38ga_06BHvw", "review_count": 166, "categories": [{"alias": "salad", "title": "Salad"}, {"alias": "pizza", "title": "Pizza"}, {"alias": "gluten_free", "title": "Gluten-Free"}], "rating": 4.0, "coordinates": {"latitude": 33.533755517823, "longitude": -112.266964405557}, "transactions": ["delivery", "pickup"], "price": "$", "location": {"address1": "6800 N 95th Ave", "address2": "Ste 870", "address3": "", "city": "Glendale", "zip_code": "85305", "country": "US", "state": "AZ", "display_address": ["6800 N 95th Ave", "Ste 870", "Glendale, AZ 85305"]}, "phone": "+16238722222", "display_phone": "(623) 872-2222", "distance": 552.1980284058976}, {"id": "XFXkImvmUFUERCuZeiuZtw", "alias": "twin-peaks-glendale", "name": "Twin Peaks", "image_url": "https://s3-media1.fl.yelpcdn.com/bphoto/SmxU_ZH_y3cMX9uqd2eJEw/o.jpg", "is_closed": false, "url": "https://www.yelp.com/biz/twin-peaks-glendale?adjust_creative=a2JdNtFqB-C38ga_06BHvw&utm_campaign=yelp_api_v3&utm_medium=api_v3_business_search&utm_source=a2JdNtFqB-C38ga_06BHvw", "review_count": 296, "categories": [{"alias": "sportsbars", "title": "Sports Bars"}, {"alias": "tradamerican", "title": "American (Traditional)"}, {"alias": "newamerican", "title": "American (New)"}], "rating": 3.5, "coordinates": {"latitude": 33.53604, "longitude": -112.26486}, "transactions": ["delivery"], "price": "$$", "location": {"address1": "6922 N 95th Ave", "address2": "", "address3": null, "city": "Glendale", "zip_code": "85305", "country": "US", "state": "AZ", "display_address": ["6922 N 95th Ave", "Glendale, AZ 85305"]}, "phone": "+16232335700", "display_phone": "(623) 233-5700", "distance": 527.7305743452011}, {"id": "HaOvuZUzCLbObQfT8H44fw", "alias": "rancho-nuevo-mexican-grill-and-seafood-glendale", "name": "Rancho Nuevo Mexican Grill and Seafood", "image_url": "https://s3-media1.fl.yelpcdn.com/bphoto/AU914l7667saguT49NtfFw/o.jpg", "is_closed": false, "url": "https://www.yelp.com/biz/rancho-nuevo-mexican-grill-and-seafood-glendale?adjust_creative=a2JdNtFqB-C38ga_06BHvw&utm_campaign=yelp_api_v3&utm_medium=api_v3_business_search&utm_source=a2JdNtFqB-C38ga_06BHvw", "review_count": 71, "categories": [{"alias": "mexican", "title": "Mexican"}], "rating": 4.0, "coordinates": {"latitude": 33.50922273362835, "longitude": -112.23682864110447}, "transactions": ["delivery"], "price": "$", "location": {"address1": "8290 W Camelback Rd", "address2": "Ste 108", "address3": "", "city": "Glendale", "zip_code": "85303", "country": "US", "state": "AZ", "display_address": ["8290 W Camelback Rd", "Ste 108", "Glendale, AZ 85303"]}, "phone": "+16233996916", "display_phone": "(623) 399-6916", "distance": 3421.2394237533313}, {"id": "KVaR0vF-7q36VvdU7-9clg", "alias": "bar-louie-glendale-glendale", "name": "Bar Louie - Glendale", "image_url": "https://s3-media2.fl.yelpcdn.com/bphoto/HkasMSDLZrscs6a2e-Pscw/o.jpg", "is_closed": false, "url": "https://www.yelp.com/biz/bar-louie-glendale-glendale?adjust_creative=a2JdNtFqB-C38ga_06BHvw&utm_campaign=yelp_api_v3&utm_medium=api_v3_business_search&utm_source=a2JdNtFqB-C38ga_06BHvw", "review_count": 475, "categories": [{"alias": "bars", "title": "Bars"}, {"alias": "newamerican", "title": "American (New)"}, {"alias": "gastropubs", "title": "Gastropubs"}], "rating": 3.5, "coordinates": {"latitude": 33.53358025, "longitude": -112.26087306}, "transactions": ["delivery", "pickup"], "price": "$$", "location": {"address1": "6770 N Sunrise Blvd", "address2": "", "address3": "", "city": "Glendale", "zip_code": "85305", "country": "US", "state": "AZ", "display_address": ["6770 N Sunrise Blvd", "Glendale, AZ 85305"]}, "phone": "+16026095500", "display_phone": "(602) 609-5500", "distance": 150.60397537795646}, {"id": "Klx3owEB3vHv0f-VVBzRpw", "alias": "topgolf-glendale-2", "name": "Topgolf", "image_url": "https://s3-media2.fl.yelpcdn.com/bphoto/vXNDGDmmWf8N0ZvvkjTrCQ/o.jpg", "is_closed": false, "url": "https://www.yelp.com/biz/topgolf-glendale-2?adjust_creative=a2JdNtFqB-C38ga_06BHvw&utm_campaign=yelp_api_v3&utm_medium=api_v3_business_search&utm_source=a2JdNtFqB-C38ga_06BHvw", "review_count": 250, "categories": [{"alias": "sportsbars", "title": "Sports Bars"}, {"alias": "newamerican", "title": "American (New)"}, {"alias": "golf", "title": "Golf"}], "rating": 3.5, "coordinates": {"latitude": 33.5244195, "longitude": -112.2708168}, "transactions": [], "price": "$$", "location": {"address1": "6101 N 99th Ave", "address2": "", "address3": null, "city": "Glendale", "zip_code": "85305", "country": "US", "state": "AZ", "display_address": ["6101 N 99th Ave", "Glendale, AZ 85305"]}, "phone": "+16232182243", "display_phone": "(623) 218-2243", "distance": 1242.2858807999023}, {"id": "T3phaFF7ihJk1YsU23r1rQ", "alias": "cabin-whiskey-and-grill-peoria", "name": "Cabin Whiskey & Grill", "image_url": "https://s3-media2.fl.yelpcdn.com/bphoto/4Y2qF6eBzlS5D33pRySywg/o.jpg", "is_closed": false, "url": "https://www.yelp.com/biz/cabin-whiskey-and-grill-peoria?adjust_creative=a2JdNtFqB-C38ga_06BHvw&utm_campaign=yelp_api_v3&utm_medium=api_v3_business_search&utm_source=a2JdNtFqB-C38ga_06BHvw", "review_count": 477, "categories": [{"alias": "whiskeybars", "title": "Whiskey Bars"}, {"alias": "tradamerican", "title": "American (Traditional)"}, {"alias": "comfortfood", "title": "Comfort Food"}], "rating": 3.5, "coordinates": {"latitude": 33.5515249, "longitude": -112.2720898}, "transactions": ["delivery", "pickup"], "price": "$$", "location": {"address1": "9868 W Northern Ave", "address2": null, "address3": "", "city": "Peoria", "zip_code": "85345", "country": "US", "state": "AZ", "display_address": ["9868 W Northern Ave", "Peoria, AZ 85345"]}, "phone": "+16237725974", "display_phone": "(623) 772-5974", "distance": 2411.0796427127143}, {"id": "7X7kZgFNpkZSHtOGrhrt-w", "alias": "jalapeño-inferno-peoria", "name": "Jalapeño Inferno", "image_url": "https://s3-media3.fl.yelpcdn.com/bphoto/gzoahfNBlP8-oqt1mlbQqg/o.jpg", "is_closed": false, "url": "https://www.yelp.com/biz/jalape%C3%B1o-inferno-peoria?adjust_creative=a2JdNtFqB-C38ga_06BHvw&utm_campaign=yelp_api_v3&utm_medium=api_v3_business_search&utm_source=a2JdNtFqB-C38ga_06BHvw", "review_count": 75, "categories": [{"alias": "mexican", "title": "Mexican"}], "rating": 3.5, "coordinates": {"latitude": 33.554332, "longitude": -112.270903}, "transactions": ["delivery", "pickup"], "location": {"address1": "9832 W Northern Ave", "address2": "", "address3": "", "city": "Peoria", "zip_code": "85345", "country": "US", "state": "AZ", "display_address": ["9832 W Northern Ave", "Peoria, AZ 85345"]}, "phone": "+16234403181", "display_phone": "(623) 440-3181", "distance": 2601.1505933523717}, {"id": "GPVHfoDjSOivqgIDjIOA-Q", "alias": "hot-n-juicy-crawfish-glendale", "name": "Hot N Juicy Crawfish", "image_url": "https://s3-media3.fl.yelpcdn.com/bphoto/CHbxFP5RAT1Ebj-12aXhbQ/o.jpg", "is_closed": false, "url": "https://www.yelp.com/biz/hot-n-juicy-crawfish-glendale?adjust_creative=a2JdNtFqB-C38ga_06BHvw&utm_campaign=yelp_api_v3&utm_medium=api_v3_business_search&utm_source=a2JdNtFqB-C38ga_06BHvw", "review_count": 614, "categories": [{"alias": "seafood", "title": "Seafood"}, {"alias": "cajun", "title": "Cajun/Creole"}], "rating": 3.0, "coordinates": {"latitude": 33.5342965737468, "longitude": -112.261606541766}, "transactions": ["delivery"], "price": "$$", "location": {"address1": "6751 N Sunset Blvd", "address2": "", "address3": "", "city": "Glendale", "zip_code": "85305", "country": "US", "state": "AZ", "display_address": ["6751 N Sunset Blvd", "Glendale, AZ 85305"]}, "phone": "+16238722984", "display_phone": "(623) 872-2984", "distance": 227.47817408398487}, {"id": "QM2UvOIvicUpVwYhKz-Ppw", "alias": "crepe-house-cafe-glendale", "name": "Crepe House Cafe", "image_url": "https://s3-media2.fl.yelpcdn.com/bphoto/CMTOxNicthx7HSS4DdQKGA/o.jpg", "is_closed": false, "url": "https://www.yelp.com/biz/crepe-house-cafe-glendale?adjust_creative=a2JdNtFqB-C38ga_06BHvw&utm_campaign=yelp_api_v3&utm_medium=api_v3_business_search&utm_source=a2JdNtFqB-C38ga_06BHvw", "review_count": 20, "categories": [{"alias": "creperies", "title": "Creperies"}, {"alias": "coffee", "title": "Coffee & Tea"}, {"alias": "breakfast_brunch", "title": "Breakfast & Brunch"}], "rating": 4.5, "coordinates": {"latitude": 33.53291578271657, "longitude": -112.2607092}, "transactions": ["delivery", "pickup"], "location": {"address1": "6770 N Sunrise Blvd", "address2": "Ste G121", "address3": "", "city": "Glendale", "zip_code": "85305", "country": "US", "state": "AZ", "display_address": ["6770 N Sunrise Blvd", "Ste G121", "Glendale, AZ 85305"]}, "phone": "+16026887362", "display_phone": "(602) 688-7362", "distance": 89.28299665580641}, {"id": "RcxVK_OEXv3MccIo0nYMZg", "alias": "the-nest-sports-grill-glendale", "name": "The Nest Sports Grill", "image_url": "https://s3-media3.fl.yelpcdn.com/bphoto/wtAS73nC0X10Ucu1dFo9RA/o.jpg", "is_closed": false, "url": "https://www.yelp.com/biz/the-nest-sports-grill-glendale?adjust_creative=a2JdNtFqB-C38ga_06BHvw&utm_campaign=yelp_api_v3&utm_medium=api_v3_business_search&utm_source=a2JdNtFqB-C38ga_06BHvw", "review_count": 94, "categories": [{"alias": "sportsbars", "title": "Sports Bars"}, {"alias": "tradamerican", "title": "American (Traditional)"}], "rating": 3.5, "coordinates": {"latitude": 33.5113776681907, "longitude": -112.264272827148}, "transactions": ["delivery"], "price": "$$", "location": {"address1": "5134 N 95th Ave", "address2": "", "address3": "", "city": "Glendale", "zip_code": "85305", "country": "US", "state": "AZ", "display_address": ["5134 N 95th Ave", "Glendale, AZ 85305"]}, "phone": "+16235940900", "display_phone": "(623) 594-0900", "distance": 2339.515944477054}, {"id": "s2gjJKptpkmwSXYRtfptZQ", "alias": "whiskey-rose-bar-and-grill-glendale", "name": "Whiskey Rose Bar & Grill", "image_url": "https://s3-media4.fl.yelpcdn.com/bphoto/_1WRLeIy_HHvTsc2wuJw_g/o.jpg", "is_closed": false, "url": "https://www.yelp.com/biz/whiskey-rose-bar-and-grill-glendale?adjust_creative=a2JdNtFqB-C38ga_06BHvw&utm_campaign=yelp_api_v3&utm_medium=api_v3_business_search&utm_source=a2JdNtFqB-C38ga_06BHvw", "review_count": 362, "categories": [{"alias": "bars", "title": "Bars"}, {"alias": "tradamerican", "title": "American (Traditional)"}], "rating": 3.0, "coordinates": {"latitude": 33.533366039035, "longitude": -112.261845750173}, "transactions": ["delivery", "pickup"], "price": "$$", "location": {"address1": "6751 N Sunset Blvd", "address2": "Ste E-110", "address3": "", "city": "Glendale", "zip_code": "85305", "country": "US", "state": "AZ", "display_address": ["6751 N Sunset Blvd", "Ste E-110", "Glendale, AZ 85305"]}, "phone": "+16238777673", "display_phone": "(623) 877-7673", "distance": 132.77859738984606}, {"id": "XJ2dT7pwmutxM4ceQnTVUg", "alias": "mama-ginas-pizzeria-glendale", "name": "Mama Gina's Pizzeria", "image_url": "https://s3-media2.fl.yelpcdn.com/bphoto/ZENDd08j9J2FhbI-X0vkvw/o.jpg", "is_closed": false, "url": "https://www.yelp.com/biz/mama-ginas-pizzeria-glendale?adjust_creative=a2JdNtFqB-C38ga_06BHvw&utm_campaign=yelp_api_v3&utm_medium=api_v3_business_search&utm_source=a2JdNtFqB-C38ga_06BHvw", "review_count": 367, "categories": [{"alias": "italian", "title": "Italian"}, {"alias": "pizza", "title": "Pizza"}], "rating": 3.0, "coordinates": {"latitude": 33.534764, "longitude": -112.260787}, "transactions": ["delivery", "pickup"], "price": "$$", "location": {"address1": "9380 W Westgate Blvd", "address2": "Ste D101", "address3": "", "city": "Glendale", "zip_code": "85305", "country": "US", "state": "AZ", "display_address": ["9380 W Westgate Blvd", "Ste D101", "Glendale, AZ 85305"]}, "phone": "+16238720300", "display_phone": "(623) 872-0300", "distance": 265.8437916581306}, {"id": "AD5r187-LD836JW6ERa9Cg", "alias": "cracker-barrel-old-country-store-glendale", "name": "Cracker Barrel Old Country Store", "image_url": "https://s3-media1.fl.yelpcdn.com/bphoto/wKpem7YNpRN8eC0QEDr8iQ/o.jpg", "is_closed": false, "url": "https://www.yelp.com/biz/cracker-barrel-old-country-store-glendale?adjust_creative=a2JdNtFqB-C38ga_06BHvw&utm_campaign=yelp_api_v3&utm_medium=api_v3_business_search&utm_source=a2JdNtFqB-C38ga_06BHvw", "review_count": 263, "categories": [{"alias": "tradamerican", "title": "American (Traditional)"}, {"alias": "breakfast_brunch", "title": "Breakfast & Brunch"}, {"alias": "southern", "title": "Southern"}], "rating": 3.0, "coordinates": {"latitude": 33.5381, "longitude": -112.26007}, "transactions": ["delivery", "pickup"], "price": "$$", "location": {"address1": "9312 W Glendale Ave", "address2": "", "address3": "", "city": "Glendale", "zip_code": "85305", "country": "US", "state": "AZ", "display_address": ["9312 W Glendale Ave", "Glendale, AZ 85305"]}, "phone": "+16237721930", "display_phone": "(623) 772-1930", "distance": 666.7829966026925}, {"id": "EC_ira45x9ayj1p_S-emEQ", "alias": "wienerschnitzel-glendale", "name": "Wienerschnitzel", "image_url": "https://s3-media4.fl.yelpcdn.com/bphoto/OebHZ22O7U-_ORH0FWMCqQ/o.jpg", "is_closed": false, "url": "https://www.yelp.com/biz/wienerschnitzel-glendale?adjust_creative=a2JdNtFqB-C38ga_06BHvw&utm_campaign=yelp_api_v3&utm_medium=api_v3_business_search&utm_source=a2JdNtFqB-C38ga_06BHvw", "review_count": 42, "categories": [{"alias": "hotdogs", "title": "Fast Food"}, {"alias": "hotdog", "title": "Hot Dogs"}, {"alias": "sandwiches", "title": "Sandwiches"}], "rating": 3.5, "coordinates": {"latitude": 33.55262, "longitude": -112.26101}, "transactions": ["delivery"], "price": "$", "location": {"address1": "9370 West Northern Ave", "address2": "", "address3": "", "city": "Glendale", "zip_code": "85305", "country": "US", "state": "AZ", "display_address": ["9370 West Northern Ave", "Glendale, AZ 85305"]}, "phone": "+16238771322", "display_phone": "(623) 877-1322", "distance": 2257.0738630602104}, {"id": "asWEZLLjYJvc11--8dVtcw", "alias": "pita-jungle-peoria-2", "name": "Pita Jungle", "image_url": "https://s3-media3.fl.yelpcdn.com/bphoto/lExfl-xxihYxCkNFhOoVow/o.jpg", "is_closed": false, "url": "https://www.yelp.com/biz/pita-jungle-peoria-2?adjust_creative=a2JdNtFqB-C38ga_06BHvw&utm_campaign=yelp_api_v3&utm_medium=api_v3_business_search&utm_source=a2JdNtFqB-C38ga_06BHvw", "review_count": 50, "categories": [{"alias": "mediterranean", "title": "Mediterranean"}, {"alias": "newamerican", "title": "American (New)"}], "rating": 3.5, "coordinates": {"latitude": 33.5515349, "longitude": -112.2710365}, "transactions": ["delivery", "pickup"], "location": {"address1": "9792 W Northern Ave", "address2": "Ste B1600", "address3": null, "city": "Peoria", "zip_code": "85345", "country": "US", "state": "AZ", "display_address": ["9792 W Northern Ave", "Ste B1600", "Peoria, AZ 85345"]}, "phone": "+16233287429", "display_phone": "(623) 328-7429", "distance": 2285.7857535522935}, {"id": "CbQi4CT48sY14l7BEY5GgQ", "alias": "caramba-mexican-food-glendale-4", "name": "Caramba Mexican Food", "image_url": "https://s3-media1.fl.yelpcdn.com/bphoto/ZAT9or8LjzhbA-s7gEQP8w/o.jpg", "is_closed": false, "url": "https://www.yelp.com/biz/caramba-mexican-food-glendale-4?adjust_creative=a2JdNtFqB-C38ga_06BHvw&utm_campaign=yelp_api_v3&utm_medium=api_v3_business_search&utm_source=a2JdNtFqB-C38ga_06BHvw", "review_count": 29, "categories": [{"alias": "mexican", "title": "Mexican"}], "rating": 4.0, "coordinates": {"latitude": 33.5371695, "longitude": -112.2626572}, "transactions": ["delivery", "pickup"], "location": {"address1": "9455 W Glendale Ave", "address2": null, "address3": "", "city": "Glendale", "zip_code": "85305", "country": "US", "state": "AZ", "display_address": ["9455 W Glendale Ave", "Glendale, AZ 85305"]}, "phone": "+16239794444", "display_phone": "(623) 979-4444", "distance": 516.583292701598}, {"id": "j81gE7OU9gh53SMCHvYeHg", "alias": "fat-tuesday-glendale", "name": "Fat Tuesday", "image_url": "https://s3-media2.fl.yelpcdn.com/bphoto/V8HGOvFZa-fcFmArFjqp6Q/o.jpg", "is_closed": false, "url": "https://www.yelp.com/biz/fat-tuesday-glendale?adjust_creative=a2JdNtFqB-C38ga_06BHvw&utm_campaign=yelp_api_v3&utm_medium=api_v3_business_search&utm_source=a2JdNtFqB-C38ga_06BHvw", "review_count": 78, "categories": [{"alias": "bars", "title": "Bars"}, {"alias": "newamerican", "title": "American (New)"}], "rating": 3.5, "coordinates": {"latitude": 33.53338, "longitude": -112.26184502}, "transactions": [], "price": "$$", "location": {"address1": "6751 N Sunset Blvd", "address2": "Unit E113", "address3": "", "city": "Glendale", "zip_code": "85305", "country": "US", "state": "AZ", "display_address": ["6751 N Sunset Blvd", "Unit E113", "Glendale, AZ 85305"]}, "phone": "+16232302509", "display_phone": "(623) 230-2509", "distance": 134.17975977896086}, {"id": "6OTrieRJHfLkyOk0F9eLDQ", "alias": "salt-tacos-y-tequila-glendale-3", "name": "Salt Tacos y Tequila", "image_url": "https://s3-media4.fl.yelpcdn.com/bphoto/TI3Zh2WPKYoOci5ldoyyVQ/o.jpg", "is_closed": false, "url": "https://www.yelp.com/biz/salt-tacos-y-tequila-glendale-3?adjust_creative=a2JdNtFqB-C38ga_06BHvw&utm_campaign=yelp_api_v3&utm_medium=api_v3_business_search&utm_source=a2JdNtFqB-C38ga_06BHvw", "review_count": 506, "categories": [{"alias": "mexican", "title": "Mexican"}, {"alias": "cocktailbars", "title": "Cocktail Bars"}], "rating": 3.0, "coordinates": {"latitude": 33.5336201, "longitude": -112.2615702}, "transactions": ["delivery", "pickup"], "price": "$$", "location": {"address1": "6751 N Sunset Blvd", "address2": "Ste E109", "address3": null, "city": "Glendale", "zip_code": "85305", "country": "US", "state": "AZ", "display_address": ["6751 N Sunset Blvd", "Ste E109", "Glendale, AZ 85305"]}, "phone": "+16237727282", "display_phone": "(623) 772-7282", "distance": 152.62423717185777}, {"id": "UcUUzTAB711U09k8h4E_ZQ", "alias": "cold-beers-and-cheeseburgers-peoria", "name": "Cold Beers & Cheeseburgers", "image_url": "https://s3-media1.fl.yelpcdn.com/bphoto/hAGbjJOD-m7TWsStyX5xIA/o.jpg", "is_closed": false, "url": "https://www.yelp.com/biz/cold-beers-and-cheeseburgers-peoria?adjust_creative=a2JdNtFqB-C38ga_06BHvw&utm_campaign=yelp_api_v3&utm_medium=api_v3_business_search&utm_source=a2JdNtFqB-C38ga_06BHvw", "review_count": 197, "categories": [{"alias": "tradamerican", "title": "American (Traditional)"}, {"alias": "burgers", "title": "Burgers"}, {"alias": "sportsbars", "title": "Sports Bars"}], "rating": 3.0, "coordinates": {"latitude": 33.5534429, "longitude": -112.2707684}, "transactions": ["delivery", "pickup"], "price": "$$", "location": {"address1": "9828 W Northern Ave", "address2": "Ste 1700", "address3": null, "city": "Peoria", "zip_code": "85345", "country": "US", "state": "AZ", "display_address": ["9828 W Northern Ave", "Ste 1700", "Peoria, AZ 85345"]}, "phone": "+16232335490", "display_phone": "(623) 233-5490", "distance": 2513.28694676845}, {"id": "BK0dlUDKwN_gwSQb8ScyRw", "alias": "taqueria-el-sol-glendale", "name": "Taqueria El Sol", "image_url": "https://s3-media4.fl.yelpcdn.com/bphoto/YEjP6v414H02GFYj65uZ7A/o.jpg", "is_closed": false, "url": "https://www.yelp.com/biz/taqueria-el-sol-glendale?adjust_creative=a2JdNtFqB-C38ga_06BHvw&utm_campaign=yelp_api_v3&utm_medium=api_v3_business_search&utm_source=a2JdNtFqB-C38ga_06BHvw", "review_count": 8, "categories": [{"alias": "foodtrucks", "title": "Food Trucks"}, {"alias": "tacos", "title": "Tacos"}, {"alias": "tex-mex", "title": "Tex-Mex"}], "rating": 5.0, "coordinates": {"latitude": 33.538024, "longitude": -112.2383551}, "transactions": [], "location": {"address1": "8302 W Glendale Ave", "address2": "", "address3": null, "city": "Glendale", "zip_code": "85305", "country": "US", "state": "AZ", "display_address": ["8302 W Glendale Ave", "Glendale, AZ 85305"]}, "phone": "+16024569685", "display_phone": "(602) 456-9685", "distance": 2219.0908300580777}, {"id": "KkcwhafEaWAu3sHGJqLKZw", "alias": "ikes-love-and-sandwiches-glendale", "name": "Ike's Love and Sandwiches", "image_url": "https://s3-media3.fl.yelpcdn.com/bphoto/T82f9uMsuTCf9B0vSAmWFw/o.jpg", "is_closed": false, "url": "https://www.yelp.com/biz/ikes-love-and-sandwiches-glendale?adjust_creative=a2JdNtFqB-C38ga_06BHvw&utm_campaign=yelp_api_v3&utm_medium=api_v3_business_search&utm_source=a2JdNtFqB-C38ga_06BHvw", "review_count": 17, "categories": [{"alias": "sandwiches", "title": "Sandwiches"}], "rating": 4.0, "coordinates": {"latitude": 33.534628, "longitude": -112.26199}, "transactions": ["delivery", "pickup"], "location": {"address1": "9404 W Westgate Blvd", "address2": "Ste C-102", "address3": "", "city": "Glendale", "zip_code": "85305", "country": "US", "state": "AZ", "display_address": ["9404 W Westgate Blvd", "Ste C-102", "Glendale, AZ 85305"]}, "phone": "+16232637200", "display_phone": "(623) 263-7200", "distance": 254.81983167124287}, {"id": "hJYt2CbKPIxSEpGvK1Z3CA", "alias": "the-101-nutrition-phoenix-5", "name": "The 101 Nutrition", "image_url": "https://s3-media2.fl.yelpcdn.com/bphoto/n3Wn1vPHiI7_sh_xZ7MiRg/o.jpg", "is_closed": false, "url": "https://www.yelp.com/biz/the-101-nutrition-phoenix-5?adjust_creative=a2JdNtFqB-C38ga_06BHvw&utm_campaign=yelp_api_v3&utm_medium=api_v3_business_search&utm_source=a2JdNtFqB-C38ga_06BHvw", "review_count": 7, "categories": [{"alias": "juicebars", "title": "Juice Bars & Smoothies"}, {"alias": "coffee", "title": "Coffee & Tea"}, {"alias": "waffles", "title": "Waffles"}], "rating": 5.0, "coordinates": {"latitude": 33.509871, "longitude": -112.27333}, "transactions": [], "location": {"address1": "5100 N 99th Ave", "address2": "Ste 105", "address3": "", "city": "Phoenix", "zip_code": "85307", "country": "US", "state": "AZ", "display_address": ["5100 N 99th Ave", "Ste 105", "Phoenix, AZ 85307"]}, "phone": "+16022453373", "display_phone": "(602) 245-3373", "distance": 2730.645702316479}, {"id": "RhcWq78faX-jmmKwVE35ow", "alias": "shanes-rib-shack-glendale", "name": "Shane's Rib Shack", "image_url": "https://s3-media4.fl.yelpcdn.com/bphoto/eODif5QScvjtur73b2DcXw/o.jpg", "is_closed": false, "url": "https://www.yelp.com/biz/shanes-rib-shack-glendale?adjust_creative=a2JdNtFqB-C38ga_06BHvw&utm_campaign=yelp_api_v3&utm_medium=api_v3_business_search&utm_source=a2JdNtFqB-C38ga_06BHvw", "review_count": 238, "categories": [{"alias": "bbq", "title": "Barbeque"}, {"alias": "southern", "title": "Southern"}], "rating": 3.0, "coordinates": {"latitude": 33.53455967, "longitude": -112.26183533}, "transactions": ["delivery", "pickup"], "price": "$$", "location": {"address1": "9404 West Westgate Blvd", "address2": "Ste C-101", "address3": "", "city": "Glendale", "zip_code": "85305", "country": "US", "state": "AZ", "display_address": ["9404 West Westgate Blvd", "Ste C-101", "Glendale, AZ 85305"]}, "phone": "+16238777427", "display_phone": "(623) 877-7427", "distance": 254.81983167124287}, {"id": "AUHtMlJ04pzmB9X_fn0Vtg", "alias": "quiktrip-glendale-3", "name": "QuikTrip", "image_url": "https://s3-media2.fl.yelpcdn.com/bphoto/x54ybH4SjJTN0DJkzTw7Ig/o.jpg", "is_closed": false, "url": "https://www.yelp.com/biz/quiktrip-glendale-3?adjust_creative=a2JdNtFqB-C38ga_06BHvw&utm_campaign=yelp_api_v3&utm_medium=api_v3_business_search&utm_source=a2JdNtFqB-C38ga_06BHvw", "review_count": 21, "categories": [{"alias": "convenience", "title": "Convenience Stores"}, {"alias": "servicestations", "title": "Gas Stations"}, {"alias": "hotdogs", "title": "Fast Food"}], "rating": 4.0, "coordinates": {"latitude": 33.508999026136, "longitude": -112.273355012239}, "transactions": [], "price": "$", "location": {"address1": "9910 W Camelback rd", "address2": "", "address3": "", "city": "Glendale", "zip_code": "85307", "country": "US", "state": "AZ", "display_address": ["9910 W Camelback rd", "Glendale, AZ 85307"]}, "phone": "+16238721044", "display_phone": "(623) 872-1044", "distance": 2819.247160983686}, {"id": "uviRod6UijxnbOBaztFhcw", "alias": "olive-garden-italian-restaurant-glendale-7", "name": "Olive Garden Italian Restaurant", "image_url": "https://s3-media1.fl.yelpcdn.com/bphoto/UMrZL5MJ7kPda2HoDNECLA/o.jpg", "is_closed": false, "url": "https://www.yelp.com/biz/olive-garden-italian-restaurant-glendale-7?adjust_creative=a2JdNtFqB-C38ga_06BHvw&utm_campaign=yelp_api_v3&utm_medium=api_v3_business_search&utm_source=a2JdNtFqB-C38ga_06BHvw", "review_count": 79, "categories": [{"alias": "italian", "title": "Italian"}, {"alias": "salad", "title": "Salad"}, {"alias": "soup", "title": "Soup"}], "rating": 3.5, "coordinates": {"latitude": 33.536778, "longitude": -112.264591}, "transactions": [], "price": "$$", "location": {"address1": "6970 N 95th Ave", "address2": "", "address3": null, "city": "Glendale", "zip_code": "85305", "country": "US", "state": "AZ", "display_address": ["6970 N 95th Ave", "Glendale, AZ 85305"]}, "phone": "+16238720003", "display_phone": "(623) 872-0003", "distance": 587.8420064441367}, {"id": "6rl2DTYflL0t1_oL4KudYw", "alias": "streets-of-new-york-peoria-3", "name": "Streets of New York", "image_url": "https://s3-media3.fl.yelpcdn.com/bphoto/9OFuFR082uqa3zNavRHvWQ/o.jpg", "is_closed": false, "url": "https://www.yelp.com/biz/streets-of-new-york-peoria-3?adjust_creative=a2JdNtFqB-C38ga_06BHvw&utm_campaign=yelp_api_v3&utm_medium=api_v3_business_search&utm_source=a2JdNtFqB-C38ga_06BHvw", "review_count": 119, "categories": [{"alias": "pizza", "title": "Pizza"}, {"alias": "italian", "title": "Italian"}, {"alias": "sandwiches", "title": "Sandwiches"}], "rating": 3.0, "coordinates": {"latitude": 33.5526044117366, "longitude": -112.258286084656}, "transactions": ["delivery", "pickup"], "price": "$$", "location": {"address1": "9240 W Northern Ave", "address2": "", "address3": null, "city": "Peoria", "zip_code": "85345", "country": "US", "state": "AZ", "display_address": ["9240 W Northern Ave", "Peoria, AZ 85345"]}, "phone": "+16238779121", "display_phone": "(623) 877-9121", "distance": 2278.1527335272876}, {"id": "tJITTrheGN4ZZ25xMqWwnA", "alias": "village-inn-glendale-7", "name": "Village Inn", "image_url": "https://s3-media2.fl.yelpcdn.com/bphoto/Dsa7egsAnfCasIjZS-Nkyg/o.jpg", "is_closed": false, "url": "https://www.yelp.com/biz/village-inn-glendale-7?adjust_creative=a2JdNtFqB-C38ga_06BHvw&utm_campaign=yelp_api_v3&utm_medium=api_v3_business_search&utm_source=a2JdNtFqB-C38ga_06BHvw", "review_count": 99, "categories": [{"alias": "breakfast_brunch", "title": "Breakfast & Brunch"}, {"alias": "tradamerican", "title": "American (Traditional)"}, {"alias": "diners", "title": "Diners"}], "rating": 3.0, "coordinates": {"latitude": 33.552116394043, "longitude": -112.262184143066}, "transactions": ["delivery", "pickup"], "price": "$$", "location": {"address1": "9490 W Northern Ave", "address2": "", "address3": "", "city": "Glendale", "zip_code": "85305", "country": "US", "state": "AZ", "display_address": ["9490 W Northern Ave", "Glendale, AZ 85305"]}, "phone": "+16237726600", "display_phone": "(623) 772-6600", "distance": 2221.561113214783}, {"id": "6nAr3xXYnZ_GzoY85Za6Jw", "alias": "peoria-pines-golf-and-restaurant-peoria-5", "name": "Peoria Pines Golf & Restaurant", "image_url": "https://s3-media3.fl.yelpcdn.com/bphoto/dyxopjVj0agfX7PEUUYdUg/o.jpg", "is_closed": false, "url": "https://www.yelp.com/biz/peoria-pines-golf-and-restaurant-peoria-5?adjust_creative=a2JdNtFqB-C38ga_06BHvw&utm_campaign=yelp_api_v3&utm_medium=api_v3_business_search&utm_source=a2JdNtFqB-C38ga_06BHvw", "review_count": 23, "categories": [{"alias": "tradamerican", "title": "American (Traditional)"}, {"alias": "sportsbars", "title": "Sports Bars"}, {"alias": "venues", "title": "Venues & Event Spaces"}], "rating": 3.5, "coordinates": {"latitude": 33.55614, "longitude": -112.28876}, "transactions": [], "price": "$$", "location": {"address1": "8411 N 107th Ave", "address2": "", "address3": "", "city": "Peoria", "zip_code": "85345", "country": "US", "state": "AZ", "display_address": ["8411 N 107th Ave", "Peoria, AZ 85345"]}, "phone": "+16239721364", "display_phone": "(623) 972-1364", "distance": 3662.3322866317017}, {"id": "te5yQQTQYcHHtztdQJTmNw", "alias": "culvers-glendale", "name": "Culver's", "image_url": "https://s3-media1.fl.yelpcdn.com/bphoto/C3vxeWD54_XD9zxABD65NA/o.jpg", "is_closed": false, "url": "https://www.yelp.com/biz/culvers-glendale?adjust_creative=a2JdNtFqB-C38ga_06BHvw&utm_campaign=yelp_api_v3&utm_medium=api_v3_business_search&utm_source=a2JdNtFqB-C38ga_06BHvw", "review_count": 104, "categories": [{"alias": "hotdogs", "title": "Fast Food"}, {"alias": "burgers", "title": "Burgers"}, {"alias": "icecream", "title": "Ice Cream & Frozen Yogurt"}], "rating": 3.0, "coordinates": {"latitude": 33.5094440409823, "longitude": -112.271832427509}, "transactions": [], "price": "$", "location": {"address1": "5127 N 99th Ave", "address2": "", "address3": "", "city": "Glendale", "zip_code": "85305", "country": "US", "state": "AZ", "display_address": ["5127 N 99th Ave", "Glendale, AZ 85305"]}, "phone": "+16233289282", "display_phone": "(623) 328-9282", "distance": 2720.009860316405}, {"id": "qx4_jnt86x-GQxppdT7YgA", "alias": "quiznos-glendale-9", "name": "Quiznos", "image_url": "https://s3-media1.fl.yelpcdn.com/bphoto/PIBqrm3gGqwJ_2HTTm9y5g/o.jpg", "is_closed": false, "url": "https://www.yelp.com/biz/quiznos-glendale-9?adjust_creative=a2JdNtFqB-C38ga_06BHvw&utm_campaign=yelp_api_v3&utm_medium=api_v3_business_search&utm_source=a2JdNtFqB-C38ga_06BHvw", "review_count": 30, "categories": [{"alias": "sandwiches", "title": "Sandwiches"}, {"alias": "delis", "title": "Delis"}], "rating": 3.5, "coordinates": {"latitude": 33.55215, "longitude": -112.25791}, "transactions": ["delivery", "pickup"], "price": "$", "location": {"address1": "9230 W Northern Ave Ste 107", "address2": "Ste 107", "address3": "", "city": "Glendale", "zip_code": "85305", "country": "US", "state": "AZ", "display_address": ["9230 W Northern Ave Ste 107", "Ste 107", "Glendale, AZ 85305"]}, "phone": "+16237720220", "display_phone": "(623) 772-0220", "distance": 2245.4928358653506}, {"id": "fuQpzuHPLt8pnJ49j74qCQ", "alias": "el-sabor-de-la-familia-glendale", "name": "El Sabor de la Familia", "image_url": "https://s3-media3.fl.yelpcdn.com/bphoto/6lb235opZ_OIfBHkpAZNkQ/o.jpg", "is_closed": false, "url": "https://www.yelp.com/biz/el-sabor-de-la-familia-glendale?adjust_creative=a2JdNtFqB-C38ga_06BHvw&utm_campaign=yelp_api_v3&utm_medium=api_v3_business_search&utm_source=a2JdNtFqB-C38ga_06BHvw", "review_count": 35, "categories": [{"alias": "mexican", "title": "Mexican"}], "rating": 3.5, "coordinates": {"latitude": 33.5371143136914, "longitude": -112.239370564336}, "transactions": ["delivery"], "price": "$", "location": {"address1": "8345 W Glendale Ave", "address2": "Ste 105", "address3": null, "city": "Glendale", "zip_code": "85305", "country": "US", "state": "AZ", "display_address": ["8345 W Glendale Ave", "Ste 105", "Glendale, AZ 85305"]}, "phone": "+16237720387", "display_phone": "(623) 772-0387", "distance": 2100.9674014875122}, {"id": "JuPngDeQHVgBLH-VIET_ag", "alias": "native-grill-and-wings-glendale-4", "name": "Native Grill & Wings", "image_url": "https://s3-media1.fl.yelpcdn.com/bphoto/11GYP86bDCmSf2vHxnJ69Q/o.jpg", "is_closed": false, "url": "https://www.yelp.com/biz/native-grill-and-wings-glendale-4?adjust_creative=a2JdNtFqB-C38ga_06BHvw&utm_campaign=yelp_api_v3&utm_medium=api_v3_business_search&utm_source=a2JdNtFqB-C38ga_06BHvw", "review_count": 276, "categories": [{"alias": "sportsbars", "title": "Sports Bars"}, {"alias": "chicken_wings", "title": "Chicken Wings"}, {"alias": "newamerican", "title": "American (New)"}], "rating": 2.5, "coordinates": {"latitude": 33.54061, "longitude": -112.26311}, "transactions": ["delivery", "pickup"], "price": "$$", "location": {"address1": "7273 N 95th Ave", "address2": "", "address3": "", "city": "Glendale", "zip_code": "85305", "country": "US", "state": "AZ", "display_address": ["7273 N 95th Ave", "Glendale, AZ 85305"]}, "phone": "+16238774500", "display_phone": "(623) 877-4500", "distance": 940.267135303651}, {"id": "FHWI6EOBYbB4qBirHZo5AQ", "alias": "ono-hawaiian-bbq-peoria-3", "name": "Ono Hawaiian BBQ", "image_url": "https://s3-media1.fl.yelpcdn.com/bphoto/0HRGyT0c9AVPGlITWZZfGA/o.jpg", "is_closed": false, "url": "https://www.yelp.com/biz/ono-hawaiian-bbq-peoria-3?adjust_creative=a2JdNtFqB-C38ga_06BHvw&utm_campaign=yelp_api_v3&utm_medium=api_v3_business_search&utm_source=a2JdNtFqB-C38ga_06BHvw", "review_count": 59, "categories": [{"alias": "hawaiian", "title": "Hawaiian"}, {"alias": "bbq", "title": "Barbeque"}], "rating": 3.0, "coordinates": {"latitude": 33.5521645466054, "longitude": -112.257627237076}, "transactions": ["delivery"], "price": "$$", "location": {"address1": "9230 West Northern Ave", "address2": "Ste 109", "address3": null, "city": "Peoria", "zip_code": "85305", "country": "US", "state": "AZ", "display_address": ["9230 West Northern Ave", "Ste 109", "Peoria, AZ 85305"]}, "phone": "+16238727788", "display_phone": "(623) 872-7788", "distance": 2238.0333614122587}, {"id": "sHiuGPBPjTVz0oMAnraj9Q", "alias": "soleil-glendale", "name": "Soleil", "image_url": "https://s3-media3.fl.yelpcdn.com/bphoto/G7K9Oql-cwujlZWSdq7rsw/o.jpg", "is_closed": false, "url": "https://www.yelp.com/biz/soleil-glendale?adjust_creative=a2JdNtFqB-C38ga_06BHvw&utm_campaign=yelp_api_v3&utm_medium=api_v3_business_search&utm_source=a2JdNtFqB-C38ga_06BHvw", "review_count": 18, "categories": [{"alias": "tex-mex", "title": "Tex-Mex"}], "rating": 3.5, "coordinates": {"latitude": 33.53244, "longitude": -112.26366}, "transactions": ["delivery"], "price": "$$", "location": {"address1": "9495 W Coyotes Blvd", "address2": "", "address3": "", "city": "Glendale", "zip_code": "85305", "country": "US", "state": "AZ", "display_address": ["9495 W Coyotes Blvd", "Glendale, AZ 85305"]}, "phone": "+16239373700", "display_phone": "(623) 937-3700", "distance": 214.24996052425539}, {"id": "AkLslZ2ZnURpY37Xtfnu-Q", "alias": "state-48-funk-house-glendale", "name": "State 48 Funk House", "image_url": "https://s3-media1.fl.yelpcdn.com/bphoto/cmg6DMY0D-mYkHoJGNe_Mg/o.jpg", "is_closed": false, "url": "https://www.yelp.com/biz/state-48-funk-house-glendale?adjust_creative=a2JdNtFqB-C38ga_06BHvw&utm_campaign=yelp_api_v3&utm_medium=api_v3_business_search&utm_source=a2JdNtFqB-C38ga_06BHvw", "review_count": 208, "categories": [{"alias": "breweries", "title": "Breweries"}, {"alias": "bowling", "title": "Bowling"}, {"alias": "tradamerican", "title": "American (Traditional)"}], "rating": 2.5, "coordinates": {"latitude": 33.5336799, "longitude": -112.26062}, "transactions": ["delivery", "pickup"], "price": "$$", "location": {"address1": "6770 N Sunrise Blvd", "address2": "Ste 100", "address3": "", "city": "Glendale", "zip_code": "85305", "country": "US", "state": "AZ", "display_address": ["6770 N Sunrise Blvd", "Ste 100", "Glendale, AZ 85305"]}, "phone": "+16238774448", "display_phone": "(623) 877-4448", "distance": 87.72465096765887}, {"id": "aHcoN3d1Zqfft8tWQElVCQ", "alias": "la-michoacana-plus-glendale-glendale-2", "name": "La Michoacana Plus - Glendale", "image_url": "https://s3-media2.fl.yelpcdn.com/bphoto/7aQUl0GAfIn_71b2c5w_cw/o.jpg", "is_closed": false, "url": "https://www.yelp.com/biz/la-michoacana-plus-glendale-glendale-2?adjust_creative=a2JdNtFqB-C38ga_06BHvw&utm_campaign=yelp_api_v3&utm_medium=api_v3_business_search&utm_source=a2JdNtFqB-C38ga_06BHvw", "review_count": 12, "categories": [{"alias": "icecream", "title": "Ice Cream & Frozen Yogurt"}, {"alias": "mexican", "title": "Mexican"}], "rating": 4.0, "coordinates": {"latitude": 33.511366939839085, "longitude": -112.2669496}, "transactions": ["delivery", "pickup"], "location": {"address1": "5122 N 95th Ave", "address2": "Ste 140", "address3": "", "city": "Glendale", "zip_code": "85305", "country": "US", "state": "AZ", "display_address": ["5122 N 95th Ave", "Ste 140", "Glendale, AZ 85305"]}, "phone": "+16233411178", "display_phone": "(623) 341-1178", "distance": 2382.8839659668815}, {"id": "aZshH0IfszzZyXkoVLPVuw", "alias": "jimmy-johns-phoenix-17", "name": "Jimmy John's", "image_url": "https://s3-media2.fl.yelpcdn.com/bphoto/FBeXYwaFXVSmSTtdOh_pKQ/o.jpg", "is_closed": false, "url": "https://www.yelp.com/biz/jimmy-johns-phoenix-17?adjust_creative=a2JdNtFqB-C38ga_06BHvw&utm_campaign=yelp_api_v3&utm_medium=api_v3_business_search&utm_source=a2JdNtFqB-C38ga_06BHvw", "review_count": 57, "categories": [{"alias": "sandwiches", "title": "Sandwiches"}, {"alias": "hotdogs", "title": "Fast Food"}, {"alias": "delis", "title": "Delis"}], "rating": 3.0, "coordinates": {"latitude": 33.5075278, "longitude": -112.277102}, "transactions": [], "price": "$", "location": {"address1": "10045 W Camelback Rd", "address2": "Ste 101", "address3": "", "city": "Phoenix", "zip_code": "85037", "country": "US", "state": "AZ", "display_address": ["10045 W Camelback Rd", "Ste 101", "Phoenix, AZ 85037"]}, "phone": "+16238722910", "display_phone": "(623) 872-2910", "distance": 3117.6646283454497}, {"id": "MatGnwADyILP8utonlTWDg", "alias": "dave-and-busters-glendale", "name": "Dave & Buster's", "image_url": "https://s3-media3.fl.yelpcdn.com/bphoto/eiQsj3HkpuyMTNUGFLx5cg/o.jpg", "is_closed": false, "url": "https://www.yelp.com/biz/dave-and-busters-glendale?adjust_creative=a2JdNtFqB-C38ga_06BHvw&utm_campaign=yelp_api_v3&utm_medium=api_v3_business_search&utm_source=a2JdNtFqB-C38ga_06BHvw", "review_count": 324, "categories": [{"alias": "bars", "title": "Bars"}, {"alias": "tradamerican", "title": "American (Traditional)"}, {"alias": "arcades", "title": "Arcades"}], "rating": 2.5, "coordinates": {"latitude": 33.535117, "longitude": -112.262551}, "transactions": ["delivery"], "price": "$$", "location": {"address1": "9460 W Hanna Dr", "address2": "", "address3": "", "city": "Glendale", "zip_code": "85305", "country": "US", "state": "AZ", "display_address": ["9460 W Hanna Dr", "Glendale, AZ 85305"]}, "phone": "+16237597800", "display_phone": "(623) 759-7800", "distance": 337.88497179507243}, {"id": "1nhPU1FP-yrI_9UufQQcQg", "alias": "nestle-toll-house-cafe-by-chip-glendale", "name": "Nestle Toll House Cafe by Chip", "image_url": "https://s3-media2.fl.yelpcdn.com/bphoto/OAU1_ly96GI3r6iR7-y80g/o.jpg", "is_closed": false, "url": "https://www.yelp.com/biz/nestle-toll-house-cafe-by-chip-glendale?adjust_creative=a2JdNtFqB-C38ga_06BHvw&utm_campaign=yelp_api_v3&utm_medium=api_v3_business_search&utm_source=a2JdNtFqB-C38ga_06BHvw", "review_count": 47, "categories": [{"alias": "desserts", "title": "Desserts"}, {"alias": "bakeries", "title": "Bakeries"}, {"alias": "cafes", "title": "Cafes"}], "rating": 3.0, "coordinates": {"latitude": 33.5354875686504, "longitude": -112.267248347064}, "transactions": ["delivery", "pickup"], "price": "$", "location": {"address1": "6800 N 95th Ave", "address2": "Ste 760", "address3": "", "city": "Glendale", "zip_code": "85305", "country": "US", "state": "AZ", "display_address": ["6800 N 95th Ave", "Ste 760", "Glendale, AZ 85305"]}, "phone": "+16238727676", "display_phone": "(623) 872-7676", "distance": 658.8657944499554}, {"id": "KkXSMj3XWTAHPoGu6l5RyQ", "alias": "voodoo-dogs-mobile-cart-peoria", "name": "Voodoo Dogs Mobile Cart", "image_url": "https://s3-media4.fl.yelpcdn.com/bphoto/64TwcDQGZ8jOFIwq6S58XA/o.jpg", "is_closed": false, "url": "https://www.yelp.com/biz/voodoo-dogs-mobile-cart-peoria?adjust_creative=a2JdNtFqB-C38ga_06BHvw&utm_campaign=yelp_api_v3&utm_medium=api_v3_business_search&utm_source=a2JdNtFqB-C38ga_06BHvw", "review_count": 13, "categories": [{"alias": "hotdog", "title": "Hot Dogs"}, {"alias": "foodstands", "title": "Food Stands"}], "rating": 3.5, "coordinates": {"latitude": 33.5522592009565, "longitude": -112.268813802752}, "transactions": [], "price": "$", "location": {"address1": "", "address2": "", "address3": "", "city": "Peoria", "zip_code": "85345", "country": "US", "state": "AZ", "display_address": ["Peoria, AZ 85345"]}, "phone": "+16024484848", "display_phone": "(602) 448-4848", "distance": 2329.8887528080204}, {"id": "Gy8czGp_4bVXniCp4Qn-LQ", "alias": "winners-sports-bar-glendale", "name": "Winners Sports Bar", "image_url": "https://s3-media1.fl.yelpcdn.com/bphoto/WzMOTmQemzZTPgu5a9qR7Q/o.jpg", "is_closed": false, "url": "https://www.yelp.com/biz/winners-sports-bar-glendale?adjust_creative=a2JdNtFqB-C38ga_06BHvw&utm_campaign=yelp_api_v3&utm_medium=api_v3_business_search&utm_source=a2JdNtFqB-C38ga_06BHvw", "review_count": 9, "categories": [{"alias": "sportsbars", "title": "Sports Bars"}, {"alias": "pubs", "title": "Pubs"}, {"alias": "restaurants", "title": "Restaurants"}], "rating": 4.0, "coordinates": {"latitude": 33.54651, "longitude": -112.261278}, "transactions": [], "location": {"address1": "9431 W Northern Ave", "address2": null, "address3": "Desert Diamond Casino", "city": "Glendale", "zip_code": "85305", "country": "US", "state": "AZ", "display_address": ["9431 W Northern Ave", "Desert Diamond Casino", "Glendale, AZ 85305"]}, "phone": "+18333322946", "display_phone": "(833) 332-2946", "distance": 1583.5252049038745}, {"id": "RYzJr_ZeSCLaAW6TBR86zQ", "alias": "del-taco-glendale-3", "name": "Del Taco", "image_url": "https://s3-media4.fl.yelpcdn.com/bphoto/FG2korBBiYtC6MJqIRFwQQ/o.jpg", "is_closed": false, "url": "https://www.yelp.com/biz/del-taco-glendale-3?adjust_creative=a2JdNtFqB-C38ga_06BHvw&utm_campaign=yelp_api_v3&utm_medium=api_v3_business_search&utm_source=a2JdNtFqB-C38ga_06BHvw", "review_count": 24, "categories": [{"alias": "mexican", "title": "Mexican"}], "rating": 3.0, "coordinates": {"latitude": 33.5089, "longitude": -112.26558}, "transactions": ["delivery"], "price": "$", "location": {"address1": "9672 W Camelback Rd", "address2": "", "address3": "", "city": "Glendale", "zip_code": "85305", "country": "US", "state": "AZ", "display_address": ["9672 W Camelback Rd", "Glendale, AZ 85305"]}, "phone": "+16237727790", "display_phone": "(623) 772-7790", "distance": 2625.007541360563}, {"id": "RbUxqrKzljueFkJJPDnJpw", "alias": "hot-pot-for-days-glendale-2", "name": "Hot Pot For Days", "image_url": "https://s3-media1.fl.yelpcdn.com/bphoto/4dy-EvM7EMtEDLTggL4cdQ/o.jpg", "is_closed": false, "url": "https://www.yelp.com/biz/hot-pot-for-days-glendale-2?adjust_creative=a2JdNtFqB-C38ga_06BHvw&utm_campaign=yelp_api_v3&utm_medium=api_v3_business_search&utm_source=a2JdNtFqB-C38ga_06BHvw", "review_count": 29, "categories": [{"alias": "soup", "title": "Soup"}], "rating": 3.0, "coordinates": {"latitude": 33.552696, "longitude": -112.258954}, "transactions": ["restaurant_reservation"], "location": {"address1": "9284 W Northern Ave", "address2": null, "address3": null, "city": "Glendale", "zip_code": "85305", "country": "US", "state": "AZ", "display_address": ["9284 W Northern Ave", "Glendale, AZ 85305"]}, "phone": "+16238779492", "display_phone": "(623) 877-9492", "distance": 2285.054307508977}, {"id": "G1VB3lFBe99GkC5NKA8qVw", "alias": "chipotle-mexican-grill-glendale-6", "name": "Chipotle Mexican Grill", "image_url": "https://s3-media3.fl.yelpcdn.com/bphoto/mTjrkH8DdMKAW4rsShFVfw/o.jpg", "is_closed": false, "url": "https://www.yelp.com/biz/chipotle-mexican-grill-glendale-6?adjust_creative=a2JdNtFqB-C38ga_06BHvw&utm_campaign=yelp_api_v3&utm_medium=api_v3_business_search&utm_source=a2JdNtFqB-C38ga_06BHvw", "review_count": 96, "categories": [{"alias": "mexican", "title": "Mexican"}, {"alias": "hotdogs", "title": "Fast Food"}], "rating": 2.5, "coordinates": {"latitude": 33.5350856780217, "longitude": -112.261951469014}, "transactions": ["delivery"], "price": "$", "location": {"address1": "9410 W Hanna Ln", "address2": "Ste A101", "address3": "", "city": "Glendale", "zip_code": "85305", "country": "US", "state": "AZ", "display_address": ["9410 W Hanna Ln", "Ste A101", "Glendale, AZ 85305"]}, "phone": "+16232011758", "display_phone": "(623) 201-1758", "distance": 319.32373302912407}, {"id": "A2tzlbR-DFD0qXrVNOtE8w", "alias": "jersey-mikes-subs-glendale-5", "name": "Jersey Mike's Subs", "image_url": "https://s3-media3.fl.yelpcdn.com/bphoto/y-fTiB6G_eb4HVtQ-oJqEw/o.jpg", "is_closed": false, "url": "https://www.yelp.com/biz/jersey-mikes-subs-glendale-5?adjust_creative=a2JdNtFqB-C38ga_06BHvw&utm_campaign=yelp_api_v3&utm_medium=api_v3_business_search&utm_source=a2JdNtFqB-C38ga_06BHvw", "review_count": 22, "categories": [{"alias": "sandwiches", "title": "Sandwiches"}, {"alias": "delis", "title": "Delis"}, {"alias": "hotdogs", "title": "Fast Food"}], "rating": 3.0, "coordinates": {"latitude": 33.536822, "longitude": -112.262654}, "transactions": ["delivery", "pickup"], "location": {"address1": "9455 West Glendale Ave", "address2": "Ste 130", "address3": null, "city": "Glendale", "zip_code": "85305", "country": "US", "state": "AZ", "display_address": ["9455 West Glendale Ave", "Ste 130", "Glendale, AZ 85305"]}, "phone": "+16238770012", "display_phone": "(623) 877-0012", "distance": 522.0418375176479}, {"id": "zhVBjwPQoT9ObW5vg8Znkw", "alias": "nuovo-giorno-italian-bistro-glendale-2", "name": "Nuovo Giorno Italian Bistro", "image_url": "https://s3-media1.fl.yelpcdn.com/bphoto/7MxQIh0Rt5DIJaBd64ugSw/o.jpg", "is_closed": false, "url": "https://www.yelp.com/biz/nuovo-giorno-italian-bistro-glendale-2?adjust_creative=a2JdNtFqB-C38ga_06BHvw&utm_campaign=yelp_api_v3&utm_medium=api_v3_business_search&utm_source=a2JdNtFqB-C38ga_06BHvw", "review_count": 5, "categories": [{"alias": "italian", "title": "Italian"}], "rating": 4.5, "coordinates": {"latitude": 33.546492, "longitude": -112.260835}, "transactions": [], "location": {"address1": "9431 W Northern Ave", "address2": null, "address3": "", "city": "Glendale", "zip_code": "85305", "country": "US", "state": "AZ", "display_address": ["9431 W Northern Ave", "Glendale, AZ 85305"]}, "phone": "", "display_phone": "", "distance": 1596.1823839358005}, {"id": "WUA2Rhlb43HBw9sT2R0wmg", "alias": "applebees-grill-bar-glendale-3", "name": "Applebee's Grill + Bar", "image_url": "https://s3-media1.fl.yelpcdn.com/bphoto/ESr2RDbeNBmEfRXJc0NhUw/o.jpg", "is_closed": false, "url": "https://www.yelp.com/biz/applebees-grill-bar-glendale-3?adjust_creative=a2JdNtFqB-C38ga_06BHvw&utm_campaign=yelp_api_v3&utm_medium=api_v3_business_search&utm_source=a2JdNtFqB-C38ga_06BHvw", "review_count": 144, "categories": [{"alias": "tradamerican", "title": "American (Traditional)"}, {"alias": "sportsbars", "title": "Sports Bars"}, {"alias": "burgers", "title": "Burgers"}], "rating": 2.0, "coordinates": {"latitude": 33.552166, "longitude": -112.260044}, "transactions": ["delivery", "pickup"], "price": "$$", "location": {"address1": "9330 W Northern Ave", "address2": "", "address3": "", "city": "Glendale", "zip_code": "85305", "country": "US", "state": "AZ", "display_address": ["9330 W Northern Ave", "Glendale, AZ 85305"]}, "phone": "+16238774885", "display_phone": "(623) 877-4885", "distance": 2215.406483622112}, {"id": "P3ufH0wm0jvulnrinDpaAA", "alias": "buffalo-wild-wings-glendale-3", "name": "Buffalo Wild Wings", "image_url": "https://s3-media2.fl.yelpcdn.com/bphoto/B5IvFi02KkmoBp5FhhovVQ/o.jpg", "is_closed": false, "url": "https://www.yelp.com/biz/buffalo-wild-wings-glendale-3?adjust_creative=a2JdNtFqB-C38ga_06BHvw&utm_campaign=yelp_api_v3&utm_medium=api_v3_business_search&utm_source=a2JdNtFqB-C38ga_06BHvw", "review_count": 395, "categories": [{"alias": "tradamerican", "title": "American (Traditional)"}, {"alias": "chicken_wings", "title": "Chicken Wings"}, {"alias": "sportsbars", "title": "Sports Bars"}], "rating": 2.0, "coordinates": {"latitude": 33.5345477253452, "longitude": -112.261864103539}, "transactions": ["delivery"], "price": "$$", "location": {"address1": "9404 W Westgate Blvd", "address2": "Ste C107", "address3": "", "city": "Glendale", "zip_code": "85305", "country": "US", "state": "AZ", "display_address": ["9404 W Westgate Blvd", "Ste C107", "Glendale, AZ 85305"]}, "phone": "+16238779127", "display_phone": "(623) 877-9127", "distance": 259.10175698968044}, {"id": "QP8rKSa_kKYpc9iz9f5UfA", "alias": "panda-express-glendale-15", "name": "Panda Express", "image_url": "https://s3-media4.fl.yelpcdn.com/bphoto/WPLodzfsU2yQh7S6rirvNg/o.jpg", "is_closed": false, "url": "https://www.yelp.com/biz/panda-express-glendale-15?adjust_creative=a2JdNtFqB-C38ga_06BHvw&utm_campaign=yelp_api_v3&utm_medium=api_v3_business_search&utm_source=a2JdNtFqB-C38ga_06BHvw", "review_count": 68, "categories": [{"alias": "chinese", "title": "Chinese"}, {"alias": "hotdogs", "title": "Fast Food"}], "rating": 2.5, "coordinates": {"latitude": 33.552264, "longitude": -112.257916}, "transactions": ["delivery", "pickup"], "price": "$", "location": {"address1": "9230 W Northern Ave", "address2": "Ste 101", "address3": "", "city": "Glendale", "zip_code": "85305", "country": "US", "state": "AZ", "display_address": ["9230 W Northern Ave", "Ste 101", "Glendale, AZ 85305"]}, "phone": "+16238729873", "display_phone": "(623) 872-9873", "distance": 2248.3114498965997}, {"id": "_8gm01tBwqoGLSp27O8I_A", "alias": "tacolicioso-glendale", "name": "Tacolicioso", "image_url": "https://s3-media3.fl.yelpcdn.com/bphoto/H_4SLl4eFgR6P-h5MKSNzA/o.jpg", "is_closed": false, "url": "https://www.yelp.com/biz/tacolicioso-glendale?adjust_creative=a2JdNtFqB-C38ga_06BHvw&utm_campaign=yelp_api_v3&utm_medium=api_v3_business_search&utm_source=a2JdNtFqB-C38ga_06BHvw", "review_count": 5, "categories": [{"alias": "foodtrucks", "title": "Food Trucks"}, {"alias": "tacos", "title": "Tacos"}], "rating": 4.0, "coordinates": {"latitude": 33.55139776336944, "longitude": -112.254492}, "transactions": [], "location": {"address1": "9031 W Northern Ave", "address2": null, "address3": "", "city": "Glendale ", "zip_code": "85305", "country": "US", "state": "AZ", "display_address": ["9031 W Northern Ave", "Glendale , AZ 85305"]}, "phone": "+16025276017", "display_phone": "(602) 527-6017", "distance": 2218.103418375047}, {"id": "BDDIpeEK8gVdhiglbjEyrw", "alias": "johnny-rockets-glendale", "name": "Johnny Rockets", "image_url": "https://s3-media2.fl.yelpcdn.com/bphoto/s3rL9IS4vZYPH5PLj-WPPA/o.jpg", "is_closed": false, "url": "https://www.yelp.com/biz/johnny-rockets-glendale?adjust_creative=a2JdNtFqB-C38ga_06BHvw&utm_campaign=yelp_api_v3&utm_medium=api_v3_business_search&utm_source=a2JdNtFqB-C38ga_06BHvw", "review_count": 203, "categories": [{"alias": "burgers", "title": "Burgers"}, {"alias": "diners", "title": "Diners"}], "rating": 2.0, "coordinates": {"latitude": 33.5351526876913, "longitude": -112.260918617248}, "transactions": ["delivery"], "price": "$$", "location": {"address1": "9390 W Hanna Dr", "address2": "Unit B109", "address3": "Westgate City Center", "city": "Glendale", "zip_code": "85305", "country": "US", "state": "AZ", "display_address": ["9390 W Hanna Dr", "Unit B109", "Westgate City Center", "Glendale, AZ 85305"]}, "phone": "+16238772977", "display_phone": "(623) 877-2977", "distance": 322.3958463296057}, {"id": "WHz8BX4y0q4liGG3wfBRfQ", "alias": "dennys-glendale-2", "name": "Denny's", "image_url": "https://s3-media3.fl.yelpcdn.com/bphoto/auDkKuWtUKO6pjuD2Sci7Q/o.jpg", "is_closed": false, "url": "https://www.yelp.com/biz/dennys-glendale-2?adjust_creative=a2JdNtFqB-C38ga_06BHvw&utm_campaign=yelp_api_v3&utm_medium=api_v3_business_search&utm_source=a2JdNtFqB-C38ga_06BHvw", "review_count": 127, "categories": [{"alias": "tradamerican", "title": "American (Traditional)"}, {"alias": "breakfast_brunch", "title": "Breakfast & Brunch"}, {"alias": "diners", "title": "Diners"}], "rating": 2.0, "coordinates": {"latitude": 33.508924511874, "longitude": -112.271183431149}, "transactions": ["delivery", "pickup"], "price": "$", "location": {"address1": "9856 W Camelback Rd", "address2": null, "address3": null, "city": "Glendale", "zip_code": "85305", "country": "US", "state": "AZ", "display_address": ["9856 W Camelback Rd", "Glendale, AZ 85305"]}, "phone": "+16238771502", "display_phone": "(623) 877-1502", "distance": 2753.3519411580014}, {"id": "G4X5w5vRQNEFUmrJo6JakA", "alias": "mcfaddens-restaurant-and-saloon-glendale", "name": "McFadden's Restaurant & Saloon", "image_url": "https://s3-media4.fl.yelpcdn.com/bphoto/rwh4IAB3-QbzUaW4WTcwaQ/o.jpg", "is_closed": false, "url": "https://www.yelp.com/biz/mcfaddens-restaurant-and-saloon-glendale?adjust_creative=a2JdNtFqB-C38ga_06BHvw&utm_campaign=yelp_api_v3&utm_medium=api_v3_business_search&utm_source=a2JdNtFqB-C38ga_06BHvw", "review_count": 511, "categories": [{"alias": "danceclubs", "title": "Dance Clubs"}, {"alias": "bars", "title": "Bars"}, {"alias": "newamerican", "title": "American (New)"}], "rating": 1.5, "coordinates": {"latitude": 33.5330493, "longitude": -112.2620364}, "transactions": ["delivery", "pickup"], "price": "$$", "location": {"address1": "9425 W Coyotes Blvd", "address2": "", "address3": "", "city": "Glendale", "zip_code": "85305", "country": "US", "state": "AZ", "display_address": ["9425 W Coyotes Blvd", "Glendale, AZ 85305"]}, "phone": "+16238720022", "display_phone": "(623) 872-0022", "distance": 111.55088707600837}, {"id": "HnCKI2Pxye-b26V6UDRsYQ", "alias": "arbys-glendale", "name": "Arby's", "image_url": "https://s3-media1.fl.yelpcdn.com/bphoto/Z8CTSt3fMLJYFi21HfV2Aw/o.jpg", "is_closed": false, "url": "https://www.yelp.com/biz/arbys-glendale?adjust_creative=a2JdNtFqB-C38ga_06BHvw&utm_campaign=yelp_api_v3&utm_medium=api_v3_business_search&utm_source=a2JdNtFqB-C38ga_06BHvw", "review_count": 10, "categories": [{"alias": "hotdogs", "title": "Fast Food"}, {"alias": "sandwiches", "title": "Sandwiches"}], "rating": 3.0, "coordinates": {"latitude": 33.5093228742404, "longitude": -112.236277163029}, "transactions": ["delivery", "pickup"], "price": "$", "location": {"address1": "8282 W Camelback Rd", "address2": "", "address3": "", "city": "Glendale", "zip_code": "85303", "country": "US", "state": "AZ", "display_address": ["8282 W Camelback Rd", "Glendale, AZ 85303"]}, "phone": "", "display_phone": "", "distance": 3447.071000318541}, {"id": "cNKz8nAMpOGl-i0hH-h1JA", "alias": "panda-express-glendale-6", "name": "Panda Express", "image_url": "https://s3-media3.fl.yelpcdn.com/bphoto/zS0ogyPm9WsTYApLC0wP7w/o.jpg", "is_closed": false, "url": "https://www.yelp.com/biz/panda-express-glendale-6?adjust_creative=a2JdNtFqB-C38ga_06BHvw&utm_campaign=yelp_api_v3&utm_medium=api_v3_business_search&utm_source=a2JdNtFqB-C38ga_06BHvw", "review_count": 33, "categories": [{"alias": "chinese", "title": "Chinese"}, {"alias": "hotdogs", "title": "Fast Food"}], "rating": 2.5, "coordinates": {"latitude": 33.508953, "longitude": -112.26498}, "transactions": ["delivery", "pickup"], "price": "$", "location": {"address1": "9524 W Camelback Rd", "address2": "Space 180", "address3": "", "city": "Glendale", "zip_code": "85308", "country": "US", "state": "AZ", "display_address": ["9524 W Camelback Rd", "Space 180", "Glendale, AZ 85308"]}, "phone": "+16238775202", "display_phone": "(623) 877-5202", "distance": 2615.2083450227774}, {"id": "k_RzVXWifPMHPMkLcJc0nw", "alias": "carls-jr-glendale-7", "name": "Carl's Jr", "image_url": "https://s3-media3.fl.yelpcdn.com/bphoto/uK5WWahZZqsCmdtOQayPOw/o.jpg", "is_closed": false, "url": "https://www.yelp.com/biz/carls-jr-glendale-7?adjust_creative=a2JdNtFqB-C38ga_06BHvw&utm_campaign=yelp_api_v3&utm_medium=api_v3_business_search&utm_source=a2JdNtFqB-C38ga_06BHvw", "review_count": 42, "categories": [{"alias": "burgers", "title": "Burgers"}, {"alias": "hotdogs", "title": "Fast Food"}], "rating": 2.0, "coordinates": {"latitude": 33.5327208967178, "longitude": -112.26529595793}, "transactions": ["delivery", "pickup"], "price": "$", "location": {"address1": "6706 N 95th Ave", "address2": "", "address3": "", "city": "Glendale", "zip_code": "85305", "country": "US", "state": "AZ", "display_address": ["6706 N 95th Ave", "Glendale, AZ 85305"]}, "phone": "+14807362461", "display_phone": "(480) 736-2461", "distance": 375.61116992825686}, {"id": "Q85C-Y6nMrKekLa-kCN8tw", "alias": "wendys-phoenix", "name": "Wendy's", "image_url": "https://s3-media4.fl.yelpcdn.com/bphoto/5OqO1erg7cVtF2r7RjA0Bg/o.jpg", "is_closed": false, "url": "https://www.yelp.com/biz/wendys-phoenix?adjust_creative=a2JdNtFqB-C38ga_06BHvw&utm_campaign=yelp_api_v3&utm_medium=api_v3_business_search&utm_source=a2JdNtFqB-C38ga_06BHvw", "review_count": 29, "categories": [{"alias": "hotdogs", "title": "Fast Food"}, {"alias": "burgers", "title": "Burgers"}], "rating": 2.0, "coordinates": {"latitude": 33.507931, "longitude": -112.273367}, "transactions": ["delivery"], "price": "$", "location": {"address1": "9905 W. Camelback Rd.", "address2": "", "address3": "", "city": "Phoenix", "zip_code": "85037", "country": "US", "state": "AZ", "display_address": ["9905 W. Camelback Rd.", "Phoenix, AZ 85037"]}, "phone": "+16238726455", "display_phone": "(623) 872-6455", "distance": 2924.2556861726293}, {"id": "47wfOfbWXdaxSCRPWBh8fQ", "alias": "a-taste-of-silk-bbq-phoenix", "name": "A Taste of Silk BBQ", "image_url": "https://s3-media1.fl.yelpcdn.com/bphoto/1TfPKJ4LiskM6dRNJkMcVA/o.jpg", "is_closed": false, "url": "https://www.yelp.com/biz/a-taste-of-silk-bbq-phoenix?adjust_creative=a2JdNtFqB-C38ga_06BHvw&utm_campaign=yelp_api_v3&utm_medium=api_v3_business_search&utm_source=a2JdNtFqB-C38ga_06BHvw", "review_count": 2, "categories": [{"alias": "bbq", "title": "Barbeque"}], "rating": 5.0, "coordinates": {"latitude": 33.5080536927002, "longitude": -112.292058043284}, "transactions": ["delivery"], "price": "$$", "location": {"address1": "10797 W Camelback Rd", "address2": "", "address3": null, "city": "Phoenix", "zip_code": "85037", "country": "US", "state": "AZ", "display_address": ["10797 W Camelback Rd", "Phoenix, AZ 85037"]}, "phone": "+18582200358", "display_phone": "(858) 220-0358", "distance": 3903.8013656974317}, {"id": "y0phdNciJfDRahaIpoqKkg", "alias": "carls-jr-peoria-5", "name": "Carl's Jr", "image_url": "https://s3-media3.fl.yelpcdn.com/bphoto/QxM_n9kyJX1g4X5PosnHtw/o.jpg", "is_closed": false, "url": "https://www.yelp.com/biz/carls-jr-peoria-5?adjust_creative=a2JdNtFqB-C38ga_06BHvw&utm_campaign=yelp_api_v3&utm_medium=api_v3_business_search&utm_source=a2JdNtFqB-C38ga_06BHvw", "review_count": 35, "categories": [{"alias": "hotdogs", "title": "Fast Food"}, {"alias": "burgers", "title": "Burgers"}], "rating": 2.0, "coordinates": {"latitude": 33.552203, "longitude": -112.260868}, "transactions": ["delivery", "pickup"], "price": "$", "location": {"address1": "9360 W Northern Ave", "address2": null, "address3": null, "city": "Peoria", "zip_code": "85345", "country": "US", "state": "AZ", "display_address": ["9360 W Northern Ave", "Peoria, AZ 85345"]}, "phone": "+16238772078", "display_phone": "(623) 877-2078", "distance": 2214.4780377067277}, {"id": "lNCNWyZcBw5YzMXi5f5-ww", "alias": "mcdonalds-glendale-5", "name": "McDonald's", "image_url": "https://s3-media3.fl.yelpcdn.com/bphoto/IReGLuAR7l65DfBjBUJYDQ/o.jpg", "is_closed": false, "url": "https://www.yelp.com/biz/mcdonalds-glendale-5?adjust_creative=a2JdNtFqB-C38ga_06BHvw&utm_campaign=yelp_api_v3&utm_medium=api_v3_business_search&utm_source=a2JdNtFqB-C38ga_06BHvw", "review_count": 3, "categories": [{"alias": "burgers", "title": "Burgers"}, {"alias": "hotdogs", "title": "Fast Food"}, {"alias": "coffee", "title": "Coffee & Tea"}], "rating": 4.0, "coordinates": {"latitude": 33.510194, "longitude": -112.267345046627}, "transactions": ["delivery"], "price": "$", "location": {"address1": "5010 N 95th Ave", "address2": "", "address3": "", "city": "Glendale", "zip_code": "85303", "country": "US", "state": "AZ", "display_address": ["5010 N 95th Ave", "Glendale, AZ 85303"]}, "phone": "+16237720486", "display_phone": "(623) 772-0486", "distance": 2518.1927271820564}, {"id": "z4VFGkerMroKbMkPB4on7g", "alias": "five-guys-glendale-5", "name": "Five Guys", "image_url": "https://s3-media3.fl.yelpcdn.com/bphoto/vlMGjtzk5hum9Q7hHacl2A/o.jpg", "is_closed": false, "url": "https://www.yelp.com/biz/five-guys-glendale-5?adjust_creative=a2JdNtFqB-C38ga_06BHvw&utm_campaign=yelp_api_v3&utm_medium=api_v3_business_search&utm_source=a2JdNtFqB-C38ga_06BHvw", "review_count": 8, "categories": [{"alias": "burgers", "title": "Burgers"}, {"alias": "hotdogs", "title": "Fast Food"}], "rating": 3.0, "coordinates": {"latitude": 33.536877, "longitude": -112.2614718}, "transactions": ["delivery", "pickup"], "location": {"address1": "9425 W Glendale Ave", "address2": "Ste 100", "address3": null, "city": "Glendale", "zip_code": "85305", "country": "US", "state": "AZ", "display_address": ["9425 W Glendale Ave", "Ste 100", "Glendale, AZ 85305"]}, "phone": "+16232152939", "display_phone": "(623) 215-2939", "distance": 512.6939544818579}, {"id": "wemlXDzXyS28HMJaVaxVhg", "alias": "papa-johns-pizza-phoenix-4", "name": "Papa John's Pizza", "image_url": "https://s3-media4.fl.yelpcdn.com/bphoto/jd_iUpfBenrampwOsPh-Rg/o.jpg", "is_closed": false, "url": "https://www.yelp.com/biz/papa-johns-pizza-phoenix-4?adjust_creative=a2JdNtFqB-C38ga_06BHvw&utm_campaign=yelp_api_v3&utm_medium=api_v3_business_search&utm_source=a2JdNtFqB-C38ga_06BHvw", "review_count": 26, "categories": [{"alias": "pizza", "title": "Pizza"}], "rating": 2.0, "coordinates": {"latitude": 33.507666, "longitude": -112.238267}, "transactions": ["delivery"], "price": "$", "location": {"address1": "4850 N 83rd Ave", "address2": "", "address3": "", "city": "Phoenix", "zip_code": "85033", "country": "US", "state": "AZ", "display_address": ["4850 N 83rd Ave", "Phoenix, AZ 85033"]}, "phone": "+16239367272", "display_phone": "(623) 936-7272", "distance": 3467.040543190139}, {"id": "ophXaBTA3IwZMfsPsaB6Xw", "alias": "taco-bell-glendale-12", "name": "Taco Bell", "image_url": "https://s3-media4.fl.yelpcdn.com/bphoto/62o2DMuSM_--ufwuf6vj6w/o.jpg", "is_closed": false, "url": "https://www.yelp.com/biz/taco-bell-glendale-12?adjust_creative=a2JdNtFqB-C38ga_06BHvw&utm_campaign=yelp_api_v3&utm_medium=api_v3_business_search&utm_source=a2JdNtFqB-C38ga_06BHvw", "review_count": 26, "categories": [{"alias": "hotdogs", "title": "Fast Food"}, {"alias": "mexican", "title": "Mexican"}], "rating": 2.0, "coordinates": {"latitude": 33.551799, "longitude": -112.261029}, "transactions": ["delivery"], "price": "$", "location": {"address1": "9380 W. Northern Avenue", "address2": "", "address3": "", "city": "Glendale", "zip_code": "85305", "country": "US", "state": "AZ", "display_address": ["9380 W. Northern Avenue", "Glendale, AZ 85305"]}, "phone": "+16237725429", "display_phone": "(623) 772-5429", "distance": 2171.7590974040972}, {"id": "lMxZRVvx346TkcJ9o47Xiw", "alias": "cerealphoria-glendale", "name": "Cerealphoria", "image_url": "https://s3-media2.fl.yelpcdn.com/bphoto/b3SUjz6OFK38WwcV_6xPSA/o.jpg", "is_closed": false, "url": "https://www.yelp.com/biz/cerealphoria-glendale?adjust_creative=a2JdNtFqB-C38ga_06BHvw&utm_campaign=yelp_api_v3&utm_medium=api_v3_business_search&utm_source=a2JdNtFqB-C38ga_06BHvw", "review_count": 4, "categories": [{"alias": "desserts", "title": "Desserts"}, {"alias": "icecream", "title": "Ice Cream & Frozen Yogurt"}, {"alias": "breakfast_brunch", "title": "Breakfast & Brunch"}], "rating": 3.5, "coordinates": {"latitude": 33.5344866, "longitude": -112.2615614}, "transactions": [], "location": {"address1": "9402 W Westgate Blvd", "address2": "", "address3": null, "city": "Glendale", "zip_code": "85305", "country": "US", "state": "AZ", "display_address": ["9402 W Westgate Blvd", "Glendale, AZ 85305"]}, "phone": "+16024136629", "display_phone": "(602) 413-6629", "distance": 245.73990053809686}, {"id": "j4zRUehhRT0atvDzcgsx2g", "alias": "little-caesars-pizza-glendale-5", "name": "Little Caesars Pizza", "image_url": "https://s3-media1.fl.yelpcdn.com/bphoto/yGvzr2_mU8KNhqvVXwRWjw/o.jpg", "is_closed": false, "url": "https://www.yelp.com/biz/little-caesars-pizza-glendale-5?adjust_creative=a2JdNtFqB-C38ga_06BHvw&utm_campaign=yelp_api_v3&utm_medium=api_v3_business_search&utm_source=a2JdNtFqB-C38ga_06BHvw", "review_count": 16, "categories": [{"alias": "pizza", "title": "Pizza"}, {"alias": "hotdogs", "title": "Fast Food"}], "rating": 2.0, "coordinates": {"latitude": 33.5371177473281, "longitude": -112.23945541468}, "transactions": [], "price": "$", "location": {"address1": "8345 W. Glendale", "address2": "", "address3": "", "city": "Glendale", "zip_code": "85305", "country": "US", "state": "AZ", "display_address": ["8345 W. Glendale", "Glendale, AZ 85305"]}, "phone": "+16238771668", "display_phone": "(623) 877-1668", "distance": 2093.465131599753}, {"id": "PT0H9XD1-CX5i_kRYvN7yQ", "alias": "mcdonalds-glendale-14", "name": "McDonald's", "image_url": "https://s3-media4.fl.yelpcdn.com/bphoto/wzLD_lUxJf64dNhFflE_UQ/o.jpg", "is_closed": false, "url": "https://www.yelp.com/biz/mcdonalds-glendale-14?adjust_creative=a2JdNtFqB-C38ga_06BHvw&utm_campaign=yelp_api_v3&utm_medium=api_v3_business_search&utm_source=a2JdNtFqB-C38ga_06BHvw", "review_count": 36, "categories": [{"alias": "hotdogs", "title": "Fast Food"}, {"alias": "burgers", "title": "Burgers"}, {"alias": "coffee", "title": "Coffee & Tea"}], "rating": 1.5, "coordinates": {"latitude": 33.5369885230946, "longitude": -112.238919138908}, "transactions": ["delivery"], "price": "$", "location": {"address1": "8325 W Glendale", "address2": "", "address3": "", "city": "Glendale", "zip_code": "85305", "country": "US", "state": "AZ", "display_address": ["8325 W Glendale", "Glendale, AZ 85305"]}, "phone": "+16238771776", "display_phone": "(623) 877-1776", "distance": 2137.961401056223}, {"id": "8tKd_PdemW5A-6dCbZw9PA", "alias": "burger-king-glendale-15", "name": "Burger King", "image_url": "https://s3-media3.fl.yelpcdn.com/bphoto/lZkLNXRUFEMVrSOttz23-Q/o.jpg", "is_closed": false, "url": "https://www.yelp.com/biz/burger-king-glendale-15?adjust_creative=a2JdNtFqB-C38ga_06BHvw&utm_campaign=yelp_api_v3&utm_medium=api_v3_business_search&utm_source=a2JdNtFqB-C38ga_06BHvw", "review_count": 18, "categories": [{"alias": "burgers", "title": "Burgers"}, {"alias": "hotdogs", "title": "Fast Food"}], "rating": 2.0, "coordinates": {"latitude": 33.5088729858398, "longitude": -112.266662597656}, "transactions": ["delivery"], "price": "$", "location": {"address1": "9680 W Camelback Rd", "address2": "", "address3": "", "city": "Glendale", "zip_code": "85305", "country": "US", "state": "AZ", "display_address": ["9680 W Camelback Rd", "Glendale, AZ 85305"]}, "phone": "+16238772478", "display_phone": "(623) 877-2478", "distance": 2646.455897909848}, {"id": "oS23ujZazX9KSULKwejtCg", "alias": "subway-glendale-54", "name": "Subway", "image_url": "https://s3-media4.fl.yelpcdn.com/bphoto/Pm8hyhE_Z6WsrXCVYFUbMg/o.jpg", "is_closed": false, "url": "https://www.yelp.com/biz/subway-glendale-54?adjust_creative=a2JdNtFqB-C38ga_06BHvw&utm_campaign=yelp_api_v3&utm_medium=api_v3_business_search&utm_source=a2JdNtFqB-C38ga_06BHvw", "review_count": 1, "categories": [{"alias": "sandwiches", "title": "Sandwiches"}], "rating": 5.0, "coordinates": {"latitude": 33.5337717780235, "longitude": -112.266793876864}, "transactions": ["delivery", "pickup"], "price": "$", "location": {"address1": "6800 N 95th Ave", "address2": "Ste 865", "address3": null, "city": "Glendale", "zip_code": "85305", "country": "US", "state": "AZ", "display_address": ["6800 N 95th Ave", "Ste 865", "Glendale, AZ 85305"]}, "phone": "+16238772127", "display_phone": "(623) 877-2127", "distance": 537.6966770064006}, {"id": "F32Z-kI7ZJyGbjT8Vu3WOA", "alias": "subway-glendale-76", "name": "Subway", "image_url": "https://s3-media1.fl.yelpcdn.com/bphoto/cXECMuPhSxjWBq-1s90KWg/o.jpg", "is_closed": false, "url": "https://www.yelp.com/biz/subway-glendale-76?adjust_creative=a2JdNtFqB-C38ga_06BHvw&utm_campaign=yelp_api_v3&utm_medium=api_v3_business_search&utm_source=a2JdNtFqB-C38ga_06BHvw", "review_count": 22, "categories": [{"alias": "sandwiches", "title": "Sandwiches"}], "rating": 1.5, "coordinates": {"latitude": 33.5370829, "longitude": -112.239593822698}, "transactions": [], "price": "$", "location": {"address1": "8345 W Glendale Rd", "address2": "Ste 101", "address3": "", "city": "Glendale", "zip_code": "85305", "country": "US", "state": "AZ", "display_address": ["8345 W Glendale Rd", "Ste 101", "Glendale, AZ 85305"]}, "phone": "+16238727821", "display_phone": "(623) 872-7821", "distance": 2080.0718125235153}, {"id": "etGW0g4oIABVeC4Sk5YBDQ", "alias": "taco-bell-phoenix-51", "name": "Taco Bell", "image_url": "https://s3-media3.fl.yelpcdn.com/bphoto/xxMbdioGpJ3ISsXpD8QoFg/o.jpg", "is_closed": false, "url": "https://www.yelp.com/biz/taco-bell-phoenix-51?adjust_creative=a2JdNtFqB-C38ga_06BHvw&utm_campaign=yelp_api_v3&utm_medium=api_v3_business_search&utm_source=a2JdNtFqB-C38ga_06BHvw", "review_count": 18, "categories": [{"alias": "mexican", "title": "Mexican"}, {"alias": "hotdogs", "title": "Fast Food"}], "rating": 1.5, "coordinates": {"latitude": 33.50626, "longitude": -112.27311}, "transactions": ["delivery"], "price": "$", "location": {"address1": "4850 N. 99th Ave", "address2": null, "address3": null, "city": "Phoenix", "zip_code": "85037", "country": "US", "state": "AZ", "display_address": ["4850 N. 99th Ave", "Phoenix, AZ 85037"]}, "phone": "+16029103314", "display_phone": "(602) 910-3314", "distance": 3088.7773014360537}, {"id": "w0f2Hpn1Yf2TwoykTMoOXA", "alias": "subway-glendale-67", "name": "Subway", "image_url": "https://s3-media1.fl.yelpcdn.com/bphoto/TQQdIXUDKW_pdGHoBJKSqQ/o.jpg", "is_closed": false, "url": "https://www.yelp.com/biz/subway-glendale-67?adjust_creative=a2JdNtFqB-C38ga_06BHvw&utm_campaign=yelp_api_v3&utm_medium=api_v3_business_search&utm_source=a2JdNtFqB-C38ga_06BHvw", "review_count": 18, "categories": [{"alias": "sandwiches", "title": "Sandwiches"}], "rating": 1.5, "coordinates": {"latitude": 33.5089479, "longitude": -112.2646187}, "transactions": ["delivery", "pickup"], "price": "$", "location": {"address1": "9524 W Camelback Rd", "address2": "Ste C140", "address3": "", "city": "Glendale", "zip_code": "85305", "country": "US", "state": "AZ", "display_address": ["9524 W Camelback Rd", "Ste C140", "Glendale, AZ 85305"]}, "phone": "+16238727824", "display_phone": "(623) 872-7824", "distance": 2611.5898013549086}, {"id": "0BaMoKDVNv-MP84BQ9EK9A", "alias": "jack-in-the-box-phoenix-2", "name": "Jack in the Box", "image_url": "https://s3-media2.fl.yelpcdn.com/bphoto/mqAdlWHeGXVTiGgnfgyHIQ/o.jpg", "is_closed": false, "url": "https://www.yelp.com/biz/jack-in-the-box-phoenix-2?adjust_creative=a2JdNtFqB-C38ga_06BHvw&utm_campaign=yelp_api_v3&utm_medium=api_v3_business_search&utm_source=a2JdNtFqB-C38ga_06BHvw", "review_count": 26, "categories": [{"alias": "hotdogs", "title": "Fast Food"}, {"alias": "burgers", "title": "Burgers"}, {"alias": "tacos", "title": "Tacos"}], "rating": 1.5, "coordinates": {"latitude": 33.5083698765849, "longitude": -112.236761301756}, "transactions": ["delivery"], "price": "$", "location": {"address1": "8225 W Camelback Rd", "address2": "", "address3": "", "city": "Phoenix", "zip_code": "85033", "country": "US", "state": "AZ", "display_address": ["8225 W Camelback Rd", "Phoenix, AZ 85033"]}, "phone": "+16238490630", "display_phone": "(623) 849-0630", "distance": 3496.8994809295837}, {"id": "FtkPH-ftY-xRH6TjTmbmVg", "alias": "subway-phoenix-186", "name": "Subway", "image_url": "https://s3-media1.fl.yelpcdn.com/bphoto/lOA9FGIoEVw5RUT-iOhUTw/o.jpg", "is_closed": false, "url": "https://www.yelp.com/biz/subway-phoenix-186?adjust_creative=a2JdNtFqB-C38ga_06BHvw&utm_campaign=yelp_api_v3&utm_medium=api_v3_business_search&utm_source=a2JdNtFqB-C38ga_06BHvw", "review_count": 7, "categories": [{"alias": "sandwiches", "title": "Sandwiches"}], "rating": 2.0, "coordinates": {"latitude": 33.507271, "longitude": -112.238289}, "transactions": ["delivery", "pickup"], "price": "$", "location": {"address1": "4840 N 83rd Ave", "address2": "Ste 1", "address3": "", "city": "Phoenix", "zip_code": "85033", "country": "US", "state": "AZ", "display_address": ["4840 N 83rd Ave", "Ste 1", "Phoenix, AZ 85033"]}, "phone": "+16232152403", "display_phone": "(623) 215-2403", "distance": 3502.5483334710375}, {"id": "93zez33QieKhcmfiSMUA-Q", "alias": "long-john-silvers-glendale-2", "name": "Long John Silver's", "image_url": "https://s3-media2.fl.yelpcdn.com/bphoto/dmOGAxeGnw8zaCxu28xOww/o.jpg", "is_closed": false, "url": "https://www.yelp.com/biz/long-john-silvers-glendale-2?adjust_creative=a2JdNtFqB-C38ga_06BHvw&utm_campaign=yelp_api_v3&utm_medium=api_v3_business_search&utm_source=a2JdNtFqB-C38ga_06BHvw", "review_count": 20, "categories": [{"alias": "seafood", "title": "Seafood"}, {"alias": "hotdogs", "title": "Fast Food"}], "rating": 1.5, "coordinates": {"latitude": 33.5521317, "longitude": -112.2613678}, "transactions": [], "price": "$", "location": {"address1": "9380 W Northern Ave", "address2": "", "address3": "", "city": "Glendale", "zip_code": "85305", "country": "US", "state": "AZ", "display_address": ["9380 W Northern Ave", "Glendale, AZ 85305"]}, "phone": "+16237725429", "display_phone": "(623) 772-5429", "distance": 2206.04921112274}, {"id": "H_TQ6olCysyewI5yhIa9Fg", "alias": "fortune-cafe-glendale", "name": "Fortune Cafe", "image_url": "https://s3-media3.fl.yelpcdn.com/bphoto/MDY4SZMVke54zqr_in8Yfg/o.jpg", "is_closed": false, "url": "https://www.yelp.com/biz/fortune-cafe-glendale?adjust_creative=a2JdNtFqB-C38ga_06BHvw&utm_campaign=yelp_api_v3&utm_medium=api_v3_business_search&utm_source=a2JdNtFqB-C38ga_06BHvw", "review_count": 2, "categories": [{"alias": "cafes", "title": "Cafes"}, {"alias": "breakfast_brunch", "title": "Breakfast & Brunch"}], "rating": 3.0, "coordinates": {"latitude": 33.546492, "longitude": -112.260835}, "transactions": ["delivery"], "location": {"address1": "9431 W Northern Ave", "address2": "", "address3": null, "city": "Glendale", "zip_code": "85305", "country": "US", "state": "AZ", "display_address": ["9431 W Northern Ave", "Glendale, AZ 85305"]}, "phone": "", "display_phone": "", "distance": 1582.0613717318604}, {"id": "sNYEReap1oYFrpf71o62mQ", "alias": "dairy-queen-orange-julius-glendale", "name": "Dairy Queen Orange Julius", "image_url": "https://s3-media3.fl.yelpcdn.com/bphoto/KavB8cHHQkJ6Qq-e2b3mbA/o.jpg", "is_closed": false, "url": "https://www.yelp.com/biz/dairy-queen-orange-julius-glendale?adjust_creative=a2JdNtFqB-C38ga_06BHvw&utm_campaign=yelp_api_v3&utm_medium=api_v3_business_search&utm_source=a2JdNtFqB-C38ga_06BHvw", "review_count": 4, "categories": [{"alias": "icecream", "title": "Ice Cream & Frozen Yogurt"}, {"alias": "hotdogs", "title": "Fast Food"}, {"alias": "juicebars", "title": "Juice Bars & Smoothies"}], "rating": 2.5, "coordinates": {"latitude": 33.535317, "longitude": -112.266251}, "transactions": ["delivery", "pickup"], "price": "$", "location": {"address1": "6800 N 95th Ave", "address2": "", "address3": null, "city": "Glendale", "zip_code": "85305", "country": "US", "state": "AZ", "display_address": ["6800 N 95th Ave", "Glendale, AZ 85305"]}, "phone": "+16238773147", "display_phone": "(623) 877-3147", "distance": 571.9776020444062}, {"id": "_Ol5rCJTtoy3SOz4SvZbLw", "alias": "cobs-doggers-and-more-glendale", "name": "Cobs, Doggers & More", "image_url": "https://s3-media2.fl.yelpcdn.com/bphoto/lluNCnMdM8S53ba9yiGbQQ/o.jpg", "is_closed": false, "url": "https://www.yelp.com/biz/cobs-doggers-and-more-glendale?adjust_creative=a2JdNtFqB-C38ga_06BHvw&utm_campaign=yelp_api_v3&utm_medium=api_v3_business_search&utm_source=a2JdNtFqB-C38ga_06BHvw", "review_count": 1, "categories": [{"alias": "mexican", "title": "Mexican"}, {"alias": "bbq", "title": "Barbeque"}, {"alias": "southern", "title": "Southern"}], "rating": 4.0, "coordinates": {"latitude": 33.52948, "longitude": -112.24501}, "transactions": [], "location": {"address1": "8710 W Maryland", "address2": null, "address3": "", "city": "Glendale", "zip_code": "85305", "country": "US", "state": "AZ", "display_address": ["8710 W Maryland", "Glendale, AZ 85305"]}, "phone": "+16029356131", "display_phone": "(602) 935-6131", "distance": 1446.0271362346975}, {"id": "GSwHx63uBITiWhLRP0r_ZA", "alias": "little-caesars-glendale-3", "name": "Little Caesars", "image_url": "https://s3-media2.fl.yelpcdn.com/bphoto/fZXpapmhVolx0sn34VQkgw/o.jpg", "is_closed": false, "url": "https://www.yelp.com/biz/little-caesars-glendale-3?adjust_creative=a2JdNtFqB-C38ga_06BHvw&utm_campaign=yelp_api_v3&utm_medium=api_v3_business_search&utm_source=a2JdNtFqB-C38ga_06BHvw", "review_count": 3, "categories": [{"alias": "newamerican", "title": "American (New)"}], "rating": 2.0, "coordinates": {"latitude": 33.5371475219727, "longitude": -112.239555358887}, "transactions": [], "price": "$", "location": {"address1": "8345 W Glendale Ave", "address2": "", "address3": "", "city": "Glendale", "zip_code": "85303", "country": "US", "state": "AZ", "display_address": ["8345 W Glendale Ave", "Glendale, AZ 85303"]}, "phone": "", "display_phone": "", "distance": 2085.3739388740046}, {"id": "VFZp_d0JcV_IpgO-lDrCxw", "alias": "majestic-sports-and-grill-glendale", "name": "Majestic Sports & Grill", "image_url": "https://s3-media4.fl.yelpcdn.com/bphoto/OHcr3DMQpmuMUzUiM3myjg/o.jpg", "is_closed": false, "url": "https://www.yelp.com/biz/majestic-sports-and-grill-glendale?adjust_creative=a2JdNtFqB-C38ga_06BHvw&utm_campaign=yelp_api_v3&utm_medium=api_v3_business_search&utm_source=a2JdNtFqB-C38ga_06BHvw", "review_count": 2, "categories": [{"alias": "mexican", "title": "Mexican"}], "rating": 2.0, "coordinates": {"latitude": 33.5171508789062, "longitude": -112.263702392578}, "transactions": [], "location": {"address1": "9622 N 95th Ave", "address2": null, "address3": "", "city": "Glendale", "zip_code": "85305", "country": "US", "state": "AZ", "display_address": ["9622 N 95th Ave", "Glendale, AZ 85305"]}, "phone": "+16232291106", "display_phone": "(623) 229-1106", "distance": 1812.2483917915392}, {"id": "bnqkfeeE-j6q8RNLKTPuRQ", "alias": "jimmys-red-hotz-glendale", "name": "Jimmy's Red Hotz", "image_url": "", "is_closed": false, "url": "https://www.yelp.com/biz/jimmys-red-hotz-glendale?adjust_creative=a2JdNtFqB-C38ga_06BHvw&utm_campaign=yelp_api_v3&utm_medium=api_v3_business_search&utm_source=a2JdNtFqB-C38ga_06BHvw", "review_count": 1, "categories": [{"alias": "hotdogs", "title": "Fast Food"}], "rating": 2.0, "coordinates": {"latitude": 33.5282672, "longitude": -112.245467}, "transactions": [], "price": "$", "location": {"address1": "8710 W Maryland Ave", "address2": "", "address3": "", "city": "Glendale", "zip_code": "85305", "country": "US", "state": "AZ", "display_address": ["8710 W Maryland Ave", "Glendale, AZ 85305"]}, "phone": "+16238779012", "display_phone": "(623) 877-9012", "distance": 1531.7850524075855}, {"id": "CHm0hyY81CWDutaYCztFSg", "alias": "ocarnivores-peoria", "name": "Ocarnivores", "image_url": "", "is_closed": false, "url": "https://www.yelp.com/biz/ocarnivores-peoria?adjust_creative=a2JdNtFqB-C38ga_06BHvw&utm_campaign=yelp_api_v3&utm_medium=api_v3_business_search&utm_source=a2JdNtFqB-C38ga_06BHvw", "review_count": 3, "categories": [{"alias": "mexican", "title": "Mexican"}], "rating": 1.0, "coordinates": {"latitude": 33.5514914, "longitude": -112.2701358}, "transactions": [], "location": {"address1": "9832 W Northern Ave", "address2": "Ste 1650", "address3": "", "city": "Peoria", "zip_code": "85345", "country": "US", "state": "AZ", "display_address": ["9832 W Northern Ave", "Ste 1650", "Peoria, AZ 85345"]}, "phone": "+16238772524", "display_phone": "(623) 877-2524", "distance": 2289.5926857579275}, {"id": "JSt2qe0u6KKXNcJKrfnZMA", "alias": "papa-johns-pizza-glendale-15", "name": "Papa John's Pizza", "image_url": "", "is_closed": false, "url": "https://www.yelp.com/biz/papa-johns-pizza-glendale-15?adjust_creative=a2JdNtFqB-C38ga_06BHvw&utm_campaign=yelp_api_v3&utm_medium=api_v3_business_search&utm_source=a2JdNtFqB-C38ga_06BHvw", "review_count": 1, "categories": [{"alias": "pizza", "title": "Pizza"}], "rating": 1.0, "coordinates": {"latitude": 33.5277, "longitude": -112.26255}, "transactions": [], "location": {"address1": "1 Cardinals Drive", "address2": null, "address3": null, "city": "Glendale", "zip_code": "85305", "country": "US", "state": "AZ", "display_address": ["1 Cardinals Drive", "Glendale, AZ 85305"]}, "phone": "", "display_phone": "", "distance": 524.838364015905}, {"id": "xyYoDm39HLCso3537Ezz2Q", "alias": "food-court-at-desert-diamond-casino-west-valley-glendale", "name": "Food Court at Desert Diamond Casino West Valley", "image_url": "https://s3-media4.fl.yelpcdn.com/bphoto/MDJWcAjRzBhsdRQC4bWlQQ/o.jpg", "is_closed": false, "url": "https://www.yelp.com/biz/food-court-at-desert-diamond-casino-west-valley-glendale?adjust_creative=a2JdNtFqB-C38ga_06BHvw&utm_campaign=yelp_api_v3&utm_medium=api_v3_business_search&utm_source=a2JdNtFqB-C38ga_06BHvw", "review_count": 1, "categories": [{"alias": "tradamerican", "title": "American (Traditional)"}, {"alias": "food_court", "title": "Food Court"}, {"alias": "hotdogs", "title": "Fast Food"}], "rating": 1.0, "coordinates": {"latitude": 33.547771, "longitude": -112.26204}, "transactions": [], "location": {"address1": "9431 W Northern Ave", "address2": "", "address3": "", "city": "Glendale", "zip_code": "85305", "country": "US", "state": "AZ", "display_address": ["9431 W Northern Ave", "Glendale, AZ 85305"]}, "phone": "+16238777777", "display_phone": "(623) 877-7777", "distance": 1596.1823839358005}, {"id": "wT1ERAfZEnHt8N2R1IT1Eg", "alias": "burger-king-glendale-14", "name": "Burger King", "image_url": "", "is_closed": false, "url": "https://www.yelp.com/biz/burger-king-glendale-14?adjust_creative=a2JdNtFqB-C38ga_06BHvw&utm_campaign=yelp_api_v3&utm_medium=api_v3_business_search&utm_source=a2JdNtFqB-C38ga_06BHvw", "review_count": 1, "categories": [{"alias": "burgers", "title": "Burgers"}], "rating": 1.0, "coordinates": {"latitude": 33.5379116982222, "longitude": -112.231447175145}, "transactions": [], "price": "$", "location": {"address1": "7940 W Glendale Ave", "address2": "", "address3": "", "city": "Glendale", "zip_code": "85303", "country": "US", "state": "AZ", "display_address": ["7940 W Glendale Ave", "Glendale, AZ 85303"]}, "phone": "+16239159738", "display_phone": "(623) 915-9738", "distance": 2895.9649437390735}, {"id": "eTvDOX3cS69O-fUB9TD3Uw", "alias": "bice-bistro-glendale-2", "name": "Bice Bistro", "image_url": "", "is_closed": false, "url": "https://www.yelp.com/biz/bice-bistro-glendale-2?adjust_creative=a2JdNtFqB-C38ga_06BHvw&utm_campaign=yelp_api_v3&utm_medium=api_v3_business_search&utm_source=a2JdNtFqB-C38ga_06BHvw", "review_count": 1, "categories": [{"alias": "italian", "title": "Italian"}], "rating": 1.0, "coordinates": {"latitude": 33.533587, "longitude": -112.261921}, "transactions": ["delivery"], "location": {"address1": "6751 N Sunset Rd", "address2": "Ste E-110", "address3": "", "city": "Glendale", "zip_code": "85305", "country": "US", "state": "AZ", "display_address": ["6751 N Sunset Rd", "Ste E-110", "Glendale, AZ 85305"]}, "phone": "+16238774768", "display_phone": "(623) 877-4768", "distance": 158.13992961844107}], "absolute total": 102, "total": 102}