{"league": "NHL", "team": "Carolina Hurricanes", "stadium": "PNC Arena", "stadium latitude": 35.803333, "stadium longitude": -78.721944, "radius": "3000 meters", "city": "Raleigh", "state": "North Carolina", "businesses": [{"id": "PeUdkWVQOL18-IpC5kk65w", "alias": "guasaca-raleigh", "name": "Guasaca", "image_url": "https://s3-media3.fl.yelpcdn.com/bphoto/n1QqRv58kagvirylc-nMpA/o.jpg", "is_closed": false, "url": "https://www.yelp.com/biz/guasaca-raleigh?adjust_creative=a2JdNtFqB-C38ga_06BHvw&utm_campaign=yelp_api_v3&utm_medium=api_v3_business_search&utm_source=a2JdNtFqB-C38ga_06BHvw", "review_count": 1019, "categories": [{"alias": "venezuelan", "title": "Venezuelan"}], "rating": 4.5, "coordinates": {"latitude": 35.814575, "longitude": -78.697036}, "transactions": ["pickup", "delivery"], "price": "$", "location": {"address1": "4025 Lake Boone Trl", "address2": "Ste 107", "address3": "", "city": "Raleigh", "zip_code": "27607", "country": "US", "state": "NC", "display_address": ["4025 Lake Boone Trl", "Ste 107", "Raleigh, NC 27607"]}, "phone": "+19193224928", "display_phone": "(919) 322-4928", "distance": 2659.957409253382}, {"id": "N7hf4vrfQdljPNWUTSuNLQ", "alias": "neomonde-mediterranean-raleigh-raleigh", "name": "Neomonde Mediterranean Raleigh", "image_url": "https://s3-media4.fl.yelpcdn.com/bphoto/DW4tHHWk2IS6I1cibYjSdw/o.jpg", "is_closed": false, "url": "https://www.yelp.com/biz/neomonde-mediterranean-raleigh-raleigh?adjust_creative=a2JdNtFqB-C38ga_06BHvw&utm_campaign=yelp_api_v3&utm_medium=api_v3_business_search&utm_source=a2JdNtFqB-C38ga_06BHvw", "review_count": 576, "categories": [{"alias": "mediterranean", "title": "Mediterranean"}, {"alias": "gluten_free", "title": "Gluten-Free"}, {"alias": "lebanese", "title": "Lebanese"}], "rating": 4.5, "coordinates": {"latitude": 35.793248, "longitude": -78.690182}, "transactions": ["pickup", "delivery"], "price": "$$", "location": {"address1": "3817 Beryl Rd", "address2": "", "address3": "", "city": "Raleigh", "zip_code": "27607", "country": "US", "state": "NC", "display_address": ["3817 Beryl Rd", "Raleigh, NC 27607"]}, "phone": "+19198281628", "display_phone": "(919) 828-1628", "distance": 3076.2306327766946}, {"id": "YP-wRLfd1zI37Mk_NWgygA", "alias": "afghan-kabab-raleigh-3", "name": "Afghan Kabab", "image_url": "https://s3-media4.fl.yelpcdn.com/bphoto/HpdCBiwu8K3PxNWHxdVTJQ/o.jpg", "is_closed": false, "url": "https://www.yelp.com/biz/afghan-kabab-raleigh-3?adjust_creative=a2JdNtFqB-C38ga_06BHvw&utm_campaign=yelp_api_v3&utm_medium=api_v3_business_search&utm_source=a2JdNtFqB-C38ga_06BHvw", "review_count": 37, "categories": [{"alias": "afghani", "title": "Afghan"}, {"alias": "kebab", "title": "Kebab"}, {"alias": "seafood", "title": "Seafood"}], "rating": 5.0, "coordinates": {"latitude": 35.78394, "longitude": -78.69264667}, "transactions": ["pickup", "delivery"], "price": "$$", "location": {"address1": "3933 Western Blvd", "address2": null, "address3": "", "city": "Raleigh", "zip_code": "27606", "country": "US", "state": "NC", "display_address": ["3933 Western Blvd", "Raleigh, NC 27606"]}, "phone": "+19197030004", "display_phone": "(919) 703-0004", "distance": 3405.5678093687307}, {"id": "wEisEZAoUqxuL5Fa5U817A", "alias": "the-oak-raleigh-2", "name": "The Oak", "image_url": "https://s3-media2.fl.yelpcdn.com/bphoto/tqd1I342qUEnEzeMQyw_JQ/o.jpg", "is_closed": false, "url": "https://www.yelp.com/biz/the-oak-raleigh-2?adjust_creative=a2JdNtFqB-C38ga_06BHvw&utm_campaign=yelp_api_v3&utm_medium=api_v3_business_search&utm_source=a2JdNtFqB-C38ga_06BHvw", "review_count": 387, "categories": [{"alias": "newamerican", "title": "American (New)"}, {"alias": "breakfast_brunch", "title": "Breakfast & Brunch"}, {"alias": "cocktailbars", "title": "Cocktail Bars"}], "rating": 4.0, "coordinates": {"latitude": 35.8152502766058, "longitude": -78.6968978648733}, "transactions": ["delivery"], "price": "$$", "location": {"address1": "4035 Lake Boone Trl", "address2": "Ste 115", "address3": "", "city": "Raleigh", "zip_code": "27607", "country": "US", "state": "NC", "display_address": ["4035 Lake Boone Trl", "Ste 115", "Raleigh, NC 27607"]}, "phone": "+19197879100", "display_phone": "(919) 787-9100", "distance": 2618.5941925257857}, {"id": "gJz-EwR9TZW7j56wwJXDLw", "alias": "ole-time-barbecue-raleigh-2", "name": "Ole Time Barbecue", "image_url": "https://s3-media3.fl.yelpcdn.com/bphoto/VJuF6E2WxI8pkt5TWBC1Og/o.jpg", "is_closed": false, "url": "https://www.yelp.com/biz/ole-time-barbecue-raleigh-2?adjust_creative=a2JdNtFqB-C38ga_06BHvw&utm_campaign=yelp_api_v3&utm_medium=api_v3_business_search&utm_source=a2JdNtFqB-C38ga_06BHvw", "review_count": 339, "categories": [{"alias": "bbq", "title": "Barbeque"}, {"alias": "breakfast_brunch", "title": "Breakfast & Brunch"}, {"alias": "burgers", "title": "Burgers"}], "rating": 4.0, "coordinates": {"latitude": 35.78733, "longitude": -78.73877}, "transactions": ["pickup", "delivery"], "price": "$", "location": {"address1": "6309 Hillsborough St", "address2": "", "address3": "", "city": "Raleigh", "zip_code": "27606", "country": "US", "state": "NC", "display_address": ["6309 Hillsborough St", "Raleigh, NC 27606"]}, "phone": "+19198592544", "display_phone": "(919) 859-2544", "distance": 2298.290020157802}, {"id": "p8IZ10bRXKAI1_1LG7L1MA", "alias": "pams-farm-house-raleigh", "name": "Pam's Farm House", "image_url": "https://s3-media2.fl.yelpcdn.com/bphoto/_0kHzi6MYYImGPLhheMZ4Q/o.jpg", "is_closed": false, "url": "https://www.yelp.com/biz/pams-farm-house-raleigh?adjust_creative=a2JdNtFqB-C38ga_06BHvw&utm_campaign=yelp_api_v3&utm_medium=api_v3_business_search&utm_source=a2JdNtFqB-C38ga_06BHvw", "review_count": 162, "categories": [{"alias": "southern", "title": "Southern"}, {"alias": "tradamerican", "title": "American (Traditional)"}, {"alias": "breakfast_brunch", "title": "Breakfast & Brunch"}], "rating": 4.0, "coordinates": {"latitude": 35.785991, "longitude": -78.711845}, "transactions": ["delivery"], "price": "$", "location": {"address1": "5111 Western Blvd", "address2": "", "address3": "", "city": "Raleigh", "zip_code": "27606", "country": "US", "state": "NC", "display_address": ["5111 Western Blvd", "Raleigh, NC 27606"]}, "phone": "+19198599990", "display_phone": "(919) 859-9990", "distance": 2130.8756303055707}, {"id": "x1qUWRSXe3orsbSk2GK7sA", "alias": "randys-pizza-raleigh", "name": "Randy's Pizza", "image_url": "https://s3-media2.fl.yelpcdn.com/bphoto/WBLBXOVOrGw48mZShcD_7g/o.jpg", "is_closed": false, "url": "https://www.yelp.com/biz/randys-pizza-raleigh?adjust_creative=a2JdNtFqB-C38ga_06BHvw&utm_campaign=yelp_api_v3&utm_medium=api_v3_business_search&utm_source=a2JdNtFqB-C38ga_06BHvw", "review_count": 138, "categories": [{"alias": "pizza", "title": "Pizza"}], "rating": 4.0, "coordinates": {"latitude": 35.8172733911864, "longitude": -78.6927838781716}, "transactions": ["pickup", "delivery"], "price": "$", "location": {"address1": "2458 Wycliff Rd", "address2": "", "address3": "", "city": "Raleigh", "zip_code": "27607", "country": "US", "state": "NC", "display_address": ["2458 Wycliff Rd", "Raleigh, NC 27607"]}, "phone": "+19193225990", "display_phone": "(919) 322-5990", "distance": 3052.385338154306}, {"id": "gBLtnNdleGgfzou-1n2yVw", "alias": "bella-monica-raleigh", "name": "Bella Monica", "image_url": "https://s3-media3.fl.yelpcdn.com/bphoto/OBWLOzWtkfpgU6o-CQIZEQ/o.jpg", "is_closed": false, "url": "https://www.yelp.com/biz/bella-monica-raleigh?adjust_creative=a2JdNtFqB-C38ga_06BHvw&utm_campaign=yelp_api_v3&utm_medium=api_v3_business_search&utm_source=a2JdNtFqB-C38ga_06BHvw", "review_count": 483, "categories": [{"alias": "italian", "title": "Italian"}, {"alias": "pizza", "title": "Pizza"}, {"alias": "wine_bars", "title": "Wine Bars"}], "rating": 4.0, "coordinates": {"latitude": 35.8253816405571, "longitude": -78.706955909729}, "transactions": ["delivery"], "price": "$$", "location": {"address1": "3121-103 Edwards Mill Rd", "address2": "", "address3": "", "city": "Raleigh", "zip_code": "27612", "country": "US", "state": "NC", "display_address": ["3121-103 Edwards Mill Rd", "Raleigh, NC 27612"]}, "phone": "+19198819778", "display_phone": "(919) 881-9778", "distance": 2799.514845911601}, {"id": "YSGirnGZiBGaSJuqdRnjfA", "alias": "vics-italian-restaurant-and-pizzeria-raleigh-2", "name": "Vic's Italian Restaurant & Pizzeria", "image_url": "https://s3-media1.fl.yelpcdn.com/bphoto/imajTYCRkRHDzG37WvSI9g/o.jpg", "is_closed": false, "url": "https://www.yelp.com/biz/vics-italian-restaurant-and-pizzeria-raleigh-2?adjust_creative=a2JdNtFqB-C38ga_06BHvw&utm_campaign=yelp_api_v3&utm_medium=api_v3_business_search&utm_source=a2JdNtFqB-C38ga_06BHvw", "review_count": 175, "categories": [{"alias": "pizza", "title": "Pizza"}, {"alias": "italian", "title": "Italian"}], "rating": 4.0, "coordinates": {"latitude": 35.81544, "longitude": -78.69668}, "transactions": ["pickup", "delivery"], "price": "$$", "location": {"address1": "4035 Lake Boone Trl", "address2": "Ste 109", "address3": "", "city": "Raleigh", "zip_code": "27607", "country": "US", "state": "NC", "display_address": ["4035 Lake Boone Trl", "Ste 109", "Raleigh, NC 27607"]}, "phone": "+19842009292", "display_phone": "(984) 200-9292", "distance": 2606.324272743156}, {"id": "h7TNFIQjauui6EVb_4oWuw", "alias": "chubbys-tacos-raleigh", "name": "Chubby's Tacos", "image_url": "https://s3-media3.fl.yelpcdn.com/bphoto/0UiFr0r7A3AHViRDWPC7fw/o.jpg", "is_closed": false, "url": "https://www.yelp.com/biz/chubbys-tacos-raleigh?adjust_creative=a2JdNtFqB-C38ga_06BHvw&utm_campaign=yelp_api_v3&utm_medium=api_v3_business_search&utm_source=a2JdNtFqB-C38ga_06BHvw", "review_count": 438, "categories": [{"alias": "mexican", "title": "Mexican"}], "rating": 4.0, "coordinates": {"latitude": 35.8171918, "longitude": -78.6938651}, "transactions": ["pickup", "delivery"], "price": "$", "location": {"address1": "2444 Wycliff Rd", "address2": "", "address3": "", "city": "Raleigh", "zip_code": "27607", "country": "US", "state": "NC", "display_address": ["2444 Wycliff Rd", "Raleigh, NC 27607"]}, "phone": "+19197814480", "display_phone": "(919) 781-4480", "distance": 3076.70323349213}, {"id": "b1661rdpNcw-ge626ynOog", "alias": "first-watch-raleigh-11", "name": "First Watch", "image_url": "https://s3-media2.fl.yelpcdn.com/bphoto/8Sj0SUDkRr5Z3u9DwxfkYQ/o.jpg", "is_closed": false, "url": "https://www.yelp.com/biz/first-watch-raleigh-11?adjust_creative=a2JdNtFqB-C38ga_06BHvw&utm_campaign=yelp_api_v3&utm_medium=api_v3_business_search&utm_source=a2JdNtFqB-C38ga_06BHvw", "review_count": 35, "categories": [{"alias": "breakfast_brunch", "title": "Breakfast & Brunch"}, {"alias": "cafes", "title": "Cafes"}, {"alias": "tradamerican", "title": "American (Traditional)"}], "rating": 4.5, "coordinates": {"latitude": 35.815296, "longitude": -78.69735}, "transactions": [], "location": {"address1": "4035 Lake Boone Trl", "address2": "Ste 103", "address3": null, "city": "Raleigh", "zip_code": "27607", "country": "US", "state": "NC", "display_address": ["4035 Lake Boone Trl", "Ste 103", "Raleigh, NC 27607"]}, "phone": "+19199256900", "display_phone": "(919) 925-6900", "distance": 2586.121902834558}, {"id": "8EZcQraP5KHsmqAOJTbq_g", "alias": "habibi-grill-raleigh", "name": "Habibi Grill", "image_url": "https://s3-media1.fl.yelpcdn.com/bphoto/eXbX8bDjjcX_tmXozuucIw/o.jpg", "is_closed": false, "url": "https://www.yelp.com/biz/habibi-grill-raleigh?adjust_creative=a2JdNtFqB-C38ga_06BHvw&utm_campaign=yelp_api_v3&utm_medium=api_v3_business_search&utm_source=a2JdNtFqB-C38ga_06BHvw", "review_count": 51, "categories": [{"alias": "mideastern", "title": "Middle Eastern"}, {"alias": "mediterranean", "title": "Mediterranean"}, {"alias": "sandwiches", "title": "Sandwiches"}], "rating": 4.5, "coordinates": {"latitude": 35.78507, "longitude": -78.6935}, "transactions": ["pickup", "delivery"], "location": {"address1": "1007 Method Rd", "address2": null, "address3": "", "city": "Raleigh", "zip_code": "27606", "country": "US", "state": "NC", "display_address": ["1007 Method Rd", "Raleigh, NC 27606"]}, "phone": "+19196154824", "display_phone": "(919) 615-4824", "distance": 3273.686574106527}, {"id": "_fU5nmYiA663JKIWnRxPmg", "alias": "chick-fil-a-raleigh-22", "name": "Chick-fil-A", "image_url": "https://s3-media2.fl.yelpcdn.com/bphoto/Xb-aIVUjHq7qSysN3AacNw/o.jpg", "is_closed": false, "url": "https://www.yelp.com/biz/chick-fil-a-raleigh-22?adjust_creative=a2JdNtFqB-C38ga_06BHvw&utm_campaign=yelp_api_v3&utm_medium=api_v3_business_search&utm_source=a2JdNtFqB-C38ga_06BHvw", "review_count": 54, "categories": [{"alias": "hotdogs", "title": "Fast Food"}], "rating": 4.5, "coordinates": {"latitude": 35.816087, "longitude": -78.692885}, "transactions": [], "price": "$", "location": {"address1": "3770 Lake Boone Trl", "address2": "", "address3": "", "city": "Raleigh", "zip_code": "27607", "country": "US", "state": "NC", "display_address": ["3770 Lake Boone Trl", "Raleigh, NC 27607"]}, "phone": "+19197852799", "display_phone": "(919) 785-2799", "distance": 2979.548723434135}, {"id": "MlYhsFOAN31ud_ut4nBh9Q", "alias": "albaraka-market-and-grill-raleigh-4", "name": "Albaraka Market and Grill", "image_url": "https://s3-media1.fl.yelpcdn.com/bphoto/8LLrfD60DuBfW1Wkx1ZoIg/o.jpg", "is_closed": false, "url": "https://www.yelp.com/biz/albaraka-market-and-grill-raleigh-4?adjust_creative=a2JdNtFqB-C38ga_06BHvw&utm_campaign=yelp_api_v3&utm_medium=api_v3_business_search&utm_source=a2JdNtFqB-C38ga_06BHvw", "review_count": 74, "categories": [{"alias": "mediterranean", "title": "Mediterranean"}, {"alias": "intlgrocery", "title": "International Grocery"}, {"alias": "halal", "title": "Halal"}], "rating": 4.0, "coordinates": {"latitude": 35.7941932678223, "longitude": -78.6896209716797}, "transactions": ["pickup", "delivery"], "price": "$", "location": {"address1": "3815 Hillsborough St", "address2": "", "address3": "", "city": "Raleigh", "zip_code": "27607", "country": "US", "state": "NC", "display_address": ["3815 Hillsborough St", "Raleigh, NC 27607"]}, "phone": "+19198385155", "display_phone": "(919) 838-5155", "distance": 3093.21471761122}, {"id": "P4IwOz72Hh94-7SNg8ImPQ", "alias": "cook-out-raleigh-3", "name": "Cook Out", "image_url": "https://s3-media3.fl.yelpcdn.com/bphoto/4CwHsSgaJgO-jI9Z0p2f4A/o.jpg", "is_closed": false, "url": "https://www.yelp.com/biz/cook-out-raleigh-3?adjust_creative=a2JdNtFqB-C38ga_06BHvw&utm_campaign=yelp_api_v3&utm_medium=api_v3_business_search&utm_source=a2JdNtFqB-C38ga_06BHvw", "review_count": 122, "categories": [{"alias": "burgers", "title": "Burgers"}, {"alias": "hotdogs", "title": "Fast Food"}], "rating": 4.0, "coordinates": {"latitude": 35.78482, "longitude": -78.69305}, "transactions": ["delivery"], "price": "$", "location": {"address1": "3930 Western Blvd", "address2": "", "address3": "", "city": "Raleigh", "zip_code": "27606", "country": "US", "state": "NC", "display_address": ["3930 Western Blvd", "Raleigh, NC 27606"]}, "phone": "+19198212926", "display_phone": "(919) 821-2926", "distance": 3315.3293592012405}, {"id": "xnenfjz6XF_spKQ5Ap4xPQ", "alias": "just-salad-raleigh-4", "name": "Just Salad", "image_url": "https://s3-media3.fl.yelpcdn.com/bphoto/TJyNxm1bVgMh4Kb4RKHu1g/o.jpg", "is_closed": false, "url": "https://www.yelp.com/biz/just-salad-raleigh-4?adjust_creative=a2JdNtFqB-C38ga_06BHvw&utm_campaign=yelp_api_v3&utm_medium=api_v3_business_search&utm_source=a2JdNtFqB-C38ga_06BHvw", "review_count": 34, "categories": [{"alias": "salad", "title": "Salad"}, {"alias": "vegetarian", "title": "Vegetarian"}, {"alias": "wraps", "title": "Wraps"}], "rating": 4.5, "coordinates": {"latitude": 35.81545, "longitude": -78.69647}, "transactions": ["pickup", "delivery"], "location": {"address1": "4025 Lake Boone Trl", "address2": "Ste 120", "address3": "Marketplace At Lake Boone", "city": "Raleigh", "zip_code": "27607", "country": "US", "state": "NC", "display_address": ["4025 Lake Boone Trl", "Ste 120", "Marketplace At Lake Boone", "Raleigh, NC 27607"]}, "phone": "+19199253400", "display_phone": "(919) 925-3400", "distance": 2659.957409253382}, {"id": "w9DZdUEYOAYZ0qFtfZwsdA", "alias": "grandotes-taco-grill-raleigh", "name": "Grandotes Taco Grill", "image_url": "https://s3-media3.fl.yelpcdn.com/bphoto/3mStecbAvN8bTTaCJqEabA/o.jpg", "is_closed": false, "url": "https://www.yelp.com/biz/grandotes-taco-grill-raleigh?adjust_creative=a2JdNtFqB-C38ga_06BHvw&utm_campaign=yelp_api_v3&utm_medium=api_v3_business_search&utm_source=a2JdNtFqB-C38ga_06BHvw", "review_count": 12, "categories": [{"alias": "foodtrucks", "title": "Food Trucks"}, {"alias": "mexican", "title": "Mexican"}], "rating": 5.0, "coordinates": {"latitude": 35.7960306107998, "longitude": -78.7072999030352}, "transactions": ["delivery"], "price": "$", "location": {"address1": "1025 Blue Ridge Rd", "address2": null, "address3": "", "city": "Raleigh", "zip_code": "27607", "country": "US", "state": "NC", "display_address": ["1025 Blue Ridge Rd", "Raleigh, NC 27607"]}, "phone": "+19193061656", "display_phone": "(919) 306-1656", "distance": 1595.9908745558862}, {"id": "qiL7qdwQZICyNRaK3sxpKQ", "alias": "drive-shack-raleigh-raleigh", "name": "Drive Shack Raleigh", "image_url": "https://s3-media1.fl.yelpcdn.com/bphoto/XewMhaCTiWIaVfQ56g5N1Q/o.jpg", "is_closed": false, "url": "https://www.yelp.com/biz/drive-shack-raleigh-raleigh?adjust_creative=a2JdNtFqB-C38ga_06BHvw&utm_campaign=yelp_api_v3&utm_medium=api_v3_business_search&utm_source=a2JdNtFqB-C38ga_06BHvw", "review_count": 228, "categories": [{"alias": "golf", "title": "Golf"}, {"alias": "sportsbars", "title": "Sports Bars"}, {"alias": "newamerican", "title": "American (New)"}], "rating": 3.5, "coordinates": {"latitude": 35.8001549, "longitude": -78.7377282}, "transactions": ["delivery"], "price": "$$", "location": {"address1": "6901 Play Golf Way", "address2": "", "address3": null, "city": "Raleigh", "zip_code": "27607", "country": "US", "state": "NC", "display_address": ["6901 Play Golf Way", "Raleigh, NC 27607"]}, "phone": "+19843298229", "display_phone": "(984) 329-8229", "distance": 1466.6934371333846}, {"id": "C3Hzh1kc8hVLOguPRW9fMg", "alias": "amedeos-italian-restaurant-raleigh", "name": "Amedeo's Italian Restaurant", "image_url": "https://s3-media3.fl.yelpcdn.com/bphoto/YBG_una_eAESKgMRaPDfig/o.jpg", "is_closed": false, "url": "https://www.yelp.com/biz/amedeos-italian-restaurant-raleigh?adjust_creative=a2JdNtFqB-C38ga_06BHvw&utm_campaign=yelp_api_v3&utm_medium=api_v3_business_search&utm_source=a2JdNtFqB-C38ga_06BHvw", "review_count": 179, "categories": [{"alias": "italian", "title": "Italian"}, {"alias": "pizza", "title": "Pizza"}], "rating": 3.5, "coordinates": {"latitude": 35.784657, "longitude": -78.689811}, "transactions": ["pickup", "delivery"], "price": "$$", "location": {"address1": "3905 Western Blvd", "address2": "", "address3": "", "city": "Raleigh", "zip_code": "27606", "country": "US", "state": "NC", "display_address": ["3905 Western Blvd", "Raleigh, NC 27606"]}, "phone": "+19198510473", "display_phone": "(919) 851-0473", "distance": 3565.382917923645}, {"id": "0IwfwbSxR40h8U6i_dQFPQ", "alias": "shahrazad-hookah-raleigh-3", "name": "Shahrazad Hookah", "image_url": "https://s3-media1.fl.yelpcdn.com/bphoto/6HGtci3u5zigZ0DE5h-Epg/o.jpg", "is_closed": false, "url": "https://www.yelp.com/biz/shahrazad-hookah-raleigh-3?adjust_creative=a2JdNtFqB-C38ga_06BHvw&utm_campaign=yelp_api_v3&utm_medium=api_v3_business_search&utm_source=a2JdNtFqB-C38ga_06BHvw", "review_count": 60, "categories": [{"alias": "arabian", "title": "Arabian"}, {"alias": "hookah_bars", "title": "Hookah Bars"}, {"alias": "coffee", "title": "Coffee & Tea"}], "rating": 4.0, "coordinates": {"latitude": 35.7943192, "longitude": -78.6899719}, "transactions": ["delivery"], "price": "$$", "location": {"address1": "3823 Hillsborough St", "address2": null, "address3": "", "city": "Raleigh", "zip_code": "27607", "country": "US", "state": "NC", "display_address": ["3823 Hillsborough St", "Raleigh, NC 27607"]}, "phone": "+19198568559", "display_phone": "(919) 856-8559", "distance": 3052.1619680324034}, {"id": "pSotegFbUVBKODrASdqc5A", "alias": "sushi-nine-raleigh", "name": "Sushi Nine", "image_url": "https://s3-media4.fl.yelpcdn.com/bphoto/PRgKwjUGHZuIWETSb81kZQ/o.jpg", "is_closed": false, "url": "https://www.yelp.com/biz/sushi-nine-raleigh?adjust_creative=a2JdNtFqB-C38ga_06BHvw&utm_campaign=yelp_api_v3&utm_medium=api_v3_business_search&utm_source=a2JdNtFqB-C38ga_06BHvw", "review_count": 351, "categories": [{"alias": "sushi", "title": "Sushi Bars"}, {"alias": "asianfusion", "title": "Asian Fusion"}, {"alias": "thai", "title": "Thai"}], "rating": 3.5, "coordinates": {"latitude": 35.78531, "longitude": -78.68935}, "transactions": ["pickup", "delivery"], "price": "$$", "location": {"address1": "3812 Western Blvd", "address2": "", "address3": "", "city": "Raleigh", "zip_code": "27606", "country": "US", "state": "NC", "display_address": ["3812 Western Blvd", "Raleigh, NC 27606"]}, "phone": "+19196153100", "display_phone": "(919) 615-3100", "distance": 3578.7174211161755}, {"id": "xJHTNLA7W8kK8Rgr2bQmSQ", "alias": "roly-poly-raleigh", "name": "Roly Poly", "image_url": "https://s3-media4.fl.yelpcdn.com/bphoto/5TatoJSAkKHLE4VkhDemrA/o.jpg", "is_closed": false, "url": "https://www.yelp.com/biz/roly-poly-raleigh?adjust_creative=a2JdNtFqB-C38ga_06BHvw&utm_campaign=yelp_api_v3&utm_medium=api_v3_business_search&utm_source=a2JdNtFqB-C38ga_06BHvw", "review_count": 37, "categories": [{"alias": "sandwiches", "title": "Sandwiches"}], "rating": 4.0, "coordinates": {"latitude": 35.82518, "longitude": -78.70322}, "transactions": ["pickup", "delivery"], "price": "$", "location": {"address1": "4040 Ed Dr", "address2": "Ste 125", "address3": "", "city": "Raleigh", "zip_code": "27612", "country": "US", "state": "NC", "display_address": ["4040 Ed Dr", "Ste 125", "Raleigh, NC 27612"]}, "phone": "+19197850441", "display_phone": "(919) 785-0441", "distance": 2944.551426235}, {"id": "3d4bp4TNZ6wVWi03huNKuQ", "alias": "jaipur-indian-cuisine-raleigh", "name": "Jaipur Indian Cuisine", "image_url": "https://s3-media3.fl.yelpcdn.com/bphoto/_SbebZLpfKB7zDmbhI3Kxw/o.jpg", "is_closed": false, "url": "https://www.yelp.com/biz/jaipur-indian-cuisine-raleigh?adjust_creative=a2JdNtFqB-C38ga_06BHvw&utm_campaign=yelp_api_v3&utm_medium=api_v3_business_search&utm_source=a2JdNtFqB-C38ga_06BHvw", "review_count": 30, "categories": [{"alias": "indpak", "title": "Indian"}, {"alias": "buffets", "title": "Buffets"}], "rating": 4.0, "coordinates": {"latitude": 35.80135, "longitude": -78.70589}, "transactions": ["pickup", "delivery"], "location": {"address1": "1520 Blue Ridge Rd", "address2": null, "address3": "", "city": "Raleigh", "zip_code": "27607", "country": "US", "state": "NC", "display_address": ["1520 Blue Ridge Rd", "Raleigh, NC 27607"]}, "phone": "+19197474922", "display_phone": "(919) 747-4922", "distance": 1468.3352942306333}, {"id": "LDhMVyXmI6ipBD_cMrhOSg", "alias": "sushi-thai-restaurant-raleigh", "name": "Sushi-Thai Restaurant", "image_url": "https://s3-media1.fl.yelpcdn.com/bphoto/6Vh7T7VQDDV8kHiGJduxgA/o.jpg", "is_closed": false, "url": "https://www.yelp.com/biz/sushi-thai-restaurant-raleigh?adjust_creative=a2JdNtFqB-C38ga_06BHvw&utm_campaign=yelp_api_v3&utm_medium=api_v3_business_search&utm_source=a2JdNtFqB-C38ga_06BHvw", "review_count": 192, "categories": [{"alias": "sushi", "title": "Sushi Bars"}, {"alias": "thai", "title": "Thai"}, {"alias": "japanese", "title": "Japanese"}], "rating": 3.5, "coordinates": {"latitude": 35.8171224, "longitude": -78.6939693}, "transactions": ["pickup", "delivery"], "price": "$$", "location": {"address1": "2434 Wycliff Rd", "address2": "", "address3": "", "city": "Raleigh", "zip_code": "27613", "country": "US", "state": "NC", "display_address": ["2434 Wycliff Rd", "Raleigh, NC 27613"]}, "phone": "+19197898180", "display_phone": "(919) 789-8180", "distance": 3069.5739216014417}, {"id": "sUXGdUeobPeForzPI01oXQ", "alias": "bojangles-raleigh", "name": "Bojangles", "image_url": "https://s3-media3.fl.yelpcdn.com/bphoto/ocaMtP7d3dXObT22WGnGfA/o.jpg", "is_closed": false, "url": "https://www.yelp.com/biz/bojangles-raleigh?adjust_creative=a2JdNtFqB-C38ga_06BHvw&utm_campaign=yelp_api_v3&utm_medium=api_v3_business_search&utm_source=a2JdNtFqB-C38ga_06BHvw", "review_count": 68, "categories": [{"alias": "hotdogs", "title": "Fast Food"}], "rating": 3.5, "coordinates": {"latitude": 35.785205, "longitude": -78.688743}, "transactions": [], "price": "$", "location": {"address1": "3808 Western Blvd", "address2": "", "address3": "", "city": "Raleigh", "zip_code": "27606", "country": "US", "state": "NC", "display_address": ["3808 Western Blvd", "Raleigh, NC 27606"]}, "phone": "+19196648613", "display_phone": "(919) 664-8613", "distance": 3612.30101683016}, {"id": "NqXji88o_tA2fzpopxJe6A", "alias": "village-deli-and-grill-lake-boone-trail-raleigh", "name": "Village Deli & Grill - Lake Boone Trail", "image_url": "https://s3-media2.fl.yelpcdn.com/bphoto/82p2b6bXJRrU7f1RU5ZuIA/o.jpg", "is_closed": false, "url": "https://www.yelp.com/biz/village-deli-and-grill-lake-boone-trail-raleigh?adjust_creative=a2JdNtFqB-C38ga_06BHvw&utm_campaign=yelp_api_v3&utm_medium=api_v3_business_search&utm_source=a2JdNtFqB-C38ga_06BHvw", "review_count": 66, "categories": [{"alias": "delis", "title": "Delis"}, {"alias": "newamerican", "title": "American (New)"}, {"alias": "sandwiches", "title": "Sandwiches"}], "rating": 3.5, "coordinates": {"latitude": 35.81779, "longitude": -78.69306}, "transactions": ["delivery"], "price": "$$", "location": {"address1": "2500 Wycliff Rd", "address2": "", "address3": "", "city": "Raleigh", "zip_code": "27607", "country": "US", "state": "NC", "display_address": ["2500 Wycliff Rd", "Raleigh, NC 27607"]}, "phone": "+19198031245", "display_phone": "(919) 803-1245", "distance": 3067.0893547492365}, {"id": "hVjXVnLAele62107K92QSg", "alias": "backyard-bistro-raleigh", "name": "Backyard Bistro", "image_url": "https://s3-media3.fl.yelpcdn.com/bphoto/ngHDRssgQwa63hE1E4fm3A/o.jpg", "is_closed": false, "url": "https://www.yelp.com/biz/backyard-bistro-raleigh?adjust_creative=a2JdNtFqB-C38ga_06BHvw&utm_campaign=yelp_api_v3&utm_medium=api_v3_business_search&utm_source=a2JdNtFqB-C38ga_06BHvw", "review_count": 266, "categories": [{"alias": "tradamerican", "title": "American (Traditional)"}, {"alias": "sportsbars", "title": "Sports Bars"}], "rating": 3.0, "coordinates": {"latitude": 35.7989654541016, "longitude": -78.7255477905273}, "transactions": ["pickup", "delivery"], "price": "$$", "location": {"address1": "1235 Hurricane Alley Way", "address2": "", "address3": "", "city": "Raleigh", "zip_code": "27607", "country": "US", "state": "NC", "display_address": ["1235 Hurricane Alley Way", "Raleigh, NC 27607"]}, "phone": "+19198516203", "display_phone": "(919) 851-6203", "distance": 573.7943645715287}, {"id": "N4pnBpZfDd3Q0og5ZwzlXg", "alias": "tenko-japan-raleigh", "name": "Tenko Japan", "image_url": "https://s3-media2.fl.yelpcdn.com/bphoto/ilt5fLn8xcfZq2M7TYV8CA/o.jpg", "is_closed": false, "url": "https://www.yelp.com/biz/tenko-japan-raleigh?adjust_creative=a2JdNtFqB-C38ga_06BHvw&utm_campaign=yelp_api_v3&utm_medium=api_v3_business_search&utm_source=a2JdNtFqB-C38ga_06BHvw", "review_count": 85, "categories": [{"alias": "japanese", "title": "Japanese"}], "rating": 3.5, "coordinates": {"latitude": 35.82518, "longitude": -78.70322}, "transactions": ["delivery"], "price": "$", "location": {"address1": "4040 Ed Dr", "address2": "", "address3": "", "city": "Raleigh", "zip_code": "27612", "country": "US", "state": "NC", "display_address": ["4040 Ed Dr", "Raleigh, NC 27612"]}, "phone": "+19197815181", "display_phone": "(919) 781-5181", "distance": 2944.551426235}, {"id": "wbQmPI17q06XuQ2iThFaHQ", "alias": "spring-rolls-raleigh-2", "name": "Spring Rolls", "image_url": "https://s3-media2.fl.yelpcdn.com/bphoto/HJxvXzc8-H52G-vUxnc4tg/o.jpg", "is_closed": false, "url": "https://www.yelp.com/biz/spring-rolls-raleigh-2?adjust_creative=a2JdNtFqB-C38ga_06BHvw&utm_campaign=yelp_api_v3&utm_medium=api_v3_business_search&utm_source=a2JdNtFqB-C38ga_06BHvw", "review_count": 128, "categories": [{"alias": "asianfusion", "title": "Asian Fusion"}, {"alias": "chinese", "title": "Chinese"}, {"alias": "sushi", "title": "Sushi Bars"}], "rating": 3.5, "coordinates": {"latitude": 35.8068251292269, "longitude": -78.7298310619018}, "transactions": ["pickup", "delivery"], "price": "$$", "location": {"address1": "5433 Wade Park Blvd", "address2": "Unit 280", "address3": "", "city": "Raleigh", "zip_code": "27607", "country": "US", "state": "NC", "display_address": ["5433 Wade Park Blvd", "Unit 280", "Raleigh, NC 27607"]}, "phone": "+19198031118", "display_phone": "(919) 803-1118", "distance": 810.3515239104402}, {"id": "85avHCVQEY8FuGE1y2E7-g", "alias": "wade-park-cafe-raleigh", "name": "Wade Park Cafe", "image_url": "https://s3-media1.fl.yelpcdn.com/bphoto/W5eF8ch9GV1L_o_XZZmEyw/o.jpg", "is_closed": false, "url": "https://www.yelp.com/biz/wade-park-cafe-raleigh?adjust_creative=a2JdNtFqB-C38ga_06BHvw&utm_campaign=yelp_api_v3&utm_medium=api_v3_business_search&utm_source=a2JdNtFqB-C38ga_06BHvw", "review_count": 43, "categories": [{"alias": "sandwiches", "title": "Sandwiches"}, {"alias": "breakfast_brunch", "title": "Breakfast & Brunch"}], "rating": 4.0, "coordinates": {"latitude": 35.808239, "longitude": -78.7286911}, "transactions": ["delivery"], "price": "$", "location": {"address1": "5430 Wade Park Blvd", "address2": "", "address3": "", "city": "Raleigh", "zip_code": "27607", "country": "US", "state": "NC", "display_address": ["5430 Wade Park Blvd", "Raleigh, NC 27607"]}, "phone": "+19198595220", "display_phone": "(919) 859-5220", "distance": 807.032633925492}, {"id": "zg2T4IJxbZcTCnqsxgqBcw", "alias": "char-grill-two-raleigh", "name": "Char-Grill Two", "image_url": "https://s3-media2.fl.yelpcdn.com/bphoto/68YbiK3FzJwDWrRJ--xbTA/o.jpg", "is_closed": false, "url": "https://www.yelp.com/biz/char-grill-two-raleigh?adjust_creative=a2JdNtFqB-C38ga_06BHvw&utm_campaign=yelp_api_v3&utm_medium=api_v3_business_search&utm_source=a2JdNtFqB-C38ga_06BHvw", "review_count": 66, "categories": [{"alias": "burgers", "title": "Burgers"}], "rating": 3.5, "coordinates": {"latitude": 35.825553894043, "longitude": -78.7058029174805}, "transactions": ["delivery"], "price": "$", "location": {"address1": "3211 Edwards Mill Rd", "address2": "", "address3": "", "city": "Raleigh", "zip_code": "27612", "country": "US", "state": "NC", "display_address": ["3211 Edwards Mill Rd", "Raleigh, NC 27612"]}, "phone": "+19197812945", "display_phone": "(919) 781-2945", "distance": 2869.065745984189}, {"id": "5MHvU5SFyh98UHQQGim7sg", "alias": "sukhadias-indian-cuisine-raleigh", "name": "Sukhadia's Indian Cuisine", "image_url": "https://s3-media2.fl.yelpcdn.com/bphoto/1GGnGhoXzgjzvDcqOAj5cg/o.jpg", "is_closed": false, "url": "https://www.yelp.com/biz/sukhadias-indian-cuisine-raleigh?adjust_creative=a2JdNtFqB-C38ga_06BHvw&utm_campaign=yelp_api_v3&utm_medium=api_v3_business_search&utm_source=a2JdNtFqB-C38ga_06BHvw", "review_count": 59, "categories": [{"alias": "indpak", "title": "Indian"}, {"alias": "vegetarian", "title": "Vegetarian"}, {"alias": "vegan", "title": "Vegan"}], "rating": 3.5, "coordinates": {"latitude": 35.7887151275854, "longitude": -78.743955450967}, "transactions": ["delivery"], "price": "$", "location": {"address1": "6715 Hillsborough St", "address2": "Unit 102", "address3": "", "city": "Raleigh", "zip_code": "27606", "country": "US", "state": "NC", "display_address": ["6715 Hillsborough St", "Unit 102", "Raleigh, NC 27606"]}, "phone": "+19196150611", "display_phone": "(919) 615-0611", "distance": 2565.764809077367}, {"id": "1FpDx8M47V4pyU8WRkPvag", "alias": "buffalo-brothers-raleigh", "name": "Buffalo Brothers", "image_url": "https://s3-media2.fl.yelpcdn.com/bphoto/ius0vNQITe058z85R4C-zQ/o.jpg", "is_closed": false, "url": "https://www.yelp.com/biz/buffalo-brothers-raleigh?adjust_creative=a2JdNtFqB-C38ga_06BHvw&utm_campaign=yelp_api_v3&utm_medium=api_v3_business_search&utm_source=a2JdNtFqB-C38ga_06BHvw", "review_count": 177, "categories": [{"alias": "sportsbars", "title": "Sports Bars"}, {"alias": "tradamerican", "title": "American (Traditional)"}], "rating": 3.0, "coordinates": {"latitude": 35.81545, "longitude": -78.69647}, "transactions": ["pickup", "delivery"], "price": "$$", "location": {"address1": "4025 Lake Boone Trl", "address2": "Ste 101", "address3": "", "city": "Raleigh", "zip_code": "27607", "country": "US", "state": "NC", "display_address": ["4025 Lake Boone Trl", "Ste 101", "Raleigh, NC 27607"]}, "phone": "+19197824949", "display_phone": "(919) 782-4949", "distance": 2659.957409253382}, {"id": "H7ypxWYecQbJ8Lnu6kBYHA", "alias": "firehouse-subs-raleigh-3", "name": "Firehouse Subs", "image_url": "https://s3-media2.fl.yelpcdn.com/bphoto/GQmqsFtilElmCOzoGJihdg/o.jpg", "is_closed": false, "url": "https://www.yelp.com/biz/firehouse-subs-raleigh-3?adjust_creative=a2JdNtFqB-C38ga_06BHvw&utm_campaign=yelp_api_v3&utm_medium=api_v3_business_search&utm_source=a2JdNtFqB-C38ga_06BHvw", "review_count": 30, "categories": [{"alias": "hotdogs", "title": "Fast Food"}, {"alias": "delis", "title": "Delis"}, {"alias": "sandwiches", "title": "Sandwiches"}], "rating": 3.5, "coordinates": {"latitude": 35.82561, "longitude": -78.70463}, "transactions": ["pickup", "delivery"], "price": "$", "location": {"address1": "4111 Ed Dr", "address2": null, "address3": null, "city": "Raleigh", "zip_code": "27612", "country": "US", "state": "NC", "display_address": ["4111 Ed Dr", "Raleigh, NC 27612"]}, "phone": "+19197837102", "display_phone": "(919) 783-7102", "distance": 2925.1312983399707}, {"id": "Lf_sdyQfrlVjqU2onxUZUA", "alias": "strombolis-express-raleigh-2", "name": "Stromboli's Express", "image_url": "https://s3-media3.fl.yelpcdn.com/bphoto/6d8PhlwYyw5YRpwWgvOBYA/o.jpg", "is_closed": false, "url": "https://www.yelp.com/biz/strombolis-express-raleigh-2?adjust_creative=a2JdNtFqB-C38ga_06BHvw&utm_campaign=yelp_api_v3&utm_medium=api_v3_business_search&utm_source=a2JdNtFqB-C38ga_06BHvw", "review_count": 71, "categories": [{"alias": "italian", "title": "Italian"}, {"alias": "pizza", "title": "Pizza"}], "rating": 3.0, "coordinates": {"latitude": 35.8269081115723, "longitude": -78.7034530639648}, "transactions": ["delivery"], "price": "$", "location": {"address1": "3434 Edwards Mill Rd", "address2": "Ste 114", "address3": null, "city": "Raleigh", "zip_code": "27612", "country": "US", "state": "NC", "display_address": ["3434 Edwards Mill Rd", "Ste 114", "Raleigh, NC 27612"]}, "phone": "+19197857075", "display_phone": "(919) 785-7075", "distance": 3116.74625200339}, {"id": "Ssia8rx-PpoL2QRkPjBckg", "alias": "qdoba-mexican-eats-raleigh-2", "name": "QDOBA Mexican Eats", "image_url": "https://s3-media1.fl.yelpcdn.com/bphoto/B2jwPc-kFIFBsZdHhz0rPg/o.jpg", "is_closed": false, "url": "https://www.yelp.com/biz/qdoba-mexican-eats-raleigh-2?adjust_creative=a2JdNtFqB-C38ga_06BHvw&utm_campaign=yelp_api_v3&utm_medium=api_v3_business_search&utm_source=a2JdNtFqB-C38ga_06BHvw", "review_count": 39, "categories": [{"alias": "hotdogs", "title": "Fast Food"}, {"alias": "mexican", "title": "Mexican"}], "rating": 3.5, "coordinates": {"latitude": 35.8246425, "longitude": -78.7073097}, "transactions": ["pickup", "delivery"], "price": "$", "location": {"address1": "3101 Edwards Mill Rd", "address2": "Ste 102", "address3": null, "city": "Raleigh", "zip_code": "27612", "country": "US", "state": "NC", "display_address": ["3101 Edwards Mill Rd", "Ste 102", "Raleigh, NC 27612"]}, "phone": "+19197819220", "display_phone": "(919) 781-9220", "distance": 2712.1656426817185}, {"id": "EzCsr6zphrrVS1RSf2Opxg", "alias": "waffle-house-raleigh-3", "name": "Waffle House", "image_url": "https://s3-media2.fl.yelpcdn.com/bphoto/qF6VS-w58nbisqDdHvICdA/o.jpg", "is_closed": false, "url": "https://www.yelp.com/biz/waffle-house-raleigh-3?adjust_creative=a2JdNtFqB-C38ga_06BHvw&utm_campaign=yelp_api_v3&utm_medium=api_v3_business_search&utm_source=a2JdNtFqB-C38ga_06BHvw", "review_count": 49, "categories": [{"alias": "breakfast_brunch", "title": "Breakfast & Brunch"}, {"alias": "diners", "title": "Diners"}, {"alias": "tradamerican", "title": "American (Traditional)"}], "rating": 3.5, "coordinates": {"latitude": 35.794471, "longitude": -78.690721}, "transactions": ["delivery"], "price": "$", "location": {"address1": "3909 Hillsborough St", "address2": "", "address3": "", "city": "Raleigh", "zip_code": "27607", "country": "US", "state": "NC", "display_address": ["3909 Hillsborough St", "Raleigh, NC 27607"]}, "phone": "+19198331247", "display_phone": "(919) 833-1247", "distance": 2983.358685262014}, {"id": "VofOzn4iEv-VobqabQuZng", "alias": "honest-abes-kitchen-and-bar-raleigh", "name": "Honest Abe's Kitchen & Bar", "image_url": "https://s3-media4.fl.yelpcdn.com/bphoto/wElSdnaxs_BjpBYvpMpWTA/o.jpg", "is_closed": false, "url": "https://www.yelp.com/biz/honest-abes-kitchen-and-bar-raleigh?adjust_creative=a2JdNtFqB-C38ga_06BHvw&utm_campaign=yelp_api_v3&utm_medium=api_v3_business_search&utm_source=a2JdNtFqB-C38ga_06BHvw", "review_count": 83, "categories": [{"alias": "pizza", "title": "Pizza"}, {"alias": "burgers", "title": "Burgers"}, {"alias": "beerbar", "title": "Beer Bar"}], "rating": 3.0, "coordinates": {"latitude": 35.80698, "longitude": -78.73032}, "transactions": ["delivery"], "location": {"address1": "5433 Wade Park Blvd", "address2": "", "address3": null, "city": "Raleigh", "zip_code": "27607", "country": "US", "state": "NC", "display_address": ["5433 Wade Park Blvd", "Raleigh, NC 27607"]}, "phone": "+19199778755", "display_phone": "(919) 977-8755", "distance": 857.3246222317206}, {"id": "Dw_Bs14aVFEgh69nCo5u3A", "alias": "lilys-taqueria-raleigh", "name": "Lilys taqueria", "image_url": "https://s3-media4.fl.yelpcdn.com/bphoto/_c_X7hpRAyaS3pmfStcstA/o.jpg", "is_closed": false, "url": "https://www.yelp.com/biz/lilys-taqueria-raleigh?adjust_creative=a2JdNtFqB-C38ga_06BHvw&utm_campaign=yelp_api_v3&utm_medium=api_v3_business_search&utm_source=a2JdNtFqB-C38ga_06BHvw", "review_count": 9, "categories": [{"alias": "mexican", "title": "Mexican"}, {"alias": "foodtrucks", "title": "Food Trucks"}], "rating": 4.5, "coordinates": {"latitude": 35.77765, "longitude": -78.73247}, "transactions": [], "location": {"address1": "430 Buck Jones Rd", "address2": "", "address3": null, "city": "Raleigh", "zip_code": "27606", "country": "US", "state": "NC", "display_address": ["430 Buck Jones Rd", "Raleigh, NC 27606"]}, "phone": "", "display_phone": "", "distance": 3006.1934977288033}, {"id": "wMGSZxvjinfgFlR11XnxGA", "alias": "almadina-supermarket-raleigh", "name": "Almadina Supermarket", "image_url": "https://s3-media2.fl.yelpcdn.com/bphoto/T6acFEIarTKN_oZ2Hu3EIg/o.jpg", "is_closed": false, "url": "https://www.yelp.com/biz/almadina-supermarket-raleigh?adjust_creative=a2JdNtFqB-C38ga_06BHvw&utm_campaign=yelp_api_v3&utm_medium=api_v3_business_search&utm_source=a2JdNtFqB-C38ga_06BHvw", "review_count": 17, "categories": [{"alias": "grocery", "title": "Grocery"}, {"alias": "halal", "title": "Halal"}, {"alias": "meats", "title": "Meat Shops"}], "rating": 4.0, "coordinates": {"latitude": 35.7848511, "longitude": -78.6934891}, "transactions": ["delivery"], "price": "$", "location": {"address1": "1019 Method Rd", "address2": "", "address3": "", "city": "Raleigh", "zip_code": "27606", "country": "US", "state": "NC", "display_address": ["1019 Method Rd", "Raleigh, NC 27606"]}, "phone": "+19197556220", "display_phone": "(919) 755-6220", "distance": 3291.3851656231714}, {"id": "vmyT6FrHQqyX1ACYOWzSzA", "alias": "rudinos-sports-corner-raleigh", "name": "Rudino's Sports Corner", "image_url": "https://s3-media4.fl.yelpcdn.com/bphoto/DuI8dqhfhT8mrrGznqM78A/o.jpg", "is_closed": false, "url": "https://www.yelp.com/biz/rudinos-sports-corner-raleigh?adjust_creative=a2JdNtFqB-C38ga_06BHvw&utm_campaign=yelp_api_v3&utm_medium=api_v3_business_search&utm_source=a2JdNtFqB-C38ga_06BHvw", "review_count": 81, "categories": [{"alias": "sandwiches", "title": "Sandwiches"}, {"alias": "pizza", "title": "Pizza"}, {"alias": "sportsbars", "title": "Sports Bars"}], "rating": 3.0, "coordinates": {"latitude": 35.82544, "longitude": -78.70695}, "transactions": ["delivery"], "price": "$$", "location": {"address1": "3101-101 Edwards Mill Rd", "address2": "", "address3": "Olde Raleigh Village", "city": "Raleigh", "zip_code": "27612", "country": "US", "state": "NC", "display_address": ["3101-101 Edwards Mill Rd", "Olde Raleigh Village", "Raleigh, NC 27612"]}, "phone": "+19197864235", "display_phone": "(919) 786-4235", "distance": 2720.243379426773}, {"id": "evejpptWtf1d035M3Zi42A", "alias": "biscuitville-raleigh-4", "name": "Biscuitville", "image_url": "https://s3-media2.fl.yelpcdn.com/bphoto/Sok9amNObPfw9Sr2-JqjOQ/o.jpg", "is_closed": false, "url": "https://www.yelp.com/biz/biscuitville-raleigh-4?adjust_creative=a2JdNtFqB-C38ga_06BHvw&utm_campaign=yelp_api_v3&utm_medium=api_v3_business_search&utm_source=a2JdNtFqB-C38ga_06BHvw", "review_count": 17, "categories": [{"alias": "breakfast_brunch", "title": "Breakfast & Brunch"}], "rating": 4.0, "coordinates": {"latitude": 35.78518, "longitude": -78.692565}, "transactions": ["delivery"], "location": {"address1": "3928 Western Blvd", "address2": "", "address3": null, "city": "Raleigh", "zip_code": "27606", "country": "US", "state": "NC", "display_address": ["3928 Western Blvd", "Raleigh, NC 27606"]}, "phone": "+19194396986", "display_phone": "(919) 439-6986", "distance": 3331.019756525854}, {"id": "q1hB8N7Ae-WgJzdqLH97dA", "alias": "jersey-mikes-subs-raleigh-22", "name": "Jersey Mike's Subs", "image_url": "https://s3-media3.fl.yelpcdn.com/bphoto/AJgJJLsKI6fK43v3taDU6g/o.jpg", "is_closed": false, "url": "https://www.yelp.com/biz/jersey-mikes-subs-raleigh-22?adjust_creative=a2JdNtFqB-C38ga_06BHvw&utm_campaign=yelp_api_v3&utm_medium=api_v3_business_search&utm_source=a2JdNtFqB-C38ga_06BHvw", "review_count": 16, "categories": [{"alias": "hotdogs", "title": "Fast Food"}, {"alias": "delis", "title": "Delis"}, {"alias": "sandwiches", "title": "Sandwiches"}], "rating": 3.5, "coordinates": {"latitude": 35.825931, "longitude": -78.706584}, "transactions": [], "price": "$", "location": {"address1": "3201 Edwards Mill Rd", "address2": "", "address3": null, "city": "Raleigh", "zip_code": "27612", "country": "US", "state": "NC", "display_address": ["3201 Edwards Mill Rd", "Raleigh, NC 27612"]}, "phone": "+19842025627", "display_phone": "(984) 202-5627", "distance": 2869.198056173292}, {"id": "Psx3VsrGSH42QwNrgS0v-w", "alias": "hong-kong-restaurant-raleigh", "name": "Hong Kong Restaurant", "image_url": "https://s3-media2.fl.yelpcdn.com/bphoto/qmguHVk_16X5xnaB_qdDjA/o.jpg", "is_closed": false, "url": "https://www.yelp.com/biz/hong-kong-restaurant-raleigh?adjust_creative=a2JdNtFqB-C38ga_06BHvw&utm_campaign=yelp_api_v3&utm_medium=api_v3_business_search&utm_source=a2JdNtFqB-C38ga_06BHvw", "review_count": 17, "categories": [{"alias": "chinese", "title": "Chinese"}], "rating": 3.5, "coordinates": {"latitude": 35.784126, "longitude": -78.720512}, "transactions": ["pickup", "delivery"], "price": "$", "location": {"address1": "5563 Western Blvd", "address2": "Ste 11A", "address3": "", "city": "Raleigh", "zip_code": "27606", "country": "US", "state": "NC", "display_address": ["5563 Western Blvd", "Ste 11A", "Raleigh, NC 27606"]}, "phone": "+19198511795", "display_phone": "(919) 851-1795", "distance": 2134.986957934583}, {"id": "9xudD_wbeWOiazf9wCFrJg", "alias": "china-star-cafe-raleigh", "name": "China Star Cafe", "image_url": "https://s3-media4.fl.yelpcdn.com/bphoto/Yn3DHM2CI94C_O40bZOL3g/o.jpg", "is_closed": false, "url": "https://www.yelp.com/biz/china-star-cafe-raleigh?adjust_creative=a2JdNtFqB-C38ga_06BHvw&utm_campaign=yelp_api_v3&utm_medium=api_v3_business_search&utm_source=a2JdNtFqB-C38ga_06BHvw", "review_count": 48, "categories": [{"alias": "chinese", "title": "Chinese"}], "rating": 3.0, "coordinates": {"latitude": 35.8243827, "longitude": -78.7066926}, "transactions": ["delivery"], "price": "$", "location": {"address1": "3121 Edwards Mill Rd", "address2": "", "address3": "", "city": "Raleigh", "zip_code": "27612", "country": "US", "state": "NC", "display_address": ["3121 Edwards Mill Rd", "Raleigh, NC 27612"]}, "phone": "+19197811448", "display_phone": "(919) 781-1448", "distance": 2791.0990877933195}, {"id": "NIis8ziftYXWiOmFVxZJWQ", "alias": "jasmin-and-olivz-mediterranean-raleigh-2", "name": "Jasmin & Olivz Mediterranean", "image_url": "https://s3-media4.fl.yelpcdn.com/bphoto/TlAIWlS-koFXWGswZenDLA/o.jpg", "is_closed": false, "url": "https://www.yelp.com/biz/jasmin-and-olivz-mediterranean-raleigh-2?adjust_creative=a2JdNtFqB-C38ga_06BHvw&utm_campaign=yelp_api_v3&utm_medium=api_v3_business_search&utm_source=a2JdNtFqB-C38ga_06BHvw", "review_count": 8, "categories": [{"alias": "mediterranean", "title": "Mediterranean"}, {"alias": "greek", "title": "Greek"}, {"alias": "lebanese", "title": "Lebanese"}], "rating": 4.0, "coordinates": {"latitude": 35.815006, "longitude": -78.706565}, "transactions": ["pickup", "delivery"], "location": {"address1": "2501 Blue Ridge Rd", "address2": "", "address3": "Fifth Third Bank", "city": "Raleigh", "zip_code": "27607", "country": "US", "state": "NC", "display_address": ["2501 Blue Ridge Rd", "Fifth Third Bank", "Raleigh, NC 27607"]}, "phone": "+19198008599", "display_phone": "(919) 800-8599", "distance": 1903.909465288414}, {"id": "cVRwjtfs-UuKsYGT8S113A", "alias": "dominos-pizza-raleigh-12", "name": "Domino's Pizza", "image_url": "https://s3-media1.fl.yelpcdn.com/bphoto/Vde0dqK0xdQ10nUwLLdKdw/o.jpg", "is_closed": false, "url": "https://www.yelp.com/biz/dominos-pizza-raleigh-12?adjust_creative=a2JdNtFqB-C38ga_06BHvw&utm_campaign=yelp_api_v3&utm_medium=api_v3_business_search&utm_source=a2JdNtFqB-C38ga_06BHvw", "review_count": 31, "categories": [{"alias": "pizza", "title": "Pizza"}, {"alias": "chicken_wings", "title": "Chicken Wings"}, {"alias": "sandwiches", "title": "Sandwiches"}], "rating": 2.5, "coordinates": {"latitude": 35.786037, "longitude": -78.69328}, "transactions": ["pickup", "delivery"], "price": "$", "location": {"address1": "3948 Western Blvd", "address2": null, "address3": null, "city": "Raleigh", "zip_code": "27606", "country": "US", "state": "NC", "display_address": ["3948 Western Blvd", "Raleigh, NC 27606"]}, "phone": "+19198993599", "display_phone": "(919) 899-3599", "distance": 3222.173152779676}, {"id": "xdV61PZbn-0I1YoAJEkArw", "alias": "kocina-food-truck-raleigh", "name": "KocinA Food Truck", "image_url": "https://s3-media2.fl.yelpcdn.com/bphoto/jHFwYU5Hck0JYNQ-p_bZ7w/o.jpg", "is_closed": false, "url": "https://www.yelp.com/biz/kocina-food-truck-raleigh?adjust_creative=a2JdNtFqB-C38ga_06BHvw&utm_campaign=yelp_api_v3&utm_medium=api_v3_business_search&utm_source=a2JdNtFqB-C38ga_06BHvw", "review_count": 13, "categories": [{"alias": "foodtrucks", "title": "Food Trucks"}, {"alias": "empanadas", "title": "Empanadas"}, {"alias": "hotdog", "title": "Hot Dogs"}], "rating": 3.0, "coordinates": {"latitude": 35.814876, "longitude": -78.706245}, "transactions": [], "price": "$$", "location": {"address1": "2501 Blue Ridge Rd", "address2": "Ste G190", "address3": "", "city": "Raleigh", "zip_code": "27607", "country": "US", "state": "NC", "display_address": ["2501 Blue Ridge Rd", "Ste G190", "Raleigh, NC 27607"]}, "phone": "+19199066216", "display_phone": "(919) 906-6216", "distance": 1903.9094652875613}, {"id": "2ospc7M5IAvrCRcfyFvYUA", "alias": "teddys-new-yorker-pizza-raleigh", "name": "Teddy's New Yorker Pizza", "image_url": "https://s3-media2.fl.yelpcdn.com/bphoto/JohHpHMslWx6kU9R1K-xOw/o.jpg", "is_closed": false, "url": "https://www.yelp.com/biz/teddys-new-yorker-pizza-raleigh?adjust_creative=a2JdNtFqB-C38ga_06BHvw&utm_campaign=yelp_api_v3&utm_medium=api_v3_business_search&utm_source=a2JdNtFqB-C38ga_06BHvw", "review_count": 39, "categories": [{"alias": "pizza", "title": "Pizza"}], "rating": 2.5, "coordinates": {"latitude": 35.7841262817383, "longitude": -78.7205123901367}, "transactions": ["pickup", "delivery"], "price": "$", "location": {"address1": "5563 Western Blvd", "address2": "Ste 9A", "address3": "", "city": "Raleigh", "zip_code": "27606", "country": "US", "state": "NC", "display_address": ["5563 Western Blvd", "Ste 9A", "Raleigh, NC 27606"]}, "phone": "+19192339144", "display_phone": "(919) 233-9144", "distance": 2134.986957934583}, {"id": "LlhR0czSz5jmP8uwMSllWw", "alias": "popeyes-louisiana-kitchen-raleigh-6", "name": "Popeyes Louisiana Kitchen", "image_url": "https://s3-media3.fl.yelpcdn.com/bphoto/4AMTeiCQ4AguyXqXgPCTgA/o.jpg", "is_closed": false, "url": "https://www.yelp.com/biz/popeyes-louisiana-kitchen-raleigh-6?adjust_creative=a2JdNtFqB-C38ga_06BHvw&utm_campaign=yelp_api_v3&utm_medium=api_v3_business_search&utm_source=a2JdNtFqB-C38ga_06BHvw", "review_count": 37, "categories": [{"alias": "hotdogs", "title": "Fast Food"}, {"alias": "chicken_wings", "title": "Chicken Wings"}], "rating": 2.5, "coordinates": {"latitude": 35.7849683, "longitude": -78.690417}, "transactions": ["delivery"], "price": "$", "location": {"address1": "3904 Western Blvd", "address2": null, "address3": null, "city": "Raleigh", "zip_code": "27606", "country": "US", "state": "NC", "display_address": ["3904 Western Blvd", "Raleigh, NC 27606"]}, "phone": "+19199770364", "display_phone": "(919) 977-0364", "distance": 3500.7901353400907}, {"id": "zlagxmC0CcHe9RBL8Gvn6A", "alias": "sonic-drive-in-raleigh", "name": "Sonic Drive-In", "image_url": "https://s3-media4.fl.yelpcdn.com/bphoto/fVr6aUEsvg9lmaDXNa9wLg/o.jpg", "is_closed": false, "url": "https://www.yelp.com/biz/sonic-drive-in-raleigh?adjust_creative=a2JdNtFqB-C38ga_06BHvw&utm_campaign=yelp_api_v3&utm_medium=api_v3_business_search&utm_source=a2JdNtFqB-C38ga_06BHvw", "review_count": 68, "categories": [{"alias": "hotdogs", "title": "Fast Food"}, {"alias": "burgers", "title": "Burgers"}, {"alias": "icecream", "title": "Ice Cream & Frozen Yogurt"}], "rating": 2.0, "coordinates": {"latitude": 35.7841702527892, "longitude": -78.72126664232871}, "transactions": [], "price": "$", "location": {"address1": "109 Jones Franklin Rd", "address2": "", "address3": "", "city": "Raleigh", "zip_code": "27606", "country": "US", "state": "NC", "display_address": ["109 Jones Franklin Rd", "Raleigh, NC 27606"]}, "phone": "+19198544602", "display_phone": "(919) 854-4602", "distance": 2131.673539821919}, {"id": "h_mUsrKCpGO3ClZu0wJEeA", "alias": "hardees-raleigh-7", "name": "Hardee's", "image_url": "https://s3-media3.fl.yelpcdn.com/bphoto/Zp_l90XJNs1JyJA8eT7gyA/o.jpg", "is_closed": false, "url": "https://www.yelp.com/biz/hardees-raleigh-7?adjust_creative=a2JdNtFqB-C38ga_06BHvw&utm_campaign=yelp_api_v3&utm_medium=api_v3_business_search&utm_source=a2JdNtFqB-C38ga_06BHvw", "review_count": 10, "categories": [{"alias": "burgers", "title": "Burgers"}, {"alias": "hotdogs", "title": "Fast Food"}, {"alias": "breakfast_brunch", "title": "Breakfast & Brunch"}], "rating": 3.0, "coordinates": {"latitude": 35.785963143084786, "longitude": -78.72265530613424}, "transactions": ["delivery"], "price": "$", "location": {"address1": "5639 Hillsborough St", "address2": null, "address3": null, "city": "Raleigh", "zip_code": "27606", "country": "US", "state": "NC", "display_address": ["5639 Hillsborough St", "Raleigh, NC 27606"]}, "phone": "+19198590607", "display_phone": "(919) 859-0607", "distance": 1932.5029964323153}, {"id": "YAjWarDzeH5Qdpdb9KiYeg", "alias": "fairouz-cafe-and-hookah-lounge-raleigh-2", "name": "Fairouz cafe & hookah lounge", "image_url": "https://s3-media2.fl.yelpcdn.com/bphoto/ert_W4Fw8O3UNEizWa3bSQ/o.jpg", "is_closed": false, "url": "https://www.yelp.com/biz/fairouz-cafe-and-hookah-lounge-raleigh-2?adjust_creative=a2JdNtFqB-C38ga_06BHvw&utm_campaign=yelp_api_v3&utm_medium=api_v3_business_search&utm_source=a2JdNtFqB-C38ga_06BHvw", "review_count": 10, "categories": [{"alias": "hookah_bars", "title": "Hookah Bars"}, {"alias": "cafes", "title": "Cafes"}], "rating": 3.0, "coordinates": {"latitude": 35.78439, "longitude": -78.69094}, "transactions": [], "price": "$", "location": {"address1": "3915 Western Blvd", "address2": null, "address3": "", "city": "Raleigh", "zip_code": "27606", "country": "US", "state": "NC", "display_address": ["3915 Western Blvd", "Raleigh, NC 27606"]}, "phone": "+19198796309", "display_phone": "(919) 879-6309", "distance": 3505.75378958497}, {"id": "13wAHQzaX-ui_Q98HEy_yQ", "alias": "food-lion-raleigh-6", "name": "Food Lion", "image_url": "https://s3-media2.fl.yelpcdn.com/bphoto/pg9ik3JV6Z1b8q1fiNHfpQ/o.jpg", "is_closed": false, "url": "https://www.yelp.com/biz/food-lion-raleigh-6?adjust_creative=a2JdNtFqB-C38ga_06BHvw&utm_campaign=yelp_api_v3&utm_medium=api_v3_business_search&utm_source=a2JdNtFqB-C38ga_06BHvw", "review_count": 10, "categories": [{"alias": "delis", "title": "Delis"}, {"alias": "grocery", "title": "Grocery"}], "rating": 3.0, "coordinates": {"latitude": 35.81676, "longitude": -78.69299}, "transactions": [], "location": {"address1": "2420 Wycliff Rd", "address2": "", "address3": "", "city": "Raleigh", "zip_code": "27607", "country": "US", "state": "NC", "display_address": ["2420 Wycliff Rd", "Raleigh, NC 27607"]}, "phone": "+19195713638", "display_phone": "(919) 571-3638", "distance": 3053.6487823851917}, {"id": "th8eQ4uqQJ8wpPjeUvbSAA", "alias": "panera-bread-raleigh-9", "name": "Panera Bread", "image_url": "https://s3-media1.fl.yelpcdn.com/bphoto/eBgNsLCgM12tdKHYY6nBCQ/o.jpg", "is_closed": false, "url": "https://www.yelp.com/biz/panera-bread-raleigh-9?adjust_creative=a2JdNtFqB-C38ga_06BHvw&utm_campaign=yelp_api_v3&utm_medium=api_v3_business_search&utm_source=a2JdNtFqB-C38ga_06BHvw", "review_count": 46, "categories": [{"alias": "salad", "title": "Salad"}, {"alias": "sandwiches", "title": "Sandwiches"}, {"alias": "soup", "title": "Soup"}], "rating": 2.0, "coordinates": {"latitude": 35.8159828, "longitude": -78.6975581}, "transactions": ["pickup", "delivery"], "price": "$", "location": {"address1": "2410 Landmark Dr", "address2": "", "address3": null, "city": "Raleigh", "zip_code": "27607", "country": "US", "state": "NC", "display_address": ["2410 Landmark Dr", "Raleigh, NC 27607"]}, "phone": "+19195004817", "display_phone": "(919) 500-4817", "distance": 2610.3846631817614}, {"id": "amuE7Y0HaHItMFOxsDtAKg", "alias": "subway-raleigh-83", "name": "Subway", "image_url": "https://s3-media1.fl.yelpcdn.com/bphoto/ldmGASdev0mQqelCNkNCGw/o.jpg", "is_closed": false, "url": "https://www.yelp.com/biz/subway-raleigh-83?adjust_creative=a2JdNtFqB-C38ga_06BHvw&utm_campaign=yelp_api_v3&utm_medium=api_v3_business_search&utm_source=a2JdNtFqB-C38ga_06BHvw", "review_count": 14, "categories": [{"alias": "sandwiches", "title": "Sandwiches"}], "rating": 2.5, "coordinates": {"latitude": 35.784576, "longitude": -78.693489}, "transactions": ["pickup", "delivery"], "price": "$", "location": {"address1": "3940 Western Blvd", "address2": "", "address3": "", "city": "Raleigh", "zip_code": "27606", "country": "US", "state": "NC", "display_address": ["3940 Western Blvd", "Raleigh, NC 27606"]}, "phone": "+19198286518", "display_phone": "(919) 828-6518", "distance": 3298.4272825230205}, {"id": "8SiZNpEGwd6AGTCCseQNJQ", "alias": "port-city-java-raleigh-6", "name": "Port City Java", "image_url": "https://s3-media2.fl.yelpcdn.com/bphoto/N5NmcgjnGKXdBZ44Bya_nA/o.jpg", "is_closed": false, "url": "https://www.yelp.com/biz/port-city-java-raleigh-6?adjust_creative=a2JdNtFqB-C38ga_06BHvw&utm_campaign=yelp_api_v3&utm_medium=api_v3_business_search&utm_source=a2JdNtFqB-C38ga_06BHvw", "review_count": 2, "categories": [{"alias": "coffee", "title": "Coffee & Tea"}, {"alias": "bakeries", "title": "Bakeries"}, {"alias": "cafes", "title": "Cafes"}], "rating": 4.5, "coordinates": {"latitude": 35.79738, "longitude": -78.70438}, "transactions": [], "price": "$", "location": {"address1": "1052 William Moore Dr", "address2": null, "address3": "NCSU Vet School", "city": "Raleigh", "zip_code": "27695", "country": "US", "state": "NC", "display_address": ["1052 William Moore Dr", "NCSU Vet School", "Raleigh, NC 27695"]}, "phone": "+19195133226", "display_phone": "(919) 513-3226", "distance": 1716.7677025087767}, {"id": "tkHXwJx7ea7VaCmNTjEiAw", "alias": "mcdonalds-raleigh-41", "name": "McDonald's", "image_url": "https://s3-media3.fl.yelpcdn.com/bphoto/kXyH-vWUrtb8yU_7DJoKmw/o.jpg", "is_closed": false, "url": "https://www.yelp.com/biz/mcdonalds-raleigh-41?adjust_creative=a2JdNtFqB-C38ga_06BHvw&utm_campaign=yelp_api_v3&utm_medium=api_v3_business_search&utm_source=a2JdNtFqB-C38ga_06BHvw", "review_count": 12, "categories": [{"alias": "hotdogs", "title": "Fast Food"}, {"alias": "burgers", "title": "Burgers"}, {"alias": "coffee", "title": "Coffee & Tea"}], "rating": 2.5, "coordinates": {"latitude": 35.8160775258033, "longitude": -78.6943320930004}, "transactions": ["delivery"], "price": "$", "location": {"address1": "3810 Lake Boone Trl", "address2": "", "address3": "", "city": "Raleigh", "zip_code": "27607", "country": "US", "state": "NC", "display_address": ["3810 Lake Boone Trl", "Raleigh, NC 27607"]}, "phone": "+19197810504", "display_phone": "(919) 781-0504", "distance": 2864.938464797868}, {"id": "puUlH7-TD19piOMDfDP_cQ", "alias": "wendys-raleigh-4", "name": "Wendy's", "image_url": "https://s3-media1.fl.yelpcdn.com/bphoto/F1WCqQpQ5ZO4U0x7C0V3DQ/o.jpg", "is_closed": false, "url": "https://www.yelp.com/biz/wendys-raleigh-4?adjust_creative=a2JdNtFqB-C38ga_06BHvw&utm_campaign=yelp_api_v3&utm_medium=api_v3_business_search&utm_source=a2JdNtFqB-C38ga_06BHvw", "review_count": 24, "categories": [{"alias": "burgers", "title": "Burgers"}, {"alias": "hotdogs", "title": "Fast Food"}], "rating": 2.0, "coordinates": {"latitude": 35.79833984375, "longitude": -78.7265853881836}, "transactions": ["delivery"], "price": "$", "location": {"address1": "1150 Edwards Mill Rd", "address2": null, "address3": null, "city": "Raleigh", "zip_code": "27607", "country": "US", "state": "NC", "display_address": ["1150 Edwards Mill Rd", "Raleigh, NC 27607"]}, "phone": "+19198544491", "display_phone": "(919) 854-4491", "distance": 694.2939193624998}, {"id": "VAd9FSX5JBdEGzM5KE6X7w", "alias": "brueggers-bagels-and-caribou-coffee-raleigh", "name": "Bruegger's Bagels and Caribou Coffee", "image_url": "https://s3-media1.fl.yelpcdn.com/bphoto/w3vW0eIrio1yvbJza3rYdw/o.jpg", "is_closed": false, "url": "https://www.yelp.com/biz/brueggers-bagels-and-caribou-coffee-raleigh?adjust_creative=a2JdNtFqB-C38ga_06BHvw&utm_campaign=yelp_api_v3&utm_medium=api_v3_business_search&utm_source=a2JdNtFqB-C38ga_06BHvw", "review_count": 4, "categories": [{"alias": "breakfast_brunch", "title": "Breakfast & Brunch"}, {"alias": "bagels", "title": "Bagels"}, {"alias": "sandwiches", "title": "Sandwiches"}], "rating": 3.0, "coordinates": {"latitude": 35.825294, "longitude": -78.708697}, "transactions": [], "price": "$", "location": {"address1": "3300 Duraleigh Rd", "address2": null, "address3": null, "city": "Raleigh", "zip_code": "27612", "country": "US", "state": "NC", "display_address": ["3300 Duraleigh Rd", "Raleigh, NC 27612"]}, "phone": "+19197879611", "display_phone": "(919) 787-9611", "distance": 2715.1338353522065}, {"id": "5jIEA4YeT92Db2m6zI2JVw", "alias": "sultan-kebab-house-raleigh-10", "name": "Sultan Kebab House", "image_url": "", "is_closed": false, "url": "https://www.yelp.com/biz/sultan-kebab-house-raleigh-10?adjust_creative=a2JdNtFqB-C38ga_06BHvw&utm_campaign=yelp_api_v3&utm_medium=api_v3_business_search&utm_source=a2JdNtFqB-C38ga_06BHvw", "review_count": 3, "categories": [{"alias": "kebab", "title": "Kebab"}], "rating": 3.5, "coordinates": {"latitude": 35.78366, "longitude": -78.69268}, "transactions": ["delivery", "pickup"], "location": {"address1": "3933 Western Blvd", "address2": "", "address3": null, "city": "Raleigh", "zip_code": "27606", "country": "US", "state": "NC", "display_address": ["3933 Western Blvd", "Raleigh, NC 27606"]}, "phone": "+19198522222", "display_phone": "(919) 852-2222", "distance": 3405.5678093687307}, {"id": "XVlrxHit-xYrHut744v8kQ", "alias": "701-cafe-raleigh", "name": "701 Cafe", "image_url": "https://s3-media1.fl.yelpcdn.com/bphoto/q6jpT1NiMz9wRXWpj_J_nQ/o.jpg", "is_closed": false, "url": "https://www.yelp.com/biz/701-cafe-raleigh?adjust_creative=a2JdNtFqB-C38ga_06BHvw&utm_campaign=yelp_api_v3&utm_medium=api_v3_business_search&utm_source=a2JdNtFqB-C38ga_06BHvw", "review_count": 3, "categories": [{"alias": "cafes", "title": "Cafes"}], "rating": 3.5, "coordinates": {"latitude": 35.79181, "longitude": -78.74123}, "transactions": ["delivery"], "price": "$", "location": {"address1": "701 Corporate Center Dr", "address2": "Ste 155", "address3": null, "city": "Raleigh", "zip_code": "27607", "country": "US", "state": "NC", "display_address": ["701 Corporate Center Dr", "Ste 155", "Raleigh, NC 27607"]}, "phone": "+19192337008", "display_phone": "(919) 233-7008", "distance": 2155.1668415880436}, {"id": "5eanf5RsFacxSaZ_6PpUkQ", "alias": "mcdonalds-raleigh-27", "name": "McDonald's", "image_url": "https://s3-media2.fl.yelpcdn.com/bphoto/2r_GAnS1_rpAU1MtGJP28Q/o.jpg", "is_closed": false, "url": "https://www.yelp.com/biz/mcdonalds-raleigh-27?adjust_creative=a2JdNtFqB-C38ga_06BHvw&utm_campaign=yelp_api_v3&utm_medium=api_v3_business_search&utm_source=a2JdNtFqB-C38ga_06BHvw", "review_count": 31, "categories": [{"alias": "burgers", "title": "Burgers"}, {"alias": "hotdogs", "title": "Fast Food"}, {"alias": "coffee", "title": "Coffee & Tea"}], "rating": 1.5, "coordinates": {"latitude": 35.790048, "longitude": -78.740761}, "transactions": ["delivery"], "price": "$", "location": {"address1": "601 Corporate Center Dr", "address2": "", "address3": "", "city": "Raleigh", "zip_code": "27607", "country": "US", "state": "NC", "display_address": ["601 Corporate Center Dr", "Raleigh, NC 27607"]}, "phone": "+19192334144", "display_phone": "(919) 233-4144", "distance": 2249.965222035923}, {"id": "nMuk3tGhMuDU9TDaCNzFmg", "alias": "cutbait-cafe-raleigh", "name": "CutBait Cafe", "image_url": "https://s3-media1.fl.yelpcdn.com/bphoto/qQTH0ghy1eVAyXCkqqcUFg/o.jpg", "is_closed": false, "url": "https://www.yelp.com/biz/cutbait-cafe-raleigh?adjust_creative=a2JdNtFqB-C38ga_06BHvw&utm_campaign=yelp_api_v3&utm_medium=api_v3_business_search&utm_source=a2JdNtFqB-C38ga_06BHvw", "review_count": 5, "categories": [{"alias": "foodtrucks", "title": "Food Trucks"}, {"alias": "seafood", "title": "Seafood"}], "rating": 2.5, "coordinates": {"latitude": 35.808690058595, "longitude": -78.7217489629984}, "transactions": ["delivery"], "location": {"address1": "3705 Edwards Mill Rd", "address2": null, "address3": "", "city": "Raleigh", "zip_code": "27612", "country": "US", "state": "NC", "display_address": ["3705 Edwards Mill Rd", "Raleigh, NC 27612"]}, "phone": "+19193974970", "display_phone": "(919) 397-4970", "distance": 595.9366810964466}, {"id": "fF6OFTTS0nTWMz42a5XTUw", "alias": "subway-raleigh-74", "name": "Subway", "image_url": "https://s3-media4.fl.yelpcdn.com/bphoto/qzXcqNbTlOJl3GVqJhyzGg/o.jpg", "is_closed": false, "url": "https://www.yelp.com/biz/subway-raleigh-74?adjust_creative=a2JdNtFqB-C38ga_06BHvw&utm_campaign=yelp_api_v3&utm_medium=api_v3_business_search&utm_source=a2JdNtFqB-C38ga_06BHvw", "review_count": 3, "categories": [{"alias": "sandwiches", "title": "Sandwiches"}], "rating": 3.0, "coordinates": {"latitude": 35.7836588857193, "longitude": -78.7207005014509}, "transactions": ["delivery", "pickup"], "price": "$", "location": {"address1": "5563 Western Blvd", "address2": "", "address3": "", "city": "Raleigh", "zip_code": "27606", "country": "US", "state": "NC", "display_address": ["5563 Western Blvd", "Raleigh, NC 27606"]}, "phone": "+19842550438", "display_phone": "(984) 255-0438", "distance": 2190.532336091449}, {"id": "Y8zbTPcCmhQJFl4WgwbKjA", "alias": "lady-justice-cafe-raleigh", "name": "Lady Justice Cafe", "image_url": "", "is_closed": false, "url": "https://www.yelp.com/biz/lady-justice-cafe-raleigh?adjust_creative=a2JdNtFqB-C38ga_06BHvw&utm_campaign=yelp_api_v3&utm_medium=api_v3_business_search&utm_source=a2JdNtFqB-C38ga_06BHvw", "review_count": 2, "categories": [{"alias": "cafes", "title": "Cafes"}], "rating": 3.0, "coordinates": {"latitude": 35.79573851242067, "longitude": -78.7412195652961}, "transactions": [], "location": {"address1": "901 Corporate Center Dr", "address2": null, "address3": null, "city": "Raleigh", "zip_code": "27607", "country": "US", "state": "NC", "display_address": ["901 Corporate Center Dr", "Raleigh, NC 27607"]}, "phone": "+19198516800", "display_phone": "(919) 851-6800", "distance": 1932.654281878147}, {"id": "7hNyfW5d-0C6vZ-E8vrYKQ", "alias": "yussys-kitchen-raleigh", "name": "Yussy's Kitchen", "image_url": "https://s3-media3.fl.yelpcdn.com/bphoto/jSj1-ucO2r82yAK_0vBSCA/o.jpg", "is_closed": false, "url": "https://www.yelp.com/biz/yussys-kitchen-raleigh?adjust_creative=a2JdNtFqB-C38ga_06BHvw&utm_campaign=yelp_api_v3&utm_medium=api_v3_business_search&utm_source=a2JdNtFqB-C38ga_06BHvw", "review_count": 1, "categories": [{"alias": "caribbean", "title": "Caribbean"}], "rating": 4.0, "coordinates": {"latitude": 35.78623, "longitude": -78.7287174}, "transactions": [], "location": {"address1": "5719 Hillsborough st", "address2": null, "address3": "", "city": "Raleigh", "zip_code": "27606", "country": "US", "state": "NC", "display_address": ["5719 Hillsborough st", "Raleigh, NC 27606"]}, "phone": "+19198093937", "display_phone": "(919) 809-3937", "distance": 1997.47736843038}, {"id": "0_Vct883WqAqD52CUBqORQ", "alias": "biryani-factory-raleigh", "name": "Biryani Factory", "image_url": "https://s3-media3.fl.yelpcdn.com/bphoto/A1kqKxBbu1KnRCpQK8alOw/o.jpg", "is_closed": false, "url": "https://www.yelp.com/biz/biryani-factory-raleigh?adjust_creative=a2JdNtFqB-C38ga_06BHvw&utm_campaign=yelp_api_v3&utm_medium=api_v3_business_search&utm_source=a2JdNtFqB-C38ga_06BHvw", "review_count": 1, "categories": [{"alias": "indpak", "title": "Indian"}], "rating": 4.0, "coordinates": {"latitude": 35.78485, "longitude": -78.69349}, "transactions": ["delivery", "pickup"], "location": {"address1": "1019 Method Rd", "address2": "", "address3": null, "city": "Raleigh", "zip_code": "27606", "country": "US", "state": "NC", "display_address": ["1019 Method Rd", "Raleigh, NC 27606"]}, "phone": "+19195231204", "display_phone": "(919) 523-1204", "distance": 3291.3851656231714}, {"id": "SdwyCeHUUOOwxolLZd0Qqw", "alias": "murphy-house-restaurant-raleigh", "name": "Murphy House Restaurant", "image_url": "", "is_closed": false, "url": "https://www.yelp.com/biz/murphy-house-restaurant-raleigh?adjust_creative=a2JdNtFqB-C38ga_06BHvw&utm_campaign=yelp_api_v3&utm_medium=api_v3_business_search&utm_source=a2JdNtFqB-C38ga_06BHvw", "review_count": 2, "categories": [{"alias": "tradamerican", "title": "American (Traditional)"}], "rating": 2.5, "coordinates": {"latitude": 35.7960306107998, "longitude": -78.7072999030352}, "transactions": [], "location": {"address1": "1025 Blue Ridge Rd", "address2": "", "address3": "", "city": "Raleigh", "zip_code": "27607", "country": "US", "state": "NC", "display_address": ["1025 Blue Ridge Rd", "Raleigh, NC 27607"]}, "phone": "+19198215323", "display_phone": "(919) 821-5323", "distance": 1596.1205623657647}, {"id": "JLRg3po1qvuYqboda4RfaA", "alias": "food-delicious-raleigh-3", "name": "Food Delicious", "image_url": "https://s3-media3.fl.yelpcdn.com/bphoto/4nOARr2YDYEX3Kr76uCxXQ/o.jpg", "is_closed": false, "url": "https://www.yelp.com/biz/food-delicious-raleigh-3?adjust_creative=a2JdNtFqB-C38ga_06BHvw&utm_campaign=yelp_api_v3&utm_medium=api_v3_business_search&utm_source=a2JdNtFqB-C38ga_06BHvw", "review_count": 2, "categories": [{"alias": "burgers", "title": "Burgers"}, {"alias": "foodtrucks", "title": "Food Trucks"}], "rating": 2.5, "coordinates": {"latitude": 35.7947309, "longitude": -78.7077881}, "transactions": [], "location": {"address1": "1025 Blue Ridge Rd", "address2": "", "address3": "", "city": "Raleigh", "zip_code": "27607", "country": "US", "state": "NC", "display_address": ["1025 Blue Ridge Rd", "Raleigh, NC 27607"]}, "phone": "+18885123343", "display_phone": "(888) 512-3343", "distance": 1595.2500584783886}, {"id": "s2OEu1n9uGGKCzSLS_D51Q", "alias": "bojangles-raleigh-11", "name": "Bojangles", "image_url": "https://s3-media4.fl.yelpcdn.com/bphoto/dVgY4n08diRqNrinRAEqvQ/o.jpg", "is_closed": false, "url": "https://www.yelp.com/biz/bojangles-raleigh-11?adjust_creative=a2JdNtFqB-C38ga_06BHvw&utm_campaign=yelp_api_v3&utm_medium=api_v3_business_search&utm_source=a2JdNtFqB-C38ga_06BHvw", "review_count": 4, "categories": [{"alias": "desserts", "title": "Desserts"}, {"alias": "chickenshop", "title": "Chicken Shop"}, {"alias": "burgers", "title": "Burgers"}], "rating": 2.0, "coordinates": {"latitude": 35.7852058410645, "longitude": -78.6887435913086}, "transactions": ["delivery"], "price": "$", "location": {"address1": "3808 Western Blvd", "address2": "", "address3": "", "city": "Raleigh", "zip_code": "27606", "country": "US", "state": "NC", "display_address": ["3808 Western Blvd", "Raleigh, NC 27606"]}, "phone": "+19196648613", "display_phone": "(919) 664-8613", "distance": 3612.30101683016}, {"id": "ye1oYSwvmNvzzNXH-z3Q9Q", "alias": "jersey-mikes-subs-raleigh-27", "name": "Jersey Mike's Subs", "image_url": "https://s3-media3.fl.yelpcdn.com/bphoto/TzlMKt84vnF037hpq9VldQ/o.jpg", "is_closed": false, "url": "https://www.yelp.com/biz/jersey-mikes-subs-raleigh-27?adjust_creative=a2JdNtFqB-C38ga_06BHvw&utm_campaign=yelp_api_v3&utm_medium=api_v3_business_search&utm_source=a2JdNtFqB-C38ga_06BHvw", "review_count": 2, "categories": [{"alias": "hotdogs", "title": "Fast Food"}, {"alias": "sandwiches", "title": "Sandwiches"}, {"alias": "delis", "title": "Delis"}], "rating": 1.0, "coordinates": {"latitude": 35.826003, "longitude": -78.706867}, "transactions": ["delivery", "pickup"], "location": {"address1": "3201 Edwards Mill Rd", "address2": null, "address3": null, "city": "Raleigh", "zip_code": "27612", "country": "US", "state": "NC", "display_address": ["3201 Edwards Mill Rd", "Raleigh, NC 27612"]}, "phone": "+19842025627", "display_phone": "(984) 202-5627", "distance": 2863.212568085715}, {"id": "ZTpZtceyIvtuQQlC8_zfEA", "alias": "kocina-grill-raleigh", "name": "Kocina Grill", "image_url": "", "is_closed": false, "url": "https://www.yelp.com/biz/kocina-grill-raleigh?adjust_creative=a2JdNtFqB-C38ga_06BHvw&utm_campaign=yelp_api_v3&utm_medium=api_v3_business_search&utm_source=a2JdNtFqB-C38ga_06BHvw", "review_count": 1, "categories": [{"alias": "tradamerican", "title": "American (Traditional)"}, {"alias": "sandwiches", "title": "Sandwiches"}, {"alias": "breakfast_brunch", "title": "Breakfast & Brunch"}], "rating": 1.0, "coordinates": {"latitude": 35.815006, "longitude": -78.706565}, "transactions": [], "location": {"address1": "2501 Blue Ridge Rd", "address2": null, "address3": "Ste G 190", "city": "Raleigh", "zip_code": "27607", "country": "US", "state": "NC", "display_address": ["2501 Blue Ridge Rd", "Ste G 190", "Raleigh, NC 27607"]}, "phone": "+19842004289", "display_phone": "(984) 200-4289", "distance": 1903.909465288414}], "absolute total": 73, "total": 73}