{"league": "NHL", "team": "Ottawa Senators", "stadium": "Canadian Tire Centre", "stadium latitude": 45.2970495, "stadium longitude": -75.92683790000001, "radius": "3000 meters", "city": "Ottawa", "state": "Ontario", "businesses": [{"id": "hATQRj2AQXG_npZiKBmp0w", "alias": "aperitivo-ottawa", "name": "Aperitivo", "image_url": "https://s3-media2.fl.yelpcdn.com/bphoto/dbrkLKB5LUJEbnFqlW9Wow/o.jpg", "is_closed": false, "url": "https://www.yelp.com/biz/aperitivo-ottawa?adjust_creative=a2JdNtFqB-C38ga_06BHvw&utm_campaign=yelp_api_v3&utm_medium=api_v3_business_search&utm_source=a2JdNtFqB-C38ga_06BHvw", "review_count": 35, "categories": [{"alias": "tapas", "title": "Tapas Bars"}, {"alias": "gastropubs", "title": "Gastropubs"}], "rating": 4.5, "coordinates": {"latitude": 45.3101229313224, "longitude": -75.9096373021749}, "transactions": [], "price": "$$", "location": {"address1": "655 Kanata Avenue", "address2": "Unit L2", "address3": "", "city": "Ottawa", "zip_code": "K2T 1H8", "country": "CA", "state": "ON", "display_address": ["655 Kanata Avenue", "Unit L2", "Ottawa, ON K2T 1H8", "Canada"]}, "phone": "+16135920004", "display_phone": "+1 613-592-0004", "distance": 1980.632834320447}, {"id": "6-Fxwxt3lxlYhkuVkbGJaA", "alias": "central-bierhaus-ottawa-2", "name": "Central Bierhaus", "image_url": "https://s3-media3.fl.yelpcdn.com/bphoto/tTSvNPdPxYzsq5YZGXa8Eg/o.jpg", "is_closed": false, "url": "https://www.yelp.com/biz/central-bierhaus-ottawa-2?adjust_creative=a2JdNtFqB-C38ga_06BHvw&utm_campaign=yelp_api_v3&utm_medium=api_v3_business_search&utm_source=a2JdNtFqB-C38ga_06BHvw", "review_count": 56, "categories": [{"alias": "gastropubs", "title": "Gastropubs"}, {"alias": "sportsbars", "title": "Sports Bars"}], "rating": 4.0, "coordinates": {"latitude": 45.3099256641488, "longitude": -75.9098492386231}, "transactions": [], "price": "$$", "location": {"address1": "650 Kanata Avenue", "address2": null, "address3": "", "city": "Ottawa", "zip_code": "K2T 1H6", "country": "CA", "state": "ON", "display_address": ["650 Kanata Avenue", "Ottawa, ON K2T 1H6", "Canada"]}, "phone": "+16135950707", "display_phone": "+1 613-595-0707", "distance": 1953.2790273457692}, {"id": "3OvChJ0nB8Drt3xQTOOmCw", "alias": "kanata-noodle-house-ottawa", "name": "Kanata Noodle House", "image_url": "https://s3-media2.fl.yelpcdn.com/bphoto/DICKyLvf4eZSBWkuLdFmSQ/o.jpg", "is_closed": false, "url": "https://www.yelp.com/biz/kanata-noodle-house-ottawa?adjust_creative=a2JdNtFqB-C38ga_06BHvw&utm_campaign=yelp_api_v3&utm_medium=api_v3_business_search&utm_source=a2JdNtFqB-C38ga_06BHvw", "review_count": 41, "categories": [{"alias": "vietnamese", "title": "Vietnamese"}], "rating": 4.0, "coordinates": {"latitude": 45.2931364654538, "longitude": -75.8939643796254}, "transactions": [], "price": "$$", "location": {"address1": "500 Hazeldean Road", "address2": "Unit 112", "address3": "", "city": "Ottawa", "zip_code": "K2L 2B5", "country": "CA", "state": "ON", "display_address": ["500 Hazeldean Road", "Unit 112", "Ottawa, ON K2L 2B5", "Canada"]}, "phone": "+16138311121", "display_phone": "+1 613-831-1121", "distance": 2607.939616385054}, {"id": "oHP8dPo4Tzs0Lu_w2PjJIA", "alias": "tomaso-grilled-pizza-and-panini-kanata", "name": "Tomaso Grilled Pizza & Panini", "image_url": "https://s3-media2.fl.yelpcdn.com/bphoto/YTfYERlAJz4QYG5wD9Hvvw/o.jpg", "is_closed": false, "url": "https://www.yelp.com/biz/tomaso-grilled-pizza-and-panini-kanata?adjust_creative=a2JdNtFqB-C38ga_06BHvw&utm_campaign=yelp_api_v3&utm_medium=api_v3_business_search&utm_source=a2JdNtFqB-C38ga_06BHvw", "review_count": 31, "categories": [{"alias": "pizza", "title": "Pizza"}, {"alias": "sandwiches", "title": "Sandwiches"}], "rating": 4.0, "coordinates": {"latitude": 45.3111438629428, "longitude": -75.9076120006533}, "transactions": [], "price": "$$", "location": {"address1": "450 Avenue Kanata", "address2": "", "address3": "", "city": "Kanata", "zip_code": "K2T 1K5", "country": "CA", "state": "ON", "display_address": ["450 Avenue Kanata", "Kanata, ON K2T 1K5", "Canada"]}, "phone": "+16135994399", "display_phone": "+1 613-599-4399", "distance": 2171.8792240551743}, {"id": "5puVgBKtx1B-RfdXrUaqBg", "alias": "via-cibo-ottawa", "name": "Via Cibo", "image_url": "https://s3-media1.fl.yelpcdn.com/bphoto/-Q6IvC9sFKsMkXiQi5LKOQ/o.jpg", "is_closed": false, "url": "https://www.yelp.com/biz/via-cibo-ottawa?adjust_creative=a2JdNtFqB-C38ga_06BHvw&utm_campaign=yelp_api_v3&utm_medium=api_v3_business_search&utm_source=a2JdNtFqB-C38ga_06BHvw", "review_count": 33, "categories": [{"alias": "italian", "title": "Italian"}, {"alias": "pizza", "title": "Pizza"}, {"alias": "sandwiches", "title": "Sandwiches"}], "rating": 4.0, "coordinates": {"latitude": 45.3095271, "longitude": -75.9144085}, "transactions": [], "price": "$$", "location": {"address1": "120 Earl Grey Drive", "address2": "Unit 100A", "address3": null, "city": "Ottawa", "zip_code": "K2T 1G7", "country": "CA", "state": "ON", "display_address": ["120 Earl Grey Drive", "Unit 100A", "Ottawa, ON K2T 1G7", "Canada"]}, "phone": "+16135999979", "display_phone": "+1 613-599-9979", "distance": 1694.0984763186805}, {"id": "9aoDen4VBeP8IXAoahXJqQ", "alias": "ox-head-restaurant-kanata", "name": "Ox Head Restaurant", "image_url": "https://s3-media1.fl.yelpcdn.com/bphoto/t0rywcul-OgmwhGXHHkN6A/o.jpg", "is_closed": false, "url": "https://www.yelp.com/biz/ox-head-restaurant-kanata?adjust_creative=a2JdNtFqB-C38ga_06BHvw&utm_campaign=yelp_api_v3&utm_medium=api_v3_business_search&utm_source=a2JdNtFqB-C38ga_06BHvw", "review_count": 52, "categories": [{"alias": "vietnamese", "title": "Vietnamese"}], "rating": 3.5, "coordinates": {"latitude": 45.3101616630642, "longitude": -75.9096530380982}, "transactions": [], "price": "$$", "location": {"address1": "790 Kanata Avenue", "address2": "Unit M1", "address3": "", "city": "Kanata", "zip_code": "K2T 1H8", "country": "CA", "state": "ON", "display_address": ["790 Kanata Avenue", "Unit M1", "Kanata, ON K2T 1H8", "Canada"]}, "phone": "+16135920630", "display_phone": "+1 613-592-0630", "distance": 1982.961317730725}, {"id": "NZf3nuta1Nq3On-z0C-vSw", "alias": "shawarma-prince-kanata", "name": "Shawarma Prince", "image_url": "https://s3-media4.fl.yelpcdn.com/bphoto/NFAZ2mbWHuHRyG7y7co4gg/o.jpg", "is_closed": false, "url": "https://www.yelp.com/biz/shawarma-prince-kanata?adjust_creative=a2JdNtFqB-C38ga_06BHvw&utm_campaign=yelp_api_v3&utm_medium=api_v3_business_search&utm_source=a2JdNtFqB-C38ga_06BHvw", "review_count": 25, "categories": [{"alias": "lebanese", "title": "Lebanese"}], "rating": 4.0, "coordinates": {"latitude": 45.2962677, "longitude": -75.8900081}, "transactions": [], "price": "$", "location": {"address1": "484 Hazeldean Road", "address2": "", "address3": "", "city": "Kanata", "zip_code": "K2L 1V4", "country": "CA", "state": "ON", "display_address": ["484 Hazeldean Road", "Kanata, ON K2L 1V4", "Canada"]}, "phone": "+16137458880", "display_phone": "+1 613-745-8880", "distance": 2877.9550242175487}, {"id": "oCfRQ-KS7QhViv54W6O_qQ", "alias": "milestones-kanata", "name": "Milestones", "image_url": "https://s3-media2.fl.yelpcdn.com/bphoto/wyPj-A4Z-c2KMaZlTTbEIw/o.jpg", "is_closed": false, "url": "https://www.yelp.com/biz/milestones-kanata?adjust_creative=a2JdNtFqB-C38ga_06BHvw&utm_campaign=yelp_api_v3&utm_medium=api_v3_business_search&utm_source=a2JdNtFqB-C38ga_06BHvw", "review_count": 37, "categories": [{"alias": "newcanadian", "title": "Canadian (New)"}, {"alias": "comfortfood", "title": "Comfort Food"}, {"alias": "bars", "title": "Bars"}], "rating": 4.0, "coordinates": {"latitude": 45.3117968, "longitude": -75.9069293}, "transactions": [], "price": "$$", "location": {"address1": "435 Kanata Ave", "address2": null, "address3": "", "city": "Kanata", "zip_code": "K2T 1K5", "country": "CA", "state": "ON", "display_address": ["435 Kanata Ave", "Kanata, ON K2T 1K5", "Canada"]}, "phone": "+16135951968", "display_phone": "+1 613-595-1968", "distance": 2236.204420726604}, {"id": "JHeFyYJSeVTaMpxgkNtR3A", "alias": "cabottos-restaurant-stittsville", "name": "Cabotto's Restaurant", "image_url": "https://s3-media2.fl.yelpcdn.com/bphoto/Sa6EKQJp7W2cNvtpOAAdNQ/o.jpg", "is_closed": false, "url": "https://www.yelp.com/biz/cabottos-restaurant-stittsville?adjust_creative=a2JdNtFqB-C38ga_06BHvw&utm_campaign=yelp_api_v3&utm_medium=api_v3_business_search&utm_source=a2JdNtFqB-C38ga_06BHvw", "review_count": 21, "categories": [{"alias": "italian", "title": "Italian"}], "rating": 4.0, "coordinates": {"latitude": 45.27976, "longitude": -75.91642}, "transactions": [], "price": "$$", "location": {"address1": "5816 Hazeldean Road", "address2": "", "address3": "", "city": "Stittsville", "zip_code": "K2S 1B9", "country": "CA", "state": "ON", "display_address": ["5816 Hazeldean Road", "Stittsville, ON K2S 1B9", "Canada"]}, "phone": "+16135923097", "display_phone": "+1 613-592-3097", "distance": 2069.5475903991633}, {"id": "7RxLJAO3SyUOC79ZDph5Eg", "alias": "moxies-grill-and-bar-ottawa-6", "name": "Moxie's Grill & Bar", "image_url": "https://s3-media4.fl.yelpcdn.com/bphoto/8sxTbows3Ff6P_NvrB3xVA/o.jpg", "is_closed": false, "url": "https://www.yelp.com/biz/moxies-grill-and-bar-ottawa-6?adjust_creative=a2JdNtFqB-C38ga_06BHvw&utm_campaign=yelp_api_v3&utm_medium=api_v3_business_search&utm_source=a2JdNtFqB-C38ga_06BHvw", "review_count": 36, "categories": [{"alias": "newcanadian", "title": "Canadian (New)"}, {"alias": "steak", "title": "Steakhouses"}, {"alias": "lounges", "title": "Lounges"}], "rating": 3.5, "coordinates": {"latitude": 45.309783, "longitude": -75.9119932}, "transactions": [], "price": "$$", "location": {"address1": "601 Earl Grey Dr", "address2": "", "address3": "", "city": "Kanata", "zip_code": "K2T 1K4", "country": "CA", "state": "ON", "display_address": ["601 Earl Grey Dr", "Kanata, ON K2T 1K4", "Canada"]}, "phone": "+16135995000", "display_phone": "+1 613-599-5000", "distance": 1822.8873781006344}, {"id": "Or8WPBQ5hdwu60_gBR36Og", "alias": "pestos-italian-delicatessen-kanata", "name": "Pesto's Italian Delicatessen", "image_url": "https://s3-media1.fl.yelpcdn.com/bphoto/uC-PJBVVX4kbAXxAOwKFpQ/o.jpg", "is_closed": false, "url": "https://www.yelp.com/biz/pestos-italian-delicatessen-kanata?adjust_creative=a2JdNtFqB-C38ga_06BHvw&utm_campaign=yelp_api_v3&utm_medium=api_v3_business_search&utm_source=a2JdNtFqB-C38ga_06BHvw", "review_count": 11, "categories": [{"alias": "delis", "title": "Delis"}, {"alias": "sandwiches", "title": "Sandwiches"}, {"alias": "italian", "title": "Italian"}], "rating": 4.5, "coordinates": {"latitude": 45.2984485876382, "longitude": -75.8895861880135}, "transactions": [], "price": "$", "location": {"address1": "Castledean Plaza", "address2": "471 Hazeldean Road", "address3": "", "city": "Kanata", "zip_code": "K2L 4B8", "country": "CA", "state": "ON", "display_address": ["Castledean Plaza", "471 Hazeldean Road", "Kanata, ON K2L 4B8", "Canada"]}, "phone": "+16138365432", "display_phone": "+1 613-836-5432", "distance": 2917.8651542686202}, {"id": "WNLpDlfoKomCTYqAI4n-0A", "alias": "the-burbs-pub-and-eatery-kanata", "name": "The Burbs Pub & Eatery", "image_url": "https://s3-media1.fl.yelpcdn.com/bphoto/KGbfL_6qc63OF_wo87uB2Q/o.jpg", "is_closed": false, "url": "https://www.yelp.com/biz/the-burbs-pub-and-eatery-kanata?adjust_creative=a2JdNtFqB-C38ga_06BHvw&utm_campaign=yelp_api_v3&utm_medium=api_v3_business_search&utm_source=a2JdNtFqB-C38ga_06BHvw", "review_count": 21, "categories": [{"alias": "pubs", "title": "Pubs"}, {"alias": "newcanadian", "title": "Canadian (New)"}], "rating": 4.0, "coordinates": {"latitude": 45.295887910354, "longitude": -75.8931514556463}, "transactions": [], "price": "$$", "location": {"address1": "501 Hazeldean Road", "address2": "", "address3": "", "city": "Kanata", "zip_code": "K2L 1V6", "country": "CA", "state": "ON", "display_address": ["501 Hazeldean Road", "Kanata, ON K2L 1V6", "Canada"]}, "phone": "+16134358833", "display_phone": "+1 613-435-8833", "distance": 2638.073958784886}, {"id": "3TR399qzgNrAbHHaASjpQw", "alias": "kals-place-stittsville", "name": "Kal's Place", "image_url": "https://s3-media4.fl.yelpcdn.com/bphoto/FBrgc1MbkeugX7-7w2Jl8Q/o.jpg", "is_closed": false, "url": "https://www.yelp.com/biz/kals-place-stittsville?adjust_creative=a2JdNtFqB-C38ga_06BHvw&utm_campaign=yelp_api_v3&utm_medium=api_v3_business_search&utm_source=a2JdNtFqB-C38ga_06BHvw", "review_count": 27, "categories": [{"alias": "pizza", "title": "Pizza"}, {"alias": "breakfast_brunch", "title": "Breakfast & Brunch"}, {"alias": "diners", "title": "Diners"}], "rating": 3.5, "coordinates": {"latitude": 45.2873045, "longitude": -75.9057863}, "transactions": [], "price": "$$", "location": {"address1": "5517 Hazeldean Road", "address2": null, "address3": "", "city": "Stittsville", "zip_code": "K2S 0P5", "country": "CA", "state": "ON", "display_address": ["5517 Hazeldean Road", "Stittsville, ON K2S 0P5", "Canada"]}, "phone": "+16138318585", "display_phone": "+1 613-831-8585", "distance": 2053.4791153941114}, {"id": "800dgX4POH1yQ0O1l6tpcA", "alias": "crazy-horse-kanata-2", "name": "Crazy Horse", "image_url": "https://s3-media1.fl.yelpcdn.com/bphoto/c4WMXXuDdDGP1gKV-PpNPQ/o.jpg", "is_closed": false, "url": "https://www.yelp.com/biz/crazy-horse-kanata-2?adjust_creative=a2JdNtFqB-C38ga_06BHvw&utm_campaign=yelp_api_v3&utm_medium=api_v3_business_search&utm_source=a2JdNtFqB-C38ga_06BHvw", "review_count": 37, "categories": [{"alias": "steak", "title": "Steakhouses"}, {"alias": "beer_and_wine", "title": "Beer, Wine & Spirits"}, {"alias": "musicvenues", "title": "Music Venues"}], "rating": 3.5, "coordinates": {"latitude": 45.3083832159519, "longitude": -75.9135961532593}, "transactions": [], "price": "$$", "location": {"address1": "115 Roland Michener Drive", "address2": null, "address3": "", "city": "Kanata", "zip_code": "K2T 1G7", "country": "CA", "state": "ON", "display_address": ["115 Roland Michener Drive", "Kanata, ON K2T 1G7", "Canada"]}, "phone": "+16135918884", "display_phone": "+1 613-591-8884", "distance": 1631.188919231674}, {"id": "K37NYGAOnM95W13_lPBNWg", "alias": "chez-lam-ottawa", "name": "Chez Lam", "image_url": "https://s3-media3.fl.yelpcdn.com/bphoto/unDM-cAolYQTBERouY1Tpg/o.jpg", "is_closed": false, "url": "https://www.yelp.com/biz/chez-lam-ottawa?adjust_creative=a2JdNtFqB-C38ga_06BHvw&utm_campaign=yelp_api_v3&utm_medium=api_v3_business_search&utm_source=a2JdNtFqB-C38ga_06BHvw", "review_count": 8, "categories": [{"alias": "vietnamese", "title": "Vietnamese"}], "rating": 4.5, "coordinates": {"latitude": 45.296092401723, "longitude": -75.8897848427296}, "transactions": [], "price": "$$", "location": {"address1": "484 Hazeldean Road", "address2": "", "address3": null, "city": "Ottawa", "zip_code": "K2L 1V4", "country": "CA", "state": "ON", "display_address": ["484 Hazeldean Road", "Ottawa, ON K2L 1V4", "Canada"]}, "phone": "+16138368560", "display_phone": "+1 613-836-8560", "distance": 2900.1902828841057}, {"id": "iQrPmHkHqgurd7TZFEzUrA", "alias": "mucho-burrito-ottawa-5", "name": "Mucho Burrito", "image_url": "https://s3-media2.fl.yelpcdn.com/bphoto/BbPRJhPOJd61-P-BY1BMSg/o.jpg", "is_closed": false, "url": "https://www.yelp.com/biz/mucho-burrito-ottawa-5?adjust_creative=a2JdNtFqB-C38ga_06BHvw&utm_campaign=yelp_api_v3&utm_medium=api_v3_business_search&utm_source=a2JdNtFqB-C38ga_06BHvw", "review_count": 45, "categories": [{"alias": "mexican", "title": "Mexican"}], "rating": 3.0, "coordinates": {"latitude": 45.3091052301716, "longitude": -75.9149575810204}, "transactions": [], "price": "$$", "location": {"address1": "160 Earl Grey Dr", "address2": "", "address3": "", "city": "Ottawa", "zip_code": "K2T 1B6", "country": "CA", "state": "ON", "display_address": ["160 Earl Grey Dr", "Ottawa, ON K2T 1B6", "Canada"]}, "phone": "+16135950007", "display_phone": "+1 613-595-0007", "distance": 1631.0615090649867}, {"id": "EqjeMvtW1SWMFVL7B26ijA", "alias": "little-red-shack-bbq-stittsville", "name": "Little Red Shack BBQ", "image_url": "https://s3-media4.fl.yelpcdn.com/bphoto/k8NYufu1wjqqtCfsLUivsg/o.jpg", "is_closed": false, "url": "https://www.yelp.com/biz/little-red-shack-bbq-stittsville?adjust_creative=a2JdNtFqB-C38ga_06BHvw&utm_campaign=yelp_api_v3&utm_medium=api_v3_business_search&utm_source=a2JdNtFqB-C38ga_06BHvw", "review_count": 6, "categories": [{"alias": "foodtrucks", "title": "Food Trucks"}, {"alias": "bbq", "title": "Barbeque"}], "rating": 5.0, "coordinates": {"latitude": 45.2721940258742, "longitude": -75.9461886359985}, "transactions": [], "price": "$", "location": {"address1": "1016 Carp Road", "address2": null, "address3": "", "city": "Stittsville", "zip_code": "K2S 1B9", "country": "CA", "state": "ON", "display_address": ["1016 Carp Road", "Stittsville, ON K2S 1B9", "Canada"]}, "phone": "+16139837559", "display_phone": "+1 613-983-7559", "distance": 3151.2693304250465}, {"id": "IUjWEUJLvZY1Q2intq9xZw", "alias": "zaks-diner-kanata", "name": "Zak's Diner", "image_url": "https://s3-media1.fl.yelpcdn.com/bphoto/7vJ1b8tcsEOTkZNhyhvuLg/o.jpg", "is_closed": false, "url": "https://www.yelp.com/biz/zaks-diner-kanata?adjust_creative=a2JdNtFqB-C38ga_06BHvw&utm_campaign=yelp_api_v3&utm_medium=api_v3_business_search&utm_source=a2JdNtFqB-C38ga_06BHvw", "review_count": 35, "categories": [{"alias": "breakfast_brunch", "title": "Breakfast & Brunch"}, {"alias": "diners", "title": "Diners"}, {"alias": "desserts", "title": "Desserts"}], "rating": 3.5, "coordinates": {"latitude": 45.3109205914621, "longitude": -75.9198485948829}, "transactions": [], "price": "$$", "location": {"address1": "499 Terry Fox Drive", "address2": "", "address3": "", "city": "Kanata", "zip_code": "K2T 1H7", "country": "CA", "state": "ON", "display_address": ["499 Terry Fox Drive", "Kanata, ON K2T 1H7", "Canada"]}, "phone": "+16134355483", "display_phone": "+1 613-435-5483", "distance": 1636.390109131826}, {"id": "BDrvPyN4o2MDuBsCU7k9dw", "alias": "pocopazzo-stittsville", "name": "Pocopazzo", "image_url": "https://s3-media3.fl.yelpcdn.com/bphoto/KO0SBA-of1VYgXZlgkbFHw/o.jpg", "is_closed": false, "url": "https://www.yelp.com/biz/pocopazzo-stittsville?adjust_creative=a2JdNtFqB-C38ga_06BHvw&utm_campaign=yelp_api_v3&utm_medium=api_v3_business_search&utm_source=a2JdNtFqB-C38ga_06BHvw", "review_count": 15, "categories": [{"alias": "italian", "title": "Italian"}], "rating": 4.0, "coordinates": {"latitude": 45.2728573472002, "longitude": -75.9321636890244}, "transactions": [], "price": "$$", "location": {"address1": "6081 Hazeldean Road", "address2": "", "address3": "", "city": "Stittsville", "zip_code": "K2S 0N9", "country": "CA", "state": "ON", "display_address": ["6081 Hazeldean Road", "Stittsville, ON K2S 0N9", "Canada"]}, "phone": "+16138367100", "display_phone": "+1 613-836-7100", "distance": 2722.1187533987463}, {"id": "WKyE9mnmpgTA7BV73LPpVQ", "alias": "the-glen-ottawa-2", "name": "The Glen", "image_url": "https://s3-media1.fl.yelpcdn.com/bphoto/VP-9l6IL4VN7R_Ir7SKT0A/o.jpg", "is_closed": false, "url": "https://www.yelp.com/biz/the-glen-ottawa-2?adjust_creative=a2JdNtFqB-C38ga_06BHvw&utm_campaign=yelp_api_v3&utm_medium=api_v3_business_search&utm_source=a2JdNtFqB-C38ga_06BHvw", "review_count": 15, "categories": [{"alias": "seafood", "title": "Seafood"}, {"alias": "scottish", "title": "Scottish"}, {"alias": "pubs", "title": "Pubs"}], "rating": 4.0, "coordinates": {"latitude": 45.27255, "longitude": -75.93213}, "transactions": [], "location": {"address1": "Jackson Trails Plaza", "address2": "6081 Hazeldean Road, Unit 1010", "address3": "", "city": "Ottawa", "zip_code": "K2S 1B9", "country": "CA", "state": "ON", "display_address": ["Jackson Trails Plaza", "6081 Hazeldean Road, Unit 1010", "Ottawa, ON K2S 1B9", "Canada"]}, "phone": "+16138365622", "display_phone": "+1 613-836-5622", "distance": 2776.066672034867}, {"id": "g2duJq4H_DgV4D-CSCjkng", "alias": "pongs-poutine-ottawa", "name": "Pong's Poutine", "image_url": "https://s3-media1.fl.yelpcdn.com/bphoto/7WXFlOexRBHBOS-kb4rloQ/o.jpg", "is_closed": false, "url": "https://www.yelp.com/biz/pongs-poutine-ottawa?adjust_creative=a2JdNtFqB-C38ga_06BHvw&utm_campaign=yelp_api_v3&utm_medium=api_v3_business_search&utm_source=a2JdNtFqB-C38ga_06BHvw", "review_count": 8, "categories": [{"alias": "hotdogs", "title": "Fast Food"}, {"alias": "foodtrucks", "title": "Food Trucks"}, {"alias": "poutineries", "title": "Poutineries"}], "rating": 4.5, "coordinates": {"latitude": 45.27509, "longitude": -75.95154}, "transactions": [], "price": "$", "location": {"address1": "2079 Carp Road", "address2": "", "address3": "", "city": "Ottawa", "zip_code": "K0A 1L0", "country": "CA", "state": "ON", "display_address": ["2079 Carp Road", "Ottawa, ON K0A 1L0", "Canada"]}, "phone": "+16132526897", "display_phone": "+1 613-252-6897", "distance": 3083.8221216237694}, {"id": "HVqVif3jPeV5cqG75nMIiw", "alias": "bâton-rouge-steakhouse-and-bar-kanata-5", "name": "Bâton Rouge Steakhouse & Bar", "image_url": "https://s3-media2.fl.yelpcdn.com/bphoto/vyiED9UoAh_HtDrJXjIoaw/o.jpg", "is_closed": false, "url": "https://www.yelp.com/biz/b%C3%A2ton-rouge-steakhouse-and-bar-kanata-5?adjust_creative=a2JdNtFqB-C38ga_06BHvw&utm_campaign=yelp_api_v3&utm_medium=api_v3_business_search&utm_source=a2JdNtFqB-C38ga_06BHvw", "review_count": 38, "categories": [{"alias": "steak", "title": "Steakhouses"}, {"alias": "seafood", "title": "Seafood"}, {"alias": "cocktailbars", "title": "Cocktail Bars"}], "rating": 3.0, "coordinates": {"latitude": 45.3105985946068, "longitude": -75.909333624635}, "transactions": [], "price": "$$$", "location": {"address1": "790 Earl Grey Drive", "address2": "Unit M3", "address3": "", "city": "Kanata", "zip_code": "K2T 1H8", "country": "CA", "state": "ON", "display_address": ["790 Earl Grey Drive", "Unit M3", "Kanata, ON K2T 1H8", "Canada"]}, "phone": "+16135913655", "display_phone": "+1 613-591-3655", "distance": 2035.6639642061475}, {"id": "4R04Nr_G59usqZJPqpQM0g", "alias": "lapointe-seafood-grill-kanata", "name": "Lapointe Seafood Grill", "image_url": "https://s3-media2.fl.yelpcdn.com/bphoto/HKhH3vyrWq_tHcepcsZdgQ/o.jpg", "is_closed": false, "url": "https://www.yelp.com/biz/lapointe-seafood-grill-kanata?adjust_creative=a2JdNtFqB-C38ga_06BHvw&utm_campaign=yelp_api_v3&utm_medium=api_v3_business_search&utm_source=a2JdNtFqB-C38ga_06BHvw", "review_count": 19, "categories": [{"alias": "seafood", "title": "Seafood"}], "rating": 3.5, "coordinates": {"latitude": 45.3211182, "longitude": -75.8897278}, "transactions": [], "price": "$$", "location": {"address1": "60 Colchester Square", "address2": "", "address3": "", "city": "Kanata", "zip_code": "K2K 2Z9", "country": "CA", "state": "ON", "display_address": ["60 Colchester Square", "Kanata, ON K2K 2Z9", "Canada"]}, "phone": "+16135991424", "display_phone": "+1 613-599-1424", "distance": 3941.603295481671}, {"id": "oUmczJgYckISnm-GcWs1vA", "alias": "mary-browns-kanata", "name": "Mary Brown's", "image_url": "https://s3-media4.fl.yelpcdn.com/bphoto/2C7ypC_00Lw6K-BsvVgwVQ/o.jpg", "is_closed": false, "url": "https://www.yelp.com/biz/mary-browns-kanata?adjust_creative=a2JdNtFqB-C38ga_06BHvw&utm_campaign=yelp_api_v3&utm_medium=api_v3_business_search&utm_source=a2JdNtFqB-C38ga_06BHvw", "review_count": 8, "categories": [{"alias": "chickenshop", "title": "Chicken Shop"}, {"alias": "hotdogs", "title": "Fast Food"}], "rating": 4.5, "coordinates": {"latitude": 45.311784, "longitude": -75.914676}, "transactions": [], "location": {"address1": "B 7-400 Earl Grey Drive", "address2": "", "address3": null, "city": "Kanata", "zip_code": "K2T 1B9", "country": "CA", "state": "ON", "display_address": ["B 7-400 Earl Grey Drive", "Kanata, ON K2T 1B9", "Canada"]}, "phone": "+16135922132", "display_phone": "+1 613-592-2132", "distance": 1894.4786431707337}, {"id": "dRsGpF5CoJI1RF1sWAFIYg", "alias": "fratelli-kanata-kanata", "name": "Fratelli Kanata", "image_url": "https://s3-media4.fl.yelpcdn.com/bphoto/SuRfn4dKZlpKvCb3qUcPdw/o.jpg", "is_closed": false, "url": "https://www.yelp.com/biz/fratelli-kanata-kanata?adjust_creative=a2JdNtFqB-C38ga_06BHvw&utm_campaign=yelp_api_v3&utm_medium=api_v3_business_search&utm_source=a2JdNtFqB-C38ga_06BHvw", "review_count": 20, "categories": [{"alias": "italian", "title": "Italian"}], "rating": 3.5, "coordinates": {"latitude": 45.310874, "longitude": -75.919913}, "transactions": [], "price": "$$", "location": {"address1": "499 Terry Fox Drive", "address2": "", "address3": "", "city": "Kanata", "zip_code": "K2T 1H7", "country": "CA", "state": "ON", "display_address": ["499 Terry Fox Drive", "Kanata, ON K2T 1H7", "Canada"]}, "phone": "+16135920225", "display_phone": "+1 613-592-0225", "distance": 1629.8272645174916}, {"id": "z9BUGQgTQAxubq1tW7AJtg", "alias": "five-guys-stittsville", "name": "Five Guys", "image_url": "https://s3-media2.fl.yelpcdn.com/bphoto/EOmWFKRm_u87LTwY06lrlg/o.jpg", "is_closed": false, "url": "https://www.yelp.com/biz/five-guys-stittsville?adjust_creative=a2JdNtFqB-C38ga_06BHvw&utm_campaign=yelp_api_v3&utm_medium=api_v3_business_search&utm_source=a2JdNtFqB-C38ga_06BHvw", "review_count": 23, "categories": [{"alias": "burgers", "title": "Burgers"}, {"alias": "hotdogs", "title": "Fast Food"}], "rating": 3.5, "coordinates": {"latitude": 45.28913356410362, "longitude": -75.9032883374691}, "transactions": [], "price": "$$", "location": {"address1": "5517 Hazeldean Road", "address2": "Building C2, Unit 6", "address3": "", "city": "Stittsville", "zip_code": "K2S 0P5", "country": "CA", "state": "ON", "display_address": ["5517 Hazeldean Road", "Building C2, Unit 6", "Stittsville, ON K2S 0P5", "Canada"]}, "phone": "+16138361800", "display_phone": "+1 613-836-1800", "distance": 2041.6168933704132}, {"id": "b40_y2JTkHWRSEsZLhklSA", "alias": "the-keg-steakhouse-and-bar-ottawa-4", "name": "The Keg Steakhouse and Bar", "image_url": "https://s3-media4.fl.yelpcdn.com/bphoto/_NzyKDrpzlGqAENU4vzOLA/o.jpg", "is_closed": false, "url": "https://www.yelp.com/biz/the-keg-steakhouse-and-bar-ottawa-4?adjust_creative=a2JdNtFqB-C38ga_06BHvw&utm_campaign=yelp_api_v3&utm_medium=api_v3_business_search&utm_source=a2JdNtFqB-C38ga_06BHvw", "review_count": 11, "categories": [{"alias": "bars", "title": "Bars"}, {"alias": "steak", "title": "Steakhouses"}, {"alias": "seafood", "title": "Seafood"}], "rating": 4.0, "coordinates": {"latitude": 45.2832111, "longitude": -75.9126301}, "transactions": [], "price": "$$$", "location": {"address1": "15 Huntmar Drive", "address2": "", "address3": null, "city": "Ottawa", "zip_code": "K2S 0P6", "country": "CA", "state": "ON", "display_address": ["15 Huntmar Drive", "Ottawa, ON K2S 0P6", "Canada"]}, "phone": "+16138366282", "display_phone": "+1 613-836-6282", "distance": 1898.1768724455728}, {"id": "2oefZz1plGBMhodKC7gAQA", "alias": "red-gables-creperie-stittsville-2", "name": "Red Gables Creperie", "image_url": "https://s3-media3.fl.yelpcdn.com/bphoto/0ibTiMygs52-U3Fij770aw/o.jpg", "is_closed": false, "url": "https://www.yelp.com/biz/red-gables-creperie-stittsville-2?adjust_creative=a2JdNtFqB-C38ga_06BHvw&utm_campaign=yelp_api_v3&utm_medium=api_v3_business_search&utm_source=a2JdNtFqB-C38ga_06BHvw", "review_count": 4, "categories": [{"alias": "creperies", "title": "Creperies"}], "rating": 5.0, "coordinates": {"latitude": 45.27309, "longitude": -75.9463}, "transactions": [], "location": {"address1": "2006 Carp Road", "address2": "", "address3": null, "city": "Stittsville", "zip_code": "K0A 1L0", "country": "CA", "state": "ON", "display_address": ["2006 Carp Road", "Stittsville, ON K0A 1L0", "Canada"]}, "phone": "+16138366688", "display_phone": "+1 613-836-6688", "distance": 3081.2013642515253}, {"id": "ArnQcsRrT463d5YgF0HW0A", "alias": "montanas-bbq-and-bar-kanata", "name": "Montana's BBQ & Bar", "image_url": "https://s3-media2.fl.yelpcdn.com/bphoto/8otYrBw3a1yTt4GPEqzMjw/o.jpg", "is_closed": false, "url": "https://www.yelp.com/biz/montanas-bbq-and-bar-kanata?adjust_creative=a2JdNtFqB-C38ga_06BHvw&utm_campaign=yelp_api_v3&utm_medium=api_v3_business_search&utm_source=a2JdNtFqB-C38ga_06BHvw", "review_count": 29, "categories": [{"alias": "comfortfood", "title": "Comfort Food"}, {"alias": "steak", "title": "Steakhouses"}, {"alias": "newcanadian", "title": "Canadian (New)"}], "rating": 3.0, "coordinates": {"latitude": 45.30878, "longitude": -75.91453}, "transactions": [], "price": "$$", "location": {"address1": "140 Earl Grey Dr", "address2": "", "address3": "", "city": "Kanata", "zip_code": "K2T 1B6", "country": "CA", "state": "ON", "display_address": ["140 Earl Grey Dr", "Kanata, ON K2T 1B6", "Canada"]}, "phone": "+16132700518", "display_phone": "+1 613-270-0518", "distance": 1642.3285731423466}, {"id": "vSboLc1uoiGzDVzJOtOPuQ", "alias": "pure-kitchen-ottawa-10", "name": "Pure Kitchen", "image_url": "https://s3-media2.fl.yelpcdn.com/bphoto/ffSl7rgxzQN7XWEM1G9Oog/o.jpg", "is_closed": false, "url": "https://www.yelp.com/biz/pure-kitchen-ottawa-10?adjust_creative=a2JdNtFqB-C38ga_06BHvw&utm_campaign=yelp_api_v3&utm_medium=api_v3_business_search&utm_source=a2JdNtFqB-C38ga_06BHvw", "review_count": 5, "categories": [{"alias": "vegan", "title": "Vegan"}, {"alias": "vegetarian", "title": "Vegetarian"}, {"alias": "juicebars", "title": "Juice Bars & Smoothies"}], "rating": 4.5, "coordinates": {"latitude": 45.31007, "longitude": -75.92216}, "transactions": [], "location": {"address1": "499 Terry Fox Dr", "address2": "Suite 55", "address3": null, "city": "Ottawa", "zip_code": "K2T 1H7", "country": "CA", "state": "ON", "display_address": ["499 Terry Fox Dr", "Suite 55", "Ottawa, ON K2T 1H7", "Canada"]}, "phone": "+16134358492", "display_phone": "+1 613-435-8492", "distance": 1621.8391320199644}, {"id": "_blRFP8TobguDa3u9u1v8g", "alias": "jack-astors-bar-and-grill-kanata-kanata", "name": "Jack Astor's Bar & Grill Kanata", "image_url": "https://s3-media4.fl.yelpcdn.com/bphoto/5gc_kVQvu2RNucNWXxdALg/o.jpg", "is_closed": false, "url": "https://www.yelp.com/biz/jack-astors-bar-and-grill-kanata-kanata?adjust_creative=a2JdNtFqB-C38ga_06BHvw&utm_campaign=yelp_api_v3&utm_medium=api_v3_business_search&utm_source=a2JdNtFqB-C38ga_06BHvw", "review_count": 29, "categories": [{"alias": "sportsbars", "title": "Sports Bars"}, {"alias": "burgers", "title": "Burgers"}, {"alias": "newcanadian", "title": "Canadian (New)"}], "rating": 3.0, "coordinates": {"latitude": 45.30851, "longitude": -75.91322}, "transactions": [], "price": "$$", "location": {"address1": "125 Roland Michener Drive", "address2": "", "address3": "", "city": "Kanata", "zip_code": "K2T 1G7", "country": "CA", "state": "ON", "display_address": ["125 Roland Michener Drive", "Kanata, ON K2T 1G7", "Canada"]}, "phone": "+16132711041", "display_phone": "+1 613-271-1041", "distance": 1660.8152041175695}, {"id": "HTY4W4RJ-zLJhlB3VE-IGw", "alias": "rockin-johnnys-diner-kanata", "name": "Rockin Johnny's Diner", "image_url": "https://s3-media2.fl.yelpcdn.com/bphoto/eFR3uwML0peE7ph8n61bHQ/o.jpg", "is_closed": false, "url": "https://www.yelp.com/biz/rockin-johnnys-diner-kanata?adjust_creative=a2JdNtFqB-C38ga_06BHvw&utm_campaign=yelp_api_v3&utm_medium=api_v3_business_search&utm_source=a2JdNtFqB-C38ga_06BHvw", "review_count": 17, "categories": [{"alias": "diners", "title": "Diners"}], "rating": 3.0, "coordinates": {"latitude": 45.2962599, "longitude": -75.89003}, "transactions": [], "price": "$$", "location": {"address1": "486 Hazeldean Road", "address2": "", "address3": "", "city": "Kanata", "zip_code": "K2L 1V4", "country": "CA", "state": "ON", "display_address": ["486 Hazeldean Road", "Kanata, ON K2L 1V4", "Canada"]}, "phone": "+16135917523", "display_phone": "+1 613-591-7523", "distance": 2823.9006436138693}, {"id": "O5LpZiE9zVQBPDVsaQOK3A", "alias": "mr-shawarma-ottawa", "name": "Mr Shawarma", "image_url": "https://s3-media1.fl.yelpcdn.com/bphoto/HjYfvUP5lbgCiWl1JeVCPg/o.jpg", "is_closed": false, "url": "https://www.yelp.com/biz/mr-shawarma-ottawa?adjust_creative=a2JdNtFqB-C38ga_06BHvw&utm_campaign=yelp_api_v3&utm_medium=api_v3_business_search&utm_source=a2JdNtFqB-C38ga_06BHvw", "review_count": 11, "categories": [{"alias": "sandwiches", "title": "Sandwiches"}, {"alias": "mideastern", "title": "Middle Eastern"}], "rating": 3.5, "coordinates": {"latitude": 45.2892582550978, "longitude": -75.9032273817934}, "transactions": [], "price": "$", "location": {"address1": "5517 Hazeldean Road", "address2": "Unit 5", "address3": "", "city": "Ottawa", "zip_code": "K2S 0P5", "country": "CA", "state": "ON", "display_address": ["5517 Hazeldean Road", "Unit 5", "Ottawa, ON K2S 0P5", "Canada"]}, "phone": "+16138310333", "display_phone": "+1 613-831-0333", "distance": 2039.9916364556757}, {"id": "1p5ZA5XZ1K0TD3tm7VvT4Q", "alias": "la-cucina-ristorante-ottawa", "name": "La Cucina Ristorante", "image_url": "https://s3-media1.fl.yelpcdn.com/bphoto/Lxy51Vry1JYrA5kHWedNLw/o.jpg", "is_closed": false, "url": "https://www.yelp.com/biz/la-cucina-ristorante-ottawa?adjust_creative=a2JdNtFqB-C38ga_06BHvw&utm_campaign=yelp_api_v3&utm_medium=api_v3_business_search&utm_source=a2JdNtFqB-C38ga_06BHvw", "review_count": 14, "categories": [{"alias": "italian", "title": "Italian"}], "rating": 3.0, "coordinates": {"latitude": 45.2880503682277, "longitude": -75.9050157666206}, "transactions": [], "price": "$$$", "location": {"address1": "5547 Hazeldean Road", "address2": "", "address3": "", "city": "Ottawa", "zip_code": "K2S 0P5", "country": "CA", "state": "ON", "display_address": ["5547 Hazeldean Road", "Ottawa, ON K2S 0P5", "Canada"]}, "phone": "+16138361811", "display_phone": "+1 613-836-1811", "distance": 1978.691695042026}, {"id": "mfJeVjqaHL0DWzANn6oDtA", "alias": "mandarin-restaurant-kanata-ottawa", "name": "Mandarin Restaurant - Kanata", "image_url": "https://s3-media1.fl.yelpcdn.com/bphoto/GvriI5x1DAIzO19ygXbbYA/o.jpg", "is_closed": false, "url": "https://www.yelp.com/biz/mandarin-restaurant-kanata-ottawa?adjust_creative=a2JdNtFqB-C38ga_06BHvw&utm_campaign=yelp_api_v3&utm_medium=api_v3_business_search&utm_source=a2JdNtFqB-C38ga_06BHvw", "review_count": 7, "categories": [{"alias": "buffets", "title": "Buffets"}, {"alias": "chinese", "title": "Chinese"}], "rating": 4.0, "coordinates": {"latitude": 45.31281, "longitude": -75.89562}, "transactions": [], "price": "$$", "location": {"address1": "150 B  Katimavik Road", "address2": "", "address3": null, "city": "Ottawa", "zip_code": "K2L 2N2", "country": "CA", "state": "ON", "display_address": ["150 B  Katimavik Road", "Ottawa, ON K2L 2N2", "Canada"]}, "phone": "+16132716000", "display_phone": "+1 613-271-6000", "distance": 2966.0757521702994}, {"id": "bmyjYXY4gnaSsgwJJZLd6Q", "alias": "sushi-kanata-kanata", "name": "Sushi Kanata", "image_url": "https://s3-media1.fl.yelpcdn.com/bphoto/lRuZt8FfXBqjfcXeQ5aCBw/o.jpg", "is_closed": false, "url": "https://www.yelp.com/biz/sushi-kanata-kanata?adjust_creative=a2JdNtFqB-C38ga_06BHvw&utm_campaign=yelp_api_v3&utm_medium=api_v3_business_search&utm_source=a2JdNtFqB-C38ga_06BHvw", "review_count": 35, "categories": [{"alias": "sushi", "title": "Sushi Bars"}], "rating": 2.5, "coordinates": {"latitude": 45.3101460426961, "longitude": -75.9097100148804}, "transactions": [], "price": "$$", "location": {"address1": "655 Avenue Kanata", "address2": "", "address3": "", "city": "Kanata", "zip_code": "K2T 1H6", "country": "CA", "state": "ON", "display_address": ["655 Avenue Kanata", "Kanata, ON K2T 1H6", "Canada"]}, "phone": "+16135990009", "display_phone": "+1 613-599-0009", "distance": 1978.66522830819}, {"id": "HDtAbk1dYq9B5l5viZ9bnQ", "alias": "amaya-buffet-kanata-ottawa", "name": "Amaya Buffet - Kanata", "image_url": "https://s3-media2.fl.yelpcdn.com/bphoto/K094b8lttTgs7km_cfQsBw/o.jpg", "is_closed": false, "url": "https://www.yelp.com/biz/amaya-buffet-kanata-ottawa?adjust_creative=a2JdNtFqB-C38ga_06BHvw&utm_campaign=yelp_api_v3&utm_medium=api_v3_business_search&utm_source=a2JdNtFqB-C38ga_06BHvw", "review_count": 9, "categories": [{"alias": "indpak", "title": "Indian"}, {"alias": "buffets", "title": "Buffets"}], "rating": 3.5, "coordinates": {"latitude": 45.3117911811722, "longitude": -75.9155706048233}, "transactions": [], "location": {"address1": "300 Earl Grey Drive", "address2": "Unit A20", "address3": "Kanata Center", "city": "Ottawa", "zip_code": "K2T 1B8", "country": "CA", "state": "ON", "display_address": ["300 Earl Grey Drive", "Unit A20", "Kanata Center", "Ottawa, ON K2T 1B8", "Canada"]}, "phone": "+16136720786", "display_phone": "+1 613-672-0786", "distance": 1861.0390650934785}, {"id": "Ml2VtdPup2KHDGS40397FQ", "alias": "eggstyle-ottawa", "name": "Eggstyle", "image_url": "https://s3-media3.fl.yelpcdn.com/bphoto/XIYW50rSHblLYbFqmBpOjQ/o.jpg", "is_closed": false, "url": "https://www.yelp.com/biz/eggstyle-ottawa?adjust_creative=a2JdNtFqB-C38ga_06BHvw&utm_campaign=yelp_api_v3&utm_medium=api_v3_business_search&utm_source=a2JdNtFqB-C38ga_06BHvw", "review_count": 20, "categories": [{"alias": "breakfast_brunch", "title": "Breakfast & Brunch"}], "rating": 3.0, "coordinates": {"latitude": 45.3121913, "longitude": -75.9092668}, "transactions": [], "price": "$$", "location": {"address1": "790 Kanata Avenue", "address2": "", "address3": "", "city": "Ottawa", "zip_code": "K2T 1H9", "country": "CA", "state": "ON", "display_address": ["790 Kanata Avenue", "Ottawa, ON K2T 1H9", "Canada"]}, "phone": "+16135921116", "display_phone": "+1 613-592-1116", "distance": 2173.2950680238996}, {"id": "ddbXoP_KL1Vo6FYOmzPoYw", "alias": "amberwood-lounge-and-eatery-stittsville", "name": "Amberwood Lounge & Eatery", "image_url": "https://s3-media4.fl.yelpcdn.com/bphoto/qpr9QspBLPaIC15fI5w8NA/o.jpg", "is_closed": false, "url": "https://www.yelp.com/biz/amberwood-lounge-and-eatery-stittsville?adjust_creative=a2JdNtFqB-C38ga_06BHvw&utm_campaign=yelp_api_v3&utm_medium=api_v3_business_search&utm_source=a2JdNtFqB-C38ga_06BHvw", "review_count": 3, "categories": [{"alias": "breakfast_brunch", "title": "Breakfast & Brunch"}, {"alias": "cocktailbars", "title": "Cocktail Bars"}, {"alias": "venues", "title": "Venues & Event Spaces"}], "rating": 4.5, "coordinates": {"latitude": 45.2711747574835, "longitude": -75.9220687969696}, "transactions": [], "price": "$$$", "location": {"address1": "54 Springbrook Drive", "address2": "", "address3": "", "city": "Stittsville", "zip_code": "K2S 1B9", "country": "CA", "state": "ON", "display_address": ["54 Springbrook Drive", "Stittsville, ON K2S 1B9", "Canada"]}, "phone": "+16138312442", "display_phone": "+1 613-831-2442", "distance": 2901.229235710533}, {"id": "KKD4yoUFCE_R_vfhPfWIaw", "alias": "boston-pizza-kanata", "name": "Boston Pizza", "image_url": "https://s3-media1.fl.yelpcdn.com/bphoto/fdTw83Aa7_1H5vk37pCzCA/o.jpg", "is_closed": false, "url": "https://www.yelp.com/biz/boston-pizza-kanata?adjust_creative=a2JdNtFqB-C38ga_06BHvw&utm_campaign=yelp_api_v3&utm_medium=api_v3_business_search&utm_source=a2JdNtFqB-C38ga_06BHvw", "review_count": 15, "categories": [{"alias": "italian", "title": "Italian"}, {"alias": "pizza", "title": "Pizza"}, {"alias": "chicken_wings", "title": "Chicken Wings"}], "rating": 2.5, "coordinates": {"latitude": 45.3085815, "longitude": -75.9119289}, "transactions": [], "price": "$$", "location": {"address1": "135 Roland Michener Drive", "address2": "", "address3": "", "city": "Kanata", "zip_code": "K2T 1G7", "country": "CA", "state": "ON", "display_address": ["135 Roland Michener Drive", "Kanata, ON K2T 1G7", "Canada"]}, "phone": "+16135927031", "display_phone": "+1 613-592-7031", "distance": 1699.4546217850339}, {"id": "xfPIctfTlsrh0TI8EwV0fQ", "alias": "simbad-bakery-ottawa", "name": "Simbad Bakery", "image_url": "https://s3-media4.fl.yelpcdn.com/bphoto/2e3NzB44BkEZI7SqRRes8Q/o.jpg", "is_closed": false, "url": "https://www.yelp.com/biz/simbad-bakery-ottawa?adjust_creative=a2JdNtFqB-C38ga_06BHvw&utm_campaign=yelp_api_v3&utm_medium=api_v3_business_search&utm_source=a2JdNtFqB-C38ga_06BHvw", "review_count": 4, "categories": [{"alias": "bakeries", "title": "Bakeries"}, {"alias": "mideastern", "title": "Middle Eastern"}], "rating": 4.0, "coordinates": {"latitude": 45.29835, "longitude": -75.88937}, "transactions": [], "location": {"address1": "471 Hazeldean Road", "address2": null, "address3": "", "city": "Ottawa", "zip_code": "K2L 4B8", "country": "CA", "state": "ON", "display_address": ["471 Hazeldean Road", "Ottawa, ON K2L 4B8", "Canada"]}, "phone": "+16138311311", "display_phone": "+1 613-831-1311", "distance": 2929.227341854447}, {"id": "8STogEt3MejVWxctz9I7Ww", "alias": "fusion-dim-sum-sushi-stittsville", "name": "Fusion Dim Sum - Sushi", "image_url": "https://s3-media3.fl.yelpcdn.com/bphoto/xqUVUmfvjOf67y1QtyxJhQ/o.jpg", "is_closed": false, "url": "https://www.yelp.com/biz/fusion-dim-sum-sushi-stittsville?adjust_creative=a2JdNtFqB-C38ga_06BHvw&utm_campaign=yelp_api_v3&utm_medium=api_v3_business_search&utm_source=a2JdNtFqB-C38ga_06BHvw", "review_count": 23, "categories": [{"alias": "dimsum", "title": "Dim Sum"}, {"alias": "sushi", "title": "Sushi Bars"}, {"alias": "asianfusion", "title": "Asian Fusion"}], "rating": 2.5, "coordinates": {"latitude": 45.2874133, "longitude": -75.9056195}, "transactions": [], "price": "$$", "location": {"address1": "5507 Hazeldean Road", "address2": "", "address3": "", "city": "Stittsville", "zip_code": "K2S 0P5", "country": "CA", "state": "ON", "display_address": ["5507 Hazeldean Road", "Stittsville, ON K2S 0P5", "Canada"]}, "phone": "+16138361688", "display_phone": "+1 613-836-1688", "distance": 2076.8695728713788}, {"id": "iXW3nPPryarKr2Fh40bX9Q", "alias": "dominos-pizza-ottawa-12", "name": "Domino's Pizza", "image_url": "https://s3-media2.fl.yelpcdn.com/bphoto/w8pSUyrIWMRGOPofo-P_hQ/o.jpg", "is_closed": false, "url": "https://www.yelp.com/biz/dominos-pizza-ottawa-12?adjust_creative=a2JdNtFqB-C38ga_06BHvw&utm_campaign=yelp_api_v3&utm_medium=api_v3_business_search&utm_source=a2JdNtFqB-C38ga_06BHvw", "review_count": 2, "categories": [{"alias": "pizza", "title": "Pizza"}], "rating": 5.0, "coordinates": {"latitude": 45.305498, "longitude": -75.923186}, "transactions": [], "location": {"address1": "8221-D Campeau Drive", "address2": "", "address3": null, "city": "Ottawa", "zip_code": "K2T 0A2", "country": "CA", "state": "ON", "display_address": ["8221-D Campeau Drive", "Ottawa, ON K2T 0A2", "Canada"]}, "phone": "+16135951234", "display_phone": "+1 613-595-1234", "distance": 981.8898726736951}, {"id": "pc7HQ03xSTVWoLszAlrc6Q", "alias": "digbys-restaurant-kanata", "name": "Digby's Restaurant", "image_url": "https://s3-media1.fl.yelpcdn.com/bphoto/Vvf1-RyI_6VUoweCqyPm9Q/o.jpg", "is_closed": false, "url": "https://www.yelp.com/biz/digbys-restaurant-kanata?adjust_creative=a2JdNtFqB-C38ga_06BHvw&utm_campaign=yelp_api_v3&utm_medium=api_v3_business_search&utm_source=a2JdNtFqB-C38ga_06BHvw", "review_count": 14, "categories": [{"alias": "seafood", "title": "Seafood"}, {"alias": "fishnchips", "title": "Fish & Chips"}], "rating": 2.5, "coordinates": {"latitude": 45.3117966099249, "longitude": -75.9156504258327}, "transactions": [], "price": "$$", "location": {"address1": "17-300 Earl Grey Drive", "address2": "", "address3": "", "city": "Kanata", "zip_code": "K2T 1B8", "country": "CA", "state": "ON", "display_address": ["17-300 Earl Grey Drive", "Kanata, ON K2T 1B8", "Canada"]}, "phone": "+16135999800", "display_phone": "+1 613-599-9800", "distance": 1858.6238993323316}, {"id": "mHRoUN_rwwoDezTFxc4jwA", "alias": "streats-ottawa", "name": "strEATS", "image_url": "https://s3-media3.fl.yelpcdn.com/bphoto/-EDTFB_evwuiGeCKRqraPw/o.jpg", "is_closed": false, "url": "https://www.yelp.com/biz/streats-ottawa?adjust_creative=a2JdNtFqB-C38ga_06BHvw&utm_campaign=yelp_api_v3&utm_medium=api_v3_business_search&utm_source=a2JdNtFqB-C38ga_06BHvw", "review_count": 5, "categories": [{"alias": "hotdogs", "title": "Fast Food"}, {"alias": "poutineries", "title": "Poutineries"}, {"alias": "fishnchips", "title": "Fish & Chips"}], "rating": 3.5, "coordinates": {"latitude": 45.296105, "longitude": -75.889789}, "transactions": [], "location": {"address1": "G7-484 Hazeldean Road", "address2": "", "address3": null, "city": "Ottawa", "zip_code": "K2L 1V4", "country": "CA", "state": "ON", "display_address": ["G7-484 Hazeldean Road", "Ottawa, ON K2L 1V4", "Canada"]}, "phone": "+16138368887", "display_phone": "+1 613-836-8887", "distance": 2899.8139310840875}, {"id": "4T4in-WwYv4-723Ds7JqSg", "alias": "bangkok-buri-kanata", "name": "Bangkok Buri", "image_url": "https://s3-media1.fl.yelpcdn.com/bphoto/k6bh5i1YcORNIqhalbZdvA/o.jpg", "is_closed": false, "url": "https://www.yelp.com/biz/bangkok-buri-kanata?adjust_creative=a2JdNtFqB-C38ga_06BHvw&utm_campaign=yelp_api_v3&utm_medium=api_v3_business_search&utm_source=a2JdNtFqB-C38ga_06BHvw", "review_count": 5, "categories": [{"alias": "thai", "title": "Thai"}], "rating": 3.5, "coordinates": {"latitude": 45.3117130374465, "longitude": -75.9158297628164}, "transactions": [], "location": {"address1": "300 Earl Grey Drive", "address2": "Unit 10B", "address3": null, "city": "Kanata", "zip_code": "K2T 1C1", "country": "CA", "state": "ON", "display_address": ["300 Earl Grey Drive", "Unit 10B", "Kanata, ON K2T 1C1", "Canada"]}, "phone": "+16135951112", "display_phone": "+1 613-595-1112", "distance": 1843.8402781570026}, {"id": "0HwlrkC0NtQDxXK6TWEBTA", "alias": "graffitis-kanata-2", "name": "Graffiti's", "image_url": "https://s3-media2.fl.yelpcdn.com/bphoto/KNxNXTrdd54YnaJKSjeD8Q/o.jpg", "is_closed": false, "url": "https://www.yelp.com/biz/graffitis-kanata-2?adjust_creative=a2JdNtFqB-C38ga_06BHvw&utm_campaign=yelp_api_v3&utm_medium=api_v3_business_search&utm_source=a2JdNtFqB-C38ga_06BHvw", "review_count": 12, "categories": [{"alias": "italian", "title": "Italian"}], "rating": 3.0, "coordinates": {"latitude": 45.3121152, "longitude": -75.9045226}, "transactions": [], "price": "$$", "location": {"address1": "101 Kanata Avenue", "address2": "", "address3": "", "city": "Kanata", "zip_code": "K2T 1E6", "country": "CA", "state": "ON", "display_address": ["101 Kanata Avenue", "Kanata, ON K2T 1E6", "Canada"]}, "phone": "+16132710921", "display_phone": "+1 613-271-0921", "distance": 2419.130950128813}, {"id": "UDvEhbwiO0E51ymkacrl-A", "alias": "kelseys-original-roadhouse-kanata", "name": "Kelseys Original Roadhouse", "image_url": "https://s3-media1.fl.yelpcdn.com/bphoto/5O5apD8LrPuyjTtkJs7eTA/o.jpg", "is_closed": false, "url": "https://www.yelp.com/biz/kelseys-original-roadhouse-kanata?adjust_creative=a2JdNtFqB-C38ga_06BHvw&utm_campaign=yelp_api_v3&utm_medium=api_v3_business_search&utm_source=a2JdNtFqB-C38ga_06BHvw", "review_count": 11, "categories": [{"alias": "comfortfood", "title": "Comfort Food"}, {"alias": "bars", "title": "Bars"}, {"alias": "newcanadian", "title": "Canadian (New)"}], "rating": 2.5, "coordinates": {"latitude": 45.314346, "longitude": -75.913545}, "transactions": [], "price": "$$", "location": {"address1": "130 Earl Grey Drive", "address2": "", "address3": "", "city": "Kanata", "zip_code": "K2T 1B6", "country": "CA", "state": "ON", "display_address": ["130 Earl Grey Drive", "Kanata, ON K2T 1B6", "Canada"]}, "phone": "+16135994343", "display_phone": "+1 613-599-4343", "distance": 2186.262741727413}, {"id": "rM5Du59cOFPq13MhbOP4yw", "alias": "east-side-marios-kanata-3", "name": "East Side Mario's", "image_url": "https://s3-media2.fl.yelpcdn.com/bphoto/bIABTolk3M4fPQYw6w79qA/o.jpg", "is_closed": false, "url": "https://www.yelp.com/biz/east-side-marios-kanata-3?adjust_creative=a2JdNtFqB-C38ga_06BHvw&utm_campaign=yelp_api_v3&utm_medium=api_v3_business_search&utm_source=a2JdNtFqB-C38ga_06BHvw", "review_count": 8, "categories": [{"alias": "italian", "title": "Italian"}, {"alias": "tradamerican", "title": "American (Traditional)"}, {"alias": "pizza", "title": "Pizza"}], "rating": 3.0, "coordinates": {"latitude": 45.2968411, "longitude": -75.9000215}, "transactions": [], "price": "$$", "location": {"address1": "651 Terry Fox Drive", "address2": "", "address3": "", "city": "Kanata", "zip_code": "K2L 4E7", "country": "CA", "state": "ON", "display_address": ["651 Terry Fox Drive", "Kanata, ON K2L 4E7", "Canada"]}, "phone": "+16138363680", "display_phone": "+1 613-836-3680", "distance": 2111.282039039304}, {"id": "fgIuDwqicIl7Bq4_he_-4g", "alias": "arbys-ottawa-4", "name": "Arby's", "image_url": "https://s3-media1.fl.yelpcdn.com/bphoto/tNVpwjrpOz1v5vmftJYfvQ/o.jpg", "is_closed": false, "url": "https://www.yelp.com/biz/arbys-ottawa-4?adjust_creative=a2JdNtFqB-C38ga_06BHvw&utm_campaign=yelp_api_v3&utm_medium=api_v3_business_search&utm_source=a2JdNtFqB-C38ga_06BHvw", "review_count": 5, "categories": [{"alias": "hotdogs", "title": "Fast Food"}, {"alias": "sandwiches", "title": "Sandwiches"}], "rating": 3.5, "coordinates": {"latitude": 45.2974274, "longitude": -75.8891815}, "transactions": [], "price": "$", "location": {"address1": "474 Hazeldean Road", "address2": "Unit 14", "address3": "", "city": "Ottawa", "zip_code": "K2L 1V3", "country": "CA", "state": "ON", "display_address": ["474 Hazeldean Road", "Unit 14", "Ottawa, ON K2L 1V3", "Canada"]}, "phone": "+16138313030", "display_phone": "+1 613-831-3030", "distance": 2945.694627867194}, {"id": "JpCWIaUdX9mVw4mTJqTo9g", "alias": "d-arcy-mcgees-irish-pub-kanata", "name": "D'arcy McGee's Irish Pub", "image_url": "https://s3-media1.fl.yelpcdn.com/bphoto/fLmOxQvSf0b8yuxA2oqzzA/o.jpg", "is_closed": false, "url": "https://www.yelp.com/biz/d-arcy-mcgees-irish-pub-kanata?adjust_creative=a2JdNtFqB-C38ga_06BHvw&utm_campaign=yelp_api_v3&utm_medium=api_v3_business_search&utm_source=a2JdNtFqB-C38ga_06BHvw", "review_count": 21, "categories": [{"alias": "bars", "title": "Bars"}, {"alias": "beer_and_wine", "title": "Beer, Wine & Spirits"}, {"alias": "gastropubs", "title": "Gastropubs"}], "rating": 2.0, "coordinates": {"latitude": 45.2961702559902, "longitude": -75.8988730658976}, "transactions": [], "price": "$$", "location": {"address1": "655 Terry Fox Dr", "address2": "", "address3": "", "city": "Kanata", "zip_code": "K2L 4E7", "country": "CA", "state": "ON", "display_address": ["655 Terry Fox Dr", "Kanata, ON K2L 4E7", "Canada"]}, "phone": "+16138368311", "display_phone": "+1 613-836-8311", "distance": 2189.551533992287}, {"id": "PDpIG-SFM1S19ZPuxbVcGA", "alias": "tommys-dining-lounge-kanata", "name": "Tommy's Dining Lounge", "image_url": "", "is_closed": false, "url": "https://www.yelp.com/biz/tommys-dining-lounge-kanata?adjust_creative=a2JdNtFqB-C38ga_06BHvw&utm_campaign=yelp_api_v3&utm_medium=api_v3_business_search&utm_source=a2JdNtFqB-C38ga_06BHvw", "review_count": 7, "categories": [{"alias": "pizza", "title": "Pizza"}, {"alias": "italian", "title": "Italian"}], "rating": 3.0, "coordinates": {"latitude": 45.31462, "longitude": -75.89434}, "transactions": [], "price": "$$", "location": {"address1": "260 Hearst Way", "address2": "", "address3": "", "city": "Kanata", "zip_code": "K2L 3H1", "country": "CA", "state": "ON", "display_address": ["260 Hearst Way", "Kanata, ON K2L 3H1", "Canada"]}, "phone": "+16135920442", "display_phone": "+1 613-592-0442", "distance": 3183.0889502824193}, {"id": "a4SmfAPRBJlaVRQO9oPzxw", "alias": "big-ds-dog-house-and-poutine-emporium-ottawa", "name": "Big D's Dog House & Poutine Emporium", "image_url": "https://s3-media2.fl.yelpcdn.com/bphoto/VAa5hJfwnIk87nfIhZXalg/o.jpg", "is_closed": false, "url": "https://www.yelp.com/biz/big-ds-dog-house-and-poutine-emporium-ottawa?adjust_creative=a2JdNtFqB-C38ga_06BHvw&utm_campaign=yelp_api_v3&utm_medium=api_v3_business_search&utm_source=a2JdNtFqB-C38ga_06BHvw", "review_count": 4, "categories": [{"alias": "foodtrucks", "title": "Food Trucks"}, {"alias": "poutineries", "title": "Poutineries"}, {"alias": "hotdog", "title": "Hot Dogs"}], "rating": 3.5, "coordinates": {"latitude": 45.2785071, "longitude": -75.9189909}, "transactions": [], "price": "$$", "location": {"address1": "5862 Hazeldean Road", "address2": "", "address3": "", "city": "Ottawa", "zip_code": "K2S 0N9", "country": "CA", "state": "ON", "display_address": ["5862 Hazeldean Road", "Ottawa, ON K2S 0N9", "Canada"]}, "phone": "+16132952125", "display_phone": "+1 613-295-2125", "distance": 2151.2646628865473}, {"id": "rM0P0yifeeCtDKjrXZ6cnQ", "alias": "suzies-little-red-wagon-ottawa", "name": "Suzie's Little Red Wagon", "image_url": "", "is_closed": false, "url": "https://www.yelp.com/biz/suzies-little-red-wagon-ottawa?adjust_creative=a2JdNtFqB-C38ga_06BHvw&utm_campaign=yelp_api_v3&utm_medium=api_v3_business_search&utm_source=a2JdNtFqB-C38ga_06BHvw", "review_count": 2, "categories": [{"alias": "foodstands", "title": "Food Stands"}], "rating": 4.5, "coordinates": {"latitude": 45.28084, "longitude": -75.91625}, "transactions": [], "price": "$$", "location": {"address1": "1 Cedarow Ct", "address2": "", "address3": "", "city": "Ottawa", "zip_code": "K2S 0N9", "country": "CA", "state": "ON", "display_address": ["1 Cedarow Ct", "Ottawa, ON K2S 0N9", "Canada"]}, "phone": "", "display_phone": "", "distance": 1983.5082658346137}, {"id": "2-9NAbMHb8lhLSyzh8ZjpQ", "alias": "karara-the-indian-takeout-ottawa", "name": "KARARA - The Indian Takeout", "image_url": "https://s3-media3.fl.yelpcdn.com/bphoto/BP6Tm3aGgjqMqaiJp1OMJA/o.jpg", "is_closed": false, "url": "https://www.yelp.com/biz/karara-the-indian-takeout-ottawa?adjust_creative=a2JdNtFqB-C38ga_06BHvw&utm_campaign=yelp_api_v3&utm_medium=api_v3_business_search&utm_source=a2JdNtFqB-C38ga_06BHvw", "review_count": 12, "categories": [{"alias": "indpak", "title": "Indian"}], "rating": 2.5, "coordinates": {"latitude": 45.2974381, "longitude": -75.8891761}, "transactions": [], "price": "$$", "location": {"address1": "474 Hazeldean Road", "address2": "", "address3": "", "city": "Ottawa", "zip_code": "K2L 4E5", "country": "CA", "state": "ON", "display_address": ["474 Hazeldean Road", "Ottawa, ON K2L 4E5", "Canada"]}, "phone": "+16138361336", "display_phone": "+1 613-836-1336", "distance": 2946.1338923731664}, {"id": "SvDc09fKy4dcsSVza5BHyA", "alias": "little-caesars-pizza-ottawa-2", "name": "Little Caesars Pizza", "image_url": "https://s3-media1.fl.yelpcdn.com/bphoto/bC6Pkh0TZnw2weiEgOB5kA/o.jpg", "is_closed": false, "url": "https://www.yelp.com/biz/little-caesars-pizza-ottawa-2?adjust_creative=a2JdNtFqB-C38ga_06BHvw&utm_campaign=yelp_api_v3&utm_medium=api_v3_business_search&utm_source=a2JdNtFqB-C38ga_06BHvw", "review_count": 3, "categories": [{"alias": "pizza", "title": "Pizza"}], "rating": 3.5, "coordinates": {"latitude": 45.2936157901722, "longitude": -75.8941048354962}, "transactions": [], "location": {"address1": "500 Hazeldean Road", "address2": "", "address3": "", "city": "Ottawa", "zip_code": "K2L 2B5", "country": "CA", "state": "ON", "display_address": ["500 Hazeldean Road", "Ottawa, ON K2L 2B5", "Canada"]}, "phone": "+16138313131", "display_phone": "+1 613-831-3131", "distance": 2588.700930411439}, {"id": "dgCB9S-ECCq09XUg4Vs9Rw", "alias": "san-jose-mexican-foods-stittsville", "name": "San Jose Mexican Foods", "image_url": "https://s3-media1.fl.yelpcdn.com/bphoto/vyjSY1fEepTAKwnHEQ6rPg/o.jpg", "is_closed": false, "url": "https://www.yelp.com/biz/san-jose-mexican-foods-stittsville?adjust_creative=a2JdNtFqB-C38ga_06BHvw&utm_campaign=yelp_api_v3&utm_medium=api_v3_business_search&utm_source=a2JdNtFqB-C38ga_06BHvw", "review_count": 3, "categories": [{"alias": "mexican", "title": "Mexican"}, {"alias": "intlgrocery", "title": "International Grocery"}, {"alias": "foodtrucks", "title": "Food Trucks"}], "rating": 3.5, "coordinates": {"latitude": 45.27250189999999, "longitude": -75.9455961}, "transactions": [], "location": {"address1": "1017B Carp Road", "address2": "", "address3": null, "city": "Stittsville", "zip_code": "K2S 1B9", "country": "CA", "state": "ON", "display_address": ["1017B Carp Road", "Stittsville, ON K2S 1B9", "Canada"]}, "phone": "+16134132295", "display_phone": "+1 613-413-2295", "distance": 3099.0668463055813}, {"id": "WWY4pnwA57eajmnN0vraLw", "alias": "benny-and-co-ottawa", "name": "Benny&Co.", "image_url": "https://s3-media3.fl.yelpcdn.com/bphoto/NyFUJnIGMEIHhll9zSnPYg/o.jpg", "is_closed": false, "url": "https://www.yelp.com/biz/benny-and-co-ottawa?adjust_creative=a2JdNtFqB-C38ga_06BHvw&utm_campaign=yelp_api_v3&utm_medium=api_v3_business_search&utm_source=a2JdNtFqB-C38ga_06BHvw", "review_count": 5, "categories": [{"alias": "chickenshop", "title": "Chicken Shop"}, {"alias": "poutineries", "title": "Poutineries"}], "rating": 3.0, "coordinates": {"latitude": 45.2853475295444, "longitude": -75.9093335824373}, "transactions": [], "location": {"address1": "5671 Hazeldean Rd", "address2": "", "address3": null, "city": "Ottawa", "zip_code": "K2S 0P6", "country": "CA", "state": "ON", "display_address": ["5671 Hazeldean Rd", "Ottawa, ON K2S 0P6", "Canada"]}, "phone": "+16133834999", "display_phone": "+1 613-383-4999", "distance": 1888.9358018573541}, {"id": "RhkAAmP8uFIlEgbznlapOQ", "alias": "swiss-chalet-kanata", "name": "Swiss Chalet", "image_url": "https://s3-media3.fl.yelpcdn.com/bphoto/i3cpPLk4HIoo95aE3N_zbQ/o.jpg", "is_closed": false, "url": "https://www.yelp.com/biz/swiss-chalet-kanata?adjust_creative=a2JdNtFqB-C38ga_06BHvw&utm_campaign=yelp_api_v3&utm_medium=api_v3_business_search&utm_source=a2JdNtFqB-C38ga_06BHvw", "review_count": 13, "categories": [{"alias": "tradamerican", "title": "American (Traditional)"}, {"alias": "comfortfood", "title": "Comfort Food"}], "rating": 2.0, "coordinates": {"latitude": 45.2968421, "longitude": -75.9007486}, "transactions": [], "price": "$$", "location": {"address1": "653 Terry Fox Dr", "address2": "", "address3": "", "city": "Kanata", "zip_code": "K2L 4E7", "country": "CA", "state": "ON", "display_address": ["653 Terry Fox Dr", "Kanata, ON K2L 4E7", "Canada"]}, "phone": "+16138318400", "display_phone": "+1 613-831-8400", "distance": 2137.2776822443925}, {"id": "xmTwA1mzr1_koRD7PFewfQ", "alias": "harveys-kanata-2", "name": "Harvey's", "image_url": "https://s3-media1.fl.yelpcdn.com/bphoto/mKfR32lVDOZDxwpA7hqOPA/o.jpg", "is_closed": false, "url": "https://www.yelp.com/biz/harveys-kanata-2?adjust_creative=a2JdNtFqB-C38ga_06BHvw&utm_campaign=yelp_api_v3&utm_medium=api_v3_business_search&utm_source=a2JdNtFqB-C38ga_06BHvw", "review_count": 4, "categories": [{"alias": "burgers", "title": "Burgers"}, {"alias": "hotdogs", "title": "Fast Food"}, {"alias": "tradamerican", "title": "American (Traditional)"}], "rating": 3.0, "coordinates": {"latitude": 45.30878, "longitude": -75.91455}, "transactions": [], "location": {"address1": "150 Earl Grey Drive", "address2": "", "address3": "", "city": "Kanata", "zip_code": "K2T 1B6", "country": "CA", "state": "ON", "display_address": ["150 Earl Grey Drive", "Kanata, ON K2T 1B6", "Canada"]}, "phone": "+16135991336", "display_phone": "+1 613-599-1336", "distance": 1633.9065978441154}, {"id": "ilOLtsp0I9_mee9vF2X_Aw", "alias": "a-and-w-kanata", "name": "A&W", "image_url": "https://s3-media4.fl.yelpcdn.com/bphoto/R_6vEEvwuaWrxyXvfyoQvQ/o.jpg", "is_closed": false, "url": "https://www.yelp.com/biz/a-and-w-kanata?adjust_creative=a2JdNtFqB-C38ga_06BHvw&utm_campaign=yelp_api_v3&utm_medium=api_v3_business_search&utm_source=a2JdNtFqB-C38ga_06BHvw", "review_count": 3, "categories": [{"alias": "burgers", "title": "Burgers"}, {"alias": "hotdogs", "title": "Fast Food"}], "rating": 3.5, "coordinates": {"latitude": 45.29671, "longitude": -75.89975}, "transactions": [], "price": "$", "location": {"address1": "41 Edgewater Street", "address2": "", "address3": "", "city": "Kanata", "zip_code": "K2L 1V7", "country": "CA", "state": "ON", "display_address": ["41 Edgewater Street", "Kanata, ON K2L 1V7", "Canada"]}, "phone": "+16138369595", "display_phone": "+1 613-836-9595", "distance": 2083.6003051209004}, {"id": "FPv6oMQ1aOtQ-wzNl801HQ", "alias": "dairy-queen-grill-and-chill-kanata-3", "name": "Dairy Queen Grill & Chill", "image_url": "https://s3-media2.fl.yelpcdn.com/bphoto/YNn6SycjPYwcM23_w9Epig/o.jpg", "is_closed": false, "url": "https://www.yelp.com/biz/dairy-queen-grill-and-chill-kanata-3?adjust_creative=a2JdNtFqB-C38ga_06BHvw&utm_campaign=yelp_api_v3&utm_medium=api_v3_business_search&utm_source=a2JdNtFqB-C38ga_06BHvw", "review_count": 3, "categories": [{"alias": "hotdogs", "title": "Fast Food"}, {"alias": "icecream", "title": "Ice Cream & Frozen Yogurt"}], "rating": 3.5, "coordinates": {"latitude": 45.31024975094776, "longitude": -75.920398966063}, "transactions": [], "price": "$", "location": {"address1": "499 Terry Fox Drive", "address2": "Unit 110", "address3": "", "city": "Kanata", "zip_code": "K2T 1H7", "country": "CA", "state": "ON", "display_address": ["499 Terry Fox Drive", "Unit 110", "Kanata, ON K2T 1H7", "Canada"]}, "phone": "+16132545736", "display_phone": "+1 613-254-5736", "distance": 1551.7825015045362}, {"id": "AAafDFucOuW8MC4ItHEQwA", "alias": "chip-stop-ottawa", "name": "Chip Stop", "image_url": "https://s3-media3.fl.yelpcdn.com/bphoto/7sF-rNFC60LDPbrexzi2Gw/o.jpg", "is_closed": false, "url": "https://www.yelp.com/biz/chip-stop-ottawa?adjust_creative=a2JdNtFqB-C38ga_06BHvw&utm_campaign=yelp_api_v3&utm_medium=api_v3_business_search&utm_source=a2JdNtFqB-C38ga_06BHvw", "review_count": 1, "categories": [{"alias": "foodtrucks", "title": "Food Trucks"}, {"alias": "poutineries", "title": "Poutineries"}], "rating": 5.0, "coordinates": {"latitude": 45.2751572907991, "longitude": -75.94900701195}, "transactions": [], "location": {"address1": "2054 Carp Rd", "address2": "", "address3": null, "city": "Ottawa", "zip_code": "K0A 1L0", "country": "CA", "state": "ON", "display_address": ["2054 Carp Rd", "Ottawa, ON K0A 1L0", "Canada"]}, "phone": "", "display_phone": "", "distance": 2988.9475175070734}, {"id": "J0uKl5McL2YrpSTfNzd_3Q", "alias": "euro-bites-ottawa", "name": "Euro Bites", "image_url": "https://s3-media2.fl.yelpcdn.com/bphoto/2e7dglSMELVMhJ9fK3vn3w/o.jpg", "is_closed": false, "url": "https://www.yelp.com/biz/euro-bites-ottawa?adjust_creative=a2JdNtFqB-C38ga_06BHvw&utm_campaign=yelp_api_v3&utm_medium=api_v3_business_search&utm_source=a2JdNtFqB-C38ga_06BHvw", "review_count": 1, "categories": [{"alias": "foodtrucks", "title": "Food Trucks"}, {"alias": "polish", "title": "Polish"}, {"alias": "greek", "title": "Greek"}], "rating": 5.0, "coordinates": {"latitude": 45.27729, "longitude": -75.90369}, "transactions": [], "location": {"address1": "119 Iber Road", "address2": null, "address3": "", "city": "Ottawa", "zip_code": "K2S 1E7", "country": "CA", "state": "ON", "display_address": ["119 Iber Road", "Ottawa, ON K2S 1E7", "Canada"]}, "phone": "+13437775749", "display_phone": "+1 343-777-5749", "distance": 2850.866740952353}, {"id": "Er_0KvOcVIWgi3ZYFka_5A", "alias": "aromessö-café-ottawa-4", "name": "Aromessö Café", "image_url": "https://s3-media1.fl.yelpcdn.com/bphoto/meIqEWZcDFPXr49sr5SgTQ/o.jpg", "is_closed": false, "url": "https://www.yelp.com/biz/aromess%C3%B6-caf%C3%A9-ottawa-4?adjust_creative=a2JdNtFqB-C38ga_06BHvw&utm_campaign=yelp_api_v3&utm_medium=api_v3_business_search&utm_source=a2JdNtFqB-C38ga_06BHvw", "review_count": 1, "categories": [{"alias": "coffee", "title": "Coffee & Tea"}, {"alias": "bakeries", "title": "Bakeries"}, {"alias": "creperies", "title": "Creperies"}], "rating": 5.0, "coordinates": {"latitude": 45.298708, "longitude": -75.9366212}, "transactions": [], "location": {"address1": "8555 Campeau Drive", "address2": "Unit 852", "address3": null, "city": "Ottawa", "zip_code": "K2T 0K5", "country": "CA", "state": "ON", "display_address": ["8555 Campeau Drive", "Unit 852", "Ottawa, ON K2T 0K5", "Canada"]}, "phone": "+16136722666", "display_phone": "+1 613-672-2666", "distance": 787.1265028260381}, {"id": "jTjf_FURZaxuRyUEJZSO_g", "alias": "villa-madina-ottawa", "name": "Villa Madina", "image_url": "https://s3-media1.fl.yelpcdn.com/bphoto/01C4UHmdd9yX061kzv-lRg/o.jpg", "is_closed": false, "url": "https://www.yelp.com/biz/villa-madina-ottawa?adjust_creative=a2JdNtFqB-C38ga_06BHvw&utm_campaign=yelp_api_v3&utm_medium=api_v3_business_search&utm_source=a2JdNtFqB-C38ga_06BHvw", "review_count": 4, "categories": [{"alias": "mediterranean", "title": "Mediterranean"}], "rating": 3.0, "coordinates": {"latitude": 45.299118, "longitude": -75.9385681}, "transactions": [], "location": {"address1": "8555 Campeau Drive", "address2": "K2T 0K5", "address3": "", "city": "Ottawa", "zip_code": "K2T 0K5", "country": "CA", "state": "ON", "display_address": ["8555 Campeau Drive", "K2T 0K5", "Ottawa, ON K2T 0K5", "Canada"]}, "phone": "", "display_phone": "", "distance": 933.9197507810661}, {"id": "yPJdvCHtffFUOLurCGe8jw", "alias": "thai-express-kanata", "name": "Thai Express", "image_url": "https://s3-media1.fl.yelpcdn.com/bphoto/kQIi3KrOzadGVQ0geb8wwQ/o.jpg", "is_closed": false, "url": "https://www.yelp.com/biz/thai-express-kanata?adjust_creative=a2JdNtFqB-C38ga_06BHvw&utm_campaign=yelp_api_v3&utm_medium=api_v3_business_search&utm_source=a2JdNtFqB-C38ga_06BHvw", "review_count": 2, "categories": [{"alias": "thai", "title": "Thai"}], "rating": 3.5, "coordinates": {"latitude": 45.2897234474365, "longitude": -75.9024842193497}, "transactions": [], "location": {"address1": "5507 Hazeldean Road", "address2": null, "address3": "", "city": "Kanata", "zip_code": "K2S 0P5", "country": "CA", "state": "ON", "display_address": ["5507 Hazeldean Road", "Kanata, ON K2S 0P5", "Canada"]}, "phone": "+16138364446", "display_phone": "+1 613-836-4446", "distance": 2071.881652148165}, {"id": "UWKe2PGOXVxowaep1H3Iyg", "alias": "gabriel-pizza-ottawa-14", "name": "Gabriel Pizza", "image_url": "https://s3-media4.fl.yelpcdn.com/bphoto/P-AEt45pIoHdN7dnAINFew/o.jpg", "is_closed": false, "url": "https://www.yelp.com/biz/gabriel-pizza-ottawa-14?adjust_creative=a2JdNtFqB-C38ga_06BHvw&utm_campaign=yelp_api_v3&utm_medium=api_v3_business_search&utm_source=a2JdNtFqB-C38ga_06BHvw", "review_count": 2, "categories": [{"alias": "pizza", "title": "Pizza"}], "rating": 3.5, "coordinates": {"latitude": 45.2724270463383, "longitude": -75.9317855606172}, "transactions": [], "location": {"address1": "6081 Hazeldean Road", "address2": "", "address3": null, "city": "Ottawa", "zip_code": "K2S 1B9", "country": "CA", "state": "ON", "display_address": ["6081 Hazeldean Road", "Ottawa, ON K2S 1B9", "Canada"]}, "phone": "+16133107777", "display_phone": "+1 613-310-7777", "distance": 2765.115954525654}, {"id": "6hgp8cFgWi3awRl8uDPPlw", "alias": "mucho-burrito-ottawa-10", "name": "Mucho Burrito", "image_url": "", "is_closed": false, "url": "https://www.yelp.com/biz/mucho-burrito-ottawa-10?adjust_creative=a2JdNtFqB-C38ga_06BHvw&utm_campaign=yelp_api_v3&utm_medium=api_v3_business_search&utm_source=a2JdNtFqB-C38ga_06BHvw", "review_count": 2, "categories": [{"alias": "mexican", "title": "Mexican"}], "rating": 3.5, "coordinates": {"latitude": 45.27255, "longitude": -75.93213}, "transactions": [], "location": {"address1": "6081 Hazeldean Road", "address2": "", "address3": null, "city": "Ottawa", "zip_code": "K2S 1B9", "country": "CA", "state": "ON", "display_address": ["6081 Hazeldean Road", "Ottawa, ON K2S 1B9", "Canada"]}, "phone": "+16135950007", "display_phone": "+1 613-595-0007", "distance": 2776.066672034867}, {"id": "JkdJdPMVos1IedDTSJjW5w", "alias": "mcdonalds-kanata-2", "name": "McDonald's", "image_url": "https://s3-media2.fl.yelpcdn.com/bphoto/vq12vaicVEcOVweDga-_4A/o.jpg", "is_closed": false, "url": "https://www.yelp.com/biz/mcdonalds-kanata-2?adjust_creative=a2JdNtFqB-C38ga_06BHvw&utm_campaign=yelp_api_v3&utm_medium=api_v3_business_search&utm_source=a2JdNtFqB-C38ga_06BHvw", "review_count": 8, "categories": [{"alias": "hotdogs", "title": "Fast Food"}, {"alias": "burgers", "title": "Burgers"}], "rating": 2.0, "coordinates": {"latitude": 45.2934161252231, "longitude": -75.8947600159386}, "transactions": [], "price": "$", "location": {"address1": "510 Hazeldean Road", "address2": "", "address3": "", "city": "Kanata", "zip_code": "K2L 2B5", "country": "CA", "state": "ON", "display_address": ["510 Hazeldean Road", "Kanata, ON K2L 2B5", "Canada"]}, "phone": "+16138311143", "display_phone": "+1 613-831-1143", "distance": 2541.46336123353}, {"id": "s40lsgOcWaQ4-Ywd4czlvA", "alias": "lucky-dragon-delight-chinese-restaurant-stittsville", "name": "Lucky Dragon Delight Chinese Restaurant", "image_url": "https://s3-media1.fl.yelpcdn.com/bphoto/F1ncTUznq0nQ713kajE1sg/o.jpg", "is_closed": false, "url": "https://www.yelp.com/biz/lucky-dragon-delight-chinese-restaurant-stittsville?adjust_creative=a2JdNtFqB-C38ga_06BHvw&utm_campaign=yelp_api_v3&utm_medium=api_v3_business_search&utm_source=a2JdNtFqB-C38ga_06BHvw", "review_count": 7, "categories": [{"alias": "chinese", "title": "Chinese"}], "rating": 2.0, "coordinates": {"latitude": 45.2725487, "longitude": -75.9321289}, "transactions": [], "price": "$$$", "location": {"address1": "Jackson Trails Plaza", "address2": "6081 Hazeldean Road", "address3": "", "city": "Stittsville", "zip_code": "K2S 1B9", "country": "CA", "state": "ON", "display_address": ["Jackson Trails Plaza", "6081 Hazeldean Road", "Stittsville, ON K2S 1B9", "Canada"]}, "phone": "+16138367898", "display_phone": "+1 613-836-7898", "distance": 2776.066672034867}, {"id": "M98tVsXMb1SgfVQ0JxmhgA", "alias": "san-jose-mexican-foods-ottawa-2", "name": "San Jose Mexican Foods", "image_url": "", "is_closed": false, "url": "https://www.yelp.com/biz/san-jose-mexican-foods-ottawa-2?adjust_creative=a2JdNtFqB-C38ga_06BHvw&utm_campaign=yelp_api_v3&utm_medium=api_v3_business_search&utm_source=a2JdNtFqB-C38ga_06BHvw", "review_count": 2, "categories": [{"alias": "intlgrocery", "title": "International Grocery"}, {"alias": "mexican", "title": "Mexican"}, {"alias": "foodtrucks", "title": "Food Trucks"}], "rating": 3.0, "coordinates": {"latitude": 45.27261765150449, "longitude": -75.94599159648394}, "transactions": [], "location": {"address1": "1017B Carp Road", "address2": "", "address3": null, "city": "Ottawa", "zip_code": "K2S 1B9", "country": "CA", "state": "ON", "display_address": ["1017B Carp Road", "Ottawa, ON K2S 1B9", "Canada"]}, "phone": "+16134132295", "display_phone": "+1 613-413-2295", "distance": 3102.561176069944}, {"id": "9xb-G9Q3iReTzBOuFyUctg", "alias": "subway-kanata-5", "name": "Subway", "image_url": "", "is_closed": false, "url": "https://www.yelp.com/biz/subway-kanata-5?adjust_creative=a2JdNtFqB-C38ga_06BHvw&utm_campaign=yelp_api_v3&utm_medium=api_v3_business_search&utm_source=a2JdNtFqB-C38ga_06BHvw", "review_count": 2, "categories": [{"alias": "hotdogs", "title": "Fast Food"}, {"alias": "sandwiches", "title": "Sandwiches"}], "rating": 3.0, "coordinates": {"latitude": 45.3116004064419, "longitude": -75.9157500164611}, "transactions": [], "location": {"address1": "300 Earl Grey Drive", "address2": "", "address3": "", "city": "Kanata", "zip_code": "K2T 1B8", "country": "CA", "state": "ON", "display_address": ["300 Earl Grey Drive", "Kanata, ON K2T 1B8", "Canada"]}, "phone": "+16135999522", "display_phone": "+1 613-599-9522", "distance": 1835.7129544719623}, {"id": "vkrroHmPyy0wT39fgK1Y-g", "alias": "fritzys-fritz-ottawa", "name": "Fritzy's Fritz", "image_url": "", "is_closed": false, "url": "https://www.yelp.com/biz/fritzys-fritz-ottawa?adjust_creative=a2JdNtFqB-C38ga_06BHvw&utm_campaign=yelp_api_v3&utm_medium=api_v3_business_search&utm_source=a2JdNtFqB-C38ga_06BHvw", "review_count": 1, "categories": [{"alias": "foodstands", "title": "Food Stands"}, {"alias": "burgers", "title": "Burgers"}], "rating": 4.0, "coordinates": {"latitude": 45.27509, "longitude": -75.95154}, "transactions": [], "location": {"address1": "2079 Carp Road", "address2": "", "address3": "", "city": "Ottawa", "zip_code": "K0A 1L0", "country": "CA", "state": "ON", "display_address": ["2079 Carp Road", "Ottawa, ON K0A 1L0", "Canada"]}, "phone": "", "display_phone": "", "distance": 3083.8221216237694}, {"id": "7qlIOkgz7U24TZNQGighYQ", "alias": "renegade-chicken-kanata", "name": "Renegade Chicken", "image_url": "https://s3-media2.fl.yelpcdn.com/bphoto/VuJKW98ZWFpta79p0prJGg/o.jpg", "is_closed": false, "url": "https://www.yelp.com/biz/renegade-chicken-kanata?adjust_creative=a2JdNtFqB-C38ga_06BHvw&utm_campaign=yelp_api_v3&utm_medium=api_v3_business_search&utm_source=a2JdNtFqB-C38ga_06BHvw", "review_count": 1, "categories": [{"alias": "newcanadian", "title": "Canadian (New)"}], "rating": 4.0, "coordinates": {"latitude": 45.30816, "longitude": -75.91235}, "transactions": [], "location": {"address1": "125 Roland Michener Dr", "address2": null, "address3": null, "city": "Kanata", "zip_code": "K2T 1G7", "country": "CA", "state": "ON", "display_address": ["125 Roland Michener Dr", "Kanata, ON K2T 1G7", "Canada"]}, "phone": "+13433080655", "display_phone": "+1 343-308-0655", "distance": 1668.64775569369}, {"id": "pccMgHSQLG5pLi7VE7mezw", "alias": "milano-pizzeria-kanata", "name": "Milano Pizzeria", "image_url": "https://s3-media4.fl.yelpcdn.com/bphoto/S22rdVphc-d7zjA1-aMJaw/o.jpg", "is_closed": false, "url": "https://www.yelp.com/biz/milano-pizzeria-kanata?adjust_creative=a2JdNtFqB-C38ga_06BHvw&utm_campaign=yelp_api_v3&utm_medium=api_v3_business_search&utm_source=a2JdNtFqB-C38ga_06BHvw", "review_count": 1, "categories": [{"alias": "pizza", "title": "Pizza"}], "rating": 4.0, "coordinates": {"latitude": 45.2984324863134, "longitude": -75.8896408809788}, "transactions": [], "price": "$$", "location": {"address1": "471 Hazeldean Road", "address2": "", "address3": "", "city": "Kanata", "zip_code": "K2L 4B8", "country": "CA", "state": "ON", "display_address": ["471 Hazeldean Road", "Kanata, ON K2L 4B8", "Canada"]}, "phone": "+16138313355", "display_phone": "+1 613-831-3355", "distance": 2913.4986951327182}, {"id": "xPDszo9e4lyrREuDGcAqhA", "alias": "club-red-by-scotiabank-ottawa", "name": "Club Red by Scotiabank", "image_url": "https://s3-media2.fl.yelpcdn.com/bphoto/_5W3Ge4D96Qj-FkOF0V15A/o.jpg", "is_closed": false, "url": "https://www.yelp.com/biz/club-red-by-scotiabank-ottawa?adjust_creative=a2JdNtFqB-C38ga_06BHvw&utm_campaign=yelp_api_v3&utm_medium=api_v3_business_search&utm_source=a2JdNtFqB-C38ga_06BHvw", "review_count": 3, "categories": [{"alias": "newcanadian", "title": "Canadian (New)"}, {"alias": "french", "title": "French"}], "rating": 2.5, "coordinates": {"latitude": 45.2967594221489, "longitude": -75.9261349448171}, "transactions": [], "price": "$$$", "location": {"address1": "110-1000 Palladium Drive", "address2": "", "address3": "", "city": "Ottawa", "zip_code": "K2V 1A5", "country": "CA", "state": "ON", "display_address": ["110-1000 Palladium Drive", "Ottawa, ON K2V 1A5", "Canada"]}, "phone": "+16135992582", "display_phone": "+1 613-599-2582", "distance": 63.74649358738898}, {"id": "srlSXUQe1DxqJS7Tn1eNqg", "alias": "berts-kanata", "name": "Bert's", "image_url": "https://s3-media2.fl.yelpcdn.com/bphoto/hrhm-enQJipTyCUTaE1hvQ/o.jpg", "is_closed": false, "url": "https://www.yelp.com/biz/berts-kanata?adjust_creative=a2JdNtFqB-C38ga_06BHvw&utm_campaign=yelp_api_v3&utm_medium=api_v3_business_search&utm_source=a2JdNtFqB-C38ga_06BHvw", "review_count": 4, "categories": [{"alias": "pubs", "title": "Pubs"}, {"alias": "italian", "title": "Italian"}, {"alias": "tradamerican", "title": "American (Traditional)"}], "rating": 2.0, "coordinates": {"latitude": 45.2966805, "longitude": -75.9272003}, "transactions": [], "price": "$$", "location": {"address1": "Scotiabank Place", "address2": "1000 Palladium Dr", "address3": "", "city": "Kanata", "zip_code": "K2V 1A4", "country": "CA", "state": "ON", "display_address": ["Scotiabank Place", "1000 Palladium Dr", "Kanata, ON K2V 1A4", "Canada"]}, "phone": "+16135992582", "display_phone": "+1 613-599-2582", "distance": 119.35704404265122}, {"id": "Vp6Ic65GFeB5VexhFY3AzA", "alias": "egg-roll-plus-kanata", "name": "Egg Roll Plus", "image_url": "", "is_closed": false, "url": "https://www.yelp.com/biz/egg-roll-plus-kanata?adjust_creative=a2JdNtFqB-C38ga_06BHvw&utm_campaign=yelp_api_v3&utm_medium=api_v3_business_search&utm_source=a2JdNtFqB-C38ga_06BHvw", "review_count": 3, "categories": [{"alias": "chinese", "title": "Chinese"}], "rating": 1.5, "coordinates": {"latitude": 45.298418960102495, "longitude": -75.88991194662034}, "transactions": [], "price": "$$", "location": {"address1": "471 Hazeldean Road", "address2": "", "address3": "", "city": "Kanata", "zip_code": "K2L 4B8", "country": "CA", "state": "ON", "display_address": ["471 Hazeldean Road", "Kanata, ON K2L 4B8", "Canada"]}, "phone": "+16138318888", "display_phone": "+1 613-831-8888", "distance": 2892.247304527213}, {"id": "dee-2cUe3YzmwrjAZ-dE-A", "alias": "stanleys-fresh-grill-ottawa", "name": "Stanley's Fresh Grill", "image_url": "", "is_closed": false, "url": "https://www.yelp.com/biz/stanleys-fresh-grill-ottawa?adjust_creative=a2JdNtFqB-C38ga_06BHvw&utm_campaign=yelp_api_v3&utm_medium=api_v3_business_search&utm_source=a2JdNtFqB-C38ga_06BHvw", "review_count": 2, "categories": [{"alias": "newcanadian", "title": "Canadian (New)"}, {"alias": "steak", "title": "Steakhouses"}], "rating": 1.5, "coordinates": {"latitude": 45.2967682, "longitude": -75.9096069}, "transactions": [], "location": {"address1": "Bell Sensplex", "address2": "1565 Maple Grove Road", "address3": "", "city": "Ottawa", "zip_code": "K2V 1A3", "country": "CA", "state": "ON", "display_address": ["Bell Sensplex", "1565 Maple Grove Road", "Ottawa, ON K2V 1A3", "Canada"]}, "phone": "+16135990395", "display_phone": "+1 613-599-0395", "distance": 1386.7783287761235}, {"id": "k6QugSN0NwHdCxCatvUMAQ", "alias": "wendys-kanata-2", "name": "Wendy's", "image_url": "https://s3-media1.fl.yelpcdn.com/bphoto/-p4HeYlu_JRBFAudvKg9AA/o.jpg", "is_closed": false, "url": "https://www.yelp.com/biz/wendys-kanata-2?adjust_creative=a2JdNtFqB-C38ga_06BHvw&utm_campaign=yelp_api_v3&utm_medium=api_v3_business_search&utm_source=a2JdNtFqB-C38ga_06BHvw", "review_count": 3, "categories": [{"alias": "burgers", "title": "Burgers"}, {"alias": "hotdogs", "title": "Fast Food"}], "rating": 1.0, "coordinates": {"latitude": 45.2946079568437, "longitude": -75.8941430971026}, "transactions": [], "location": {"address1": "6 Edgewater Drive", "address2": "", "address3": "", "city": "Kanata", "zip_code": "K2L 1V8", "country": "CA", "state": "ON", "display_address": ["6 Edgewater Drive", "Kanata, ON K2L 1V8", "Canada"]}, "phone": "+16138365316", "display_phone": "+1 613-836-5316", "distance": 2571.7439887649434}, {"id": "bPJWyhGc3SkbKCwzvy9_PQ", "alias": "tim-hortons-kanata-2", "name": "Tim Hortons", "image_url": "https://s3-media1.fl.yelpcdn.com/bphoto/mzofbqo2SwRxHe0k8VdhCA/o.jpg", "is_closed": false, "url": "https://www.yelp.com/biz/tim-hortons-kanata-2?adjust_creative=a2JdNtFqB-C38ga_06BHvw&utm_campaign=yelp_api_v3&utm_medium=api_v3_business_search&utm_source=a2JdNtFqB-C38ga_06BHvw", "review_count": 2, "categories": [{"alias": "coffee", "title": "Coffee & Tea"}, {"alias": "breakfast_brunch", "title": "Breakfast & Brunch"}, {"alias": "sandwiches", "title": "Sandwiches"}], "rating": 1.0, "coordinates": {"latitude": 45.2950935760772, "longitude": -75.8938633962654}, "transactions": [], "price": "$", "location": {"address1": "6 Edgewater Street", "address2": "", "address3": "", "city": "Kanata", "zip_code": "K2L 1V8", "country": "CA", "state": "ON", "display_address": ["6 Edgewater Street", "Kanata, ON K2L 1V8", "Canada"]}, "phone": "+16138310843", "display_phone": "+1 613-831-0843", "distance": 2588.394454685028}, {"id": "RXql4Xq7Fx03BBdQ2PJ8cQ", "alias": "gabriel-s-pizza-ottawa", "name": "Gabriel’s Pizza", "image_url": "", "is_closed": false, "url": "https://www.yelp.com/biz/gabriel-s-pizza-ottawa?adjust_creative=a2JdNtFqB-C38ga_06BHvw&utm_campaign=yelp_api_v3&utm_medium=api_v3_business_search&utm_source=a2JdNtFqB-C38ga_06BHvw", "review_count": 2, "categories": [{"alias": "pizza", "title": "Pizza"}], "rating": 1.0, "coordinates": {"latitude": 45.315922, "longitude": -75.920677}, "transactions": [], "location": {"address1": "2 Goldridge Drive", "address2": "", "address3": null, "city": "Ottawa", "zip_code": "K2T 1C7", "country": "CA", "state": "ON", "display_address": ["2 Goldridge Drive", "Ottawa, ON K2T 1C7", "Canada"]}, "phone": "+16132700707", "display_phone": "+1 613-270-0707", "distance": 2153.1246920248063}, {"id": "YydqzxIOvD1YpDcFu5KOkQ", "alias": "mcdonalds-kanata-6", "name": "McDonald's", "image_url": "https://s3-media1.fl.yelpcdn.com/bphoto/e-DDZ12IXYLX3VrrtJ999A/o.jpg", "is_closed": false, "url": "https://www.yelp.com/biz/mcdonalds-kanata-6?adjust_creative=a2JdNtFqB-C38ga_06BHvw&utm_campaign=yelp_api_v3&utm_medium=api_v3_business_search&utm_source=a2JdNtFqB-C38ga_06BHvw", "review_count": 1, "categories": [{"alias": "hotdogs", "title": "Fast Food"}, {"alias": "burgers", "title": "Burgers"}], "rating": 1.0, "coordinates": {"latitude": 45.2959245281441, "longitude": -75.9412809619713}, "transactions": [], "location": {"address1": "3015 Palladium Drive", "address2": "", "address3": null, "city": "Kanata", "zip_code": "K2T 0N2", "country": "CA", "state": "ON", "display_address": ["3015 Palladium Drive", "Kanata, ON K2T 0N2", "Canada"]}, "phone": "+16135916006", "display_phone": "+1 613-591-6006", "distance": 1136.6216864589755}], "absolute total": 84, "total": 84}